{
"type": "FeatureCollection",
"name": "map-points",
"crs": { "type": "name", "properties": { "name": "urn:ogc:def:crs:OGC:1.3:CRS84" } },
"features": [
{ "type": "Feature", "properties": { "osm_id": "605220525", "name": "民宿とうべえ", "barrier": null, "highway": null, "ref": null, "address": null, "is_in": null, "place": null, "man_made": null, "other_tags": "\"name:en\"=>\"Minshuku Toube\",\"name:ja\"=>\"民宿とうべえ\",\"name:ja_kana\"=>\"みんしゅくとうべ\",\"name:ja_rm\"=>\"Minshuku Toube\",\"tourism\"=>\"guest_house\"", "area": null, "centroid_x": 139.2189957, "centroid_y": 34.329123 }, "geometry": { "type": "Point", "coordinates": [ 139.2189957, 34.329123 ] } },
{ "type": "Feature", "properties": { "osm_id": "1420780015", "name": "式根島郵便局", "barrier": null, "highway": null, "ref": null, "address": null, "is_in": null, "place": null, "man_made": null, "other_tags": "\"amenity\"=>\"post_office\",\"name:en\"=>\"Shikinejima Post Office\",\"name:ja\"=>\"式根島郵便局\",\"name:ja_kana\"=>\"しきねじまゆうびんきょく\",\"name:ja_rm\"=>\"Shikinejima Yubinkyoku\",\"note:ja\"=>\"国土数値情報（公共施設データ）平成19年　国土交通省\",\"opening_hours\"=>\"Mo-Fr 08:00-16:00\",\"phone\"=>\"+81 04992 7 0001\",\"source_ref\"=>\"http://nlftp.mlit.go.jp/ksj/jpgis/datalist/KsjTmplt-P02-v2_0.html\"", "area": null, "centroid_x": 139.2161017, "centroid_y": 34.3274953 }, "geometry": { "type": "Point", "coordinates": [ 139.2161017, 34.3274953 ] } },
{ "type": "Feature", "properties": { "osm_id": "1420780865", "name": "新島警察署式根島駐在所", "barrier": null, "highway": null, "ref": null, "address": null, "is_in": null, "place": null, "man_made": null, "other_tags": "\"amenity\"=>\"police\",\"name:en\"=>\"Shikinejima Police Station\",\"name:ja\"=>\"新島警察署式根島駐在所\",\"name:ja_kana\"=>\"にいじまけいさつしょしきねじまちゅうざいしょ\",\"note:ja\"=>\"国土数値情報（公共施設データ）平成19年　国土交通省\",\"source_ref\"=>\"http://nlftp.mlit.go.jp/ksj/jpgis/datalist/KsjTmplt-P02-v2_0.html\"", "area": null, "centroid_x": 139.2222363, "centroid_y": 34.3276577 }, "geometry": { "type": "Point", "coordinates": [ 139.2222363, 34.3276577 ] } },
{ "type": "Feature", "properties": { "osm_id": "1635789159", "name": null, "barrier": null, "highway": "traffic_signals", "ref": null, "address": null, "is_in": null, "place": null, "man_made": null, "other_tags": "\"traffic_signals\"=>\"signal\"", "area": null, "centroid_x": 139.2147885, "centroid_y": 34.3303409 }, "geometry": { "type": "Point", "coordinates": [ 139.2147885, 34.3303409 ] } },
{ "type": "Feature", "properties": { "osm_id": "1635789608", "name": null, "barrier": null, "highway": null, "ref": null, "address": null, "is_in": null, "place": null, "man_made": null, "other_tags": "\"amenity\"=>\"ferry_terminal\",\"ferry\"=>\"yes\",\"public_transport\"=>\"station\"", "area": null, "centroid_x": 139.2158208, "centroid_y": 34.3350671 }, "geometry": { "type": "Point", "coordinates": [ 139.215820799999989, 34.3350671 ] } },
{ "type": "Feature", "properties": { "osm_id": "3259183358", "name": "地鉈温泉", "barrier": null, "highway": null, "ref": null, "address": null, "is_in": null, "place": "locality", "man_made": null, "other_tags": "\"amenity\"=>\"public_bath\",\"bath:type\"=>\"onsen\",\"fee\"=>\"no\",\"natural\"=>\"hot_spring\",\"wikidata\"=>\"Q11424716\"", "area": null, "centroid_x": 139.2160101, "centroid_y": 34.3178786 }, "geometry": { "type": "Point", "coordinates": [ 139.2160101, 34.3178786 ] } },
{ "type": "Feature", "properties": { "osm_id": "4271603398", "name": null, "barrier": null, "highway": null, "ref": null, "address": null, "is_in": null, "place": null, "man_made": "lighthouse", "other_tags": null, "area": null, "centroid_x": 139.220389, "centroid_y": 34.3200899 }, "geometry": { "type": "Point", "coordinates": [ 139.220389, 34.3200899 ] } },
{ "type": "Feature", "properties": { "osm_id": "4271603430", "name": null, "barrier": null, "highway": null, "ref": null, "address": null, "is_in": null, "place": null, "man_made": null, "other_tags": "\"amenity\"=>\"place_of_worship\",\"religion\"=>\"shinto\"", "area": null, "centroid_x": 139.2239944, "centroid_y": 34.3292535 }, "geometry": { "type": "Point", "coordinates": [ 139.2239944, 34.3292535 ] } },
{ "type": "Feature", "properties": { "osm_id": "4271603474", "name": "モトカタ", "barrier": null, "highway": null, "ref": null, "address": null, "is_in": null, "place": null, "man_made": null, "other_tags": "\"name:en\"=>\"Cape Motokata\",\"name:ja\"=>\"モトカタ\",\"name:ja-Hira\"=>\"もとかた\",\"natural\"=>\"cape\"", "area": null, "centroid_x": 139.1963875, "centroid_y": 34.3166 }, "geometry": { "type": "Point", "coordinates": [ 139.196387499999986, 34.3166 ] } },
{ "type": "Feature", "properties": { "osm_id": "4271603477", "name": "小浜", "barrier": null, "highway": null, "ref": null, "address": null, "is_in": null, "place": "neighbourhood", "man_made": null, "other_tags": null, "area": null, "centroid_x": 139.219954, "centroid_y": 34.3303005 }, "geometry": { "type": "Point", "coordinates": [ 139.219954, 34.3303005 ] } },
{ "type": "Feature", "properties": { "osm_id": "4271603478", "name": "式根ヶ沢", "barrier": null, "highway": null, "ref": null, "address": null, "is_in": null, "place": "neighbourhood", "man_made": null, "other_tags": null, "area": null, "centroid_x": 139.2172722, "centroid_y": 34.3228352 }, "geometry": { "type": "Point", "coordinates": [ 139.2172722, 34.3228352 ] } },
{ "type": "Feature", "properties": { "osm_id": "4271603481", "name": "泊", "barrier": null, "highway": null, "ref": null, "address": null, "is_in": null, "place": "neighbourhood", "man_made": null, "other_tags": null, "area": null, "centroid_x": 139.2121934, "centroid_y": 34.3348273 }, "geometry": { "type": "Point", "coordinates": [ 139.2121934, 34.3348273 ] } },
{ "type": "Feature", "properties": { "osm_id": "4271603482", "name": "海驢立鼻", "barrier": null, "highway": null, "ref": null, "address": null, "is_in": null, "place": null, "man_made": null, "other_tags": "\"name:en\"=>\"Cape Ashikandachibana\",\"name:ja\"=>\"海驢立鼻\",\"name:ja-Hira\"=>\"あしかんだちばな\",\"name:ja-Latn\"=>\"Ashikandachi-bana\",\"natural\"=>\"cape\"", "area": null, "centroid_x": 139.1941588, "centroid_y": 34.3202765 }, "geometry": { "type": "Point", "coordinates": [ 139.1941588, 34.3202765 ] } },
{ "type": "Feature", "properties": { "osm_id": "4271603483", "name": "焼山", "barrier": null, "highway": null, "ref": null, "address": null, "is_in": null, "place": "neighbourhood", "man_made": null, "other_tags": null, "area": null, "centroid_x": 139.2177774, "centroid_y": 34.3260309 }, "geometry": { "type": "Point", "coordinates": [ 139.217777399999989, 34.3260309 ] } },
{ "type": "Feature", "properties": { "osm_id": "4271603484", "name": "石白川", "barrier": null, "highway": null, "ref": null, "address": null, "is_in": null, "place": "neighbourhood", "man_made": null, "other_tags": null, "area": null, "centroid_x": 139.2222059, "centroid_y": 34.324797 }, "geometry": { "type": "Point", "coordinates": [ 139.2222059, 34.324797 ] } },
{ "type": "Feature", "properties": { "osm_id": "4271603486", "name": "袴ヶ崎", "barrier": null, "highway": null, "ref": null, "address": null, "is_in": null, "place": "locality", "man_made": null, "other_tags": "\"natural\"=>\"cape\"", "area": null, "centroid_x": 139.2007031, "centroid_y": 34.3294846 }, "geometry": { "type": "Point", "coordinates": [ 139.2007031, 34.3294846 ] } },
{ "type": "Feature", "properties": { "osm_id": "4271603487", "name": "足付温泉", "barrier": null, "highway": null, "ref": null, "address": null, "is_in": null, "place": "locality", "man_made": null, "other_tags": "\"amenity\"=>\"public_bath\",\"bath:type\"=>\"onsen\",\"fee\"=>\"no\",\"natural\"=>\"hot_spring\"", "area": null, "centroid_x": 139.2175764, "centroid_y": 34.3198614 }, "geometry": { "type": "Point", "coordinates": [ 139.217576400000013, 34.3198614 ] } },
{ "type": "Feature", "properties": { "osm_id": "4271603488", "name": "野伏", "barrier": null, "highway": null, "ref": null, "address": null, "is_in": null, "place": "neighbourhood", "man_made": null, "other_tags": null, "area": null, "centroid_x": 139.2135692, "centroid_y": 34.3296259 }, "geometry": { "type": "Point", "coordinates": [ 139.2135692, 34.3296259 ] } },
{ "type": "Feature", "properties": { "osm_id": "4271614995", "name": null, "barrier": null, "highway": null, "ref": null, "address": null, "is_in": null, "place": null, "man_made": null, "other_tags": "\"power\"=>\"generator\"", "area": null, "centroid_x": 139.2213769, "centroid_y": 34.3312902 }, "geometry": { "type": "Point", "coordinates": [ 139.2213769, 34.3312902 ] } },
{ "type": "Feature", "properties": { "osm_id": "4271614996", "name": "平床岩", "barrier": null, "highway": null, "ref": null, "address": null, "is_in": null, "place": "islet", "man_made": null, "other_tags": "\"name:ja-Hira\"=>\"ひらとこいわ\",\"name:ja-Latn\"=>\"Hiratoko Iwa\"", "area": null, "centroid_x": 139.2269633, "centroid_y": 34.3303179 }, "geometry": { "type": "Point", "coordinates": [ 139.2269633, 34.3303179 ] } },
{ "type": "Feature", "properties": { "osm_id": "4277532177", "name": "新島村", "barrier": null, "highway": null, "ref": null, "address": null, "is_in": null, "place": null, "man_made": null, "other_tags": null, "area": null, "centroid_x": 139.2169729, "centroid_y": 34.3298925 }, "geometry": { "type": "Point", "coordinates": [ 139.2169729, 34.3298925 ] } },
{ "type": "Feature", "properties": { "osm_id": "4841221623", "name": "式根館", "barrier": null, "highway": null, "ref": null, "address": null, "is_in": null, "place": null, "man_made": null, "other_tags": "\"name:ja\"=>\"式根館\",\"tourism\"=>\"hotel\"", "area": null, "centroid_x": 139.2149504, "centroid_y": 34.330155 }, "geometry": { "type": "Point", "coordinates": [ 139.2149504, 34.330155 ] } },
{ "type": "Feature", "properties": { "osm_id": "4841277023", "name": null, "barrier": null, "highway": null, "ref": null, "address": null, "is_in": null, "place": null, "man_made": null, "other_tags": "\"amenity\"=>\"toilets\"", "area": null, "centroid_x": 139.2092815, "centroid_y": 34.3306011 }, "geometry": { "type": "Point", "coordinates": [ 139.2092815, 34.3306011 ] } },
{ "type": "Feature", "properties": { "osm_id": "4841286521", "name": "馬岩", "barrier": null, "highway": null, "ref": null, "address": null, "is_in": null, "place": null, "man_made": null, "other_tags": "\"name:ja\"=>\"馬岩\",\"natural\"=>\"rock\"", "area": null, "centroid_x": 139.2088552, "centroid_y": 34.3310191 }, "geometry": { "type": "Point", "coordinates": [ 139.208855199999988, 34.3310191 ] } },
{ "type": "Feature", "properties": { "osm_id": "4841293122", "name": "まいまいず井戸", "barrier": null, "highway": null, "ref": null, "address": null, "is_in": null, "place": null, "man_made": null, "other_tags": "\"historic\"=>\"ruins\",\"name:ja\"=>\"まいまいず井戸\",\"tourism\"=>\"attraction\"", "area": null, "centroid_x": 139.2201375, "centroid_y": 34.3236501 }, "geometry": { "type": "Point", "coordinates": [ 139.2201375, 34.3236501 ] } },
{ "type": "Feature", "properties": { "osm_id": "4841293123", "name": null, "barrier": null, "highway": null, "ref": null, "address": null, "is_in": null, "place": null, "man_made": null, "other_tags": "\"amenity\"=>\"toilets\"", "area": null, "centroid_x": 139.2253597, "centroid_y": 34.3279981 }, "geometry": { "type": "Point", "coordinates": [ 139.225359700000013, 34.3279981 ] } },
{ "type": "Feature", "properties": { "osm_id": "4841296622", "name": "湯加減の穴", "barrier": null, "highway": null, "ref": null, "address": null, "is_in": null, "place": null, "man_made": null, "other_tags": "\"name:ja\"=>\"湯加減の穴\",\"tourism\"=>\"attraction\"", "area": null, "centroid_x": 139.2158393, "centroid_y": 34.3213192 }, "geometry": { "type": "Point", "coordinates": [ 139.2158393, 34.3213192 ] } },
{ "type": "Feature", "properties": { "osm_id": "4841332121", "name": "御釜湾第一展望台", "barrier": null, "highway": null, "ref": null, "address": null, "is_in": null, "place": null, "man_made": null, "other_tags": "\"name:ja\"=>\"御釜湾第一展望台\",\"tourism\"=>\"viewpoint\"", "area": null, "centroid_x": 139.2019516, "centroid_y": 34.3207418 }, "geometry": { "type": "Point", "coordinates": [ 139.2019516, 34.3207418 ] } },
{ "type": "Feature", "properties": { "osm_id": "5006832362", "name": "きらくや", "barrier": null, "highway": null, "ref": null, "address": null, "is_in": null, "place": null, "man_made": null, "other_tags": "\"tourism\"=>\"hotel\"", "area": null, "centroid_x": 139.2154121, "centroid_y": 34.3285729 }, "geometry": { "type": "Point", "coordinates": [ 139.2154121, 34.3285729 ] } },
{ "type": "Feature", "properties": { "osm_id": "5006832364", "name": "フレッシュ SHINYA", "barrier": null, "highway": null, "ref": null, "address": null, "is_in": null, "place": null, "man_made": null, "other_tags": "\"shop\"=>\"convenience\"", "area": null, "centroid_x": 139.2145217, "centroid_y": 34.330631 }, "geometry": { "type": "Point", "coordinates": [ 139.2145217, 34.330631 ] } },
{ "type": "Feature", "properties": { "osm_id": "5006832366", "name": null, "barrier": null, "highway": null, "ref": null, "address": null, "is_in": null, "place": null, "man_made": null, "other_tags": "\"amenity\"=>\"vending_machine\",\"vending\"=>\"drinks\"", "area": null, "centroid_x": 139.2147663, "centroid_y": 34.3291755 }, "geometry": { "type": "Point", "coordinates": [ 139.2147663, 34.3291755 ] } },
{ "type": "Feature", "properties": { "osm_id": "5006832367", "name": "千漁", "barrier": null, "highway": null, "ref": null, "address": null, "is_in": null, "place": null, "man_made": null, "other_tags": "\"amenity\"=>\"pub\",\"opening_hours\"=>\"11:00-14:00, 18:00-22:00\"", "area": null, "centroid_x": 139.2157003, "centroid_y": 34.3278303 }, "geometry": { "type": "Point", "coordinates": [ 139.2157003, 34.3278303 ] } },
{ "type": "Feature", "properties": { "osm_id": "5006832368", "name": null, "barrier": null, "highway": null, "ref": null, "address": null, "is_in": null, "place": null, "man_made": null, "other_tags": "\"amenity\"=>\"telephone\"", "area": null, "centroid_x": 139.2148421, "centroid_y": 34.3303859 }, "geometry": { "type": "Point", "coordinates": [ 139.2148421, 34.3303859 ] } },
{ "type": "Feature", "properties": { "osm_id": "5006832371", "name": "ASANO", "barrier": null, "highway": null, "ref": null, "address": null, "is_in": null, "place": null, "man_made": null, "other_tags": "\"shop\"=>\"stationery\"", "area": null, "centroid_x": 139.2158789, "centroid_y": 34.3274314 }, "geometry": { "type": "Point", "coordinates": [ 139.2158789, 34.3274314 ] } },
{ "type": "Feature", "properties": { "osm_id": "5006832372", "name": "吉野屋", "barrier": null, "highway": null, "ref": null, "address": null, "is_in": null, "place": null, "man_made": null, "other_tags": "\"tourism\"=>\"hotel\"", "area": null, "centroid_x": 139.2146447, "centroid_y": 34.329834 }, "geometry": { "type": "Point", "coordinates": [ 139.2146447, 34.329834 ] } },
{ "type": "Feature", "properties": { "osm_id": "5006832373", "name": "コカ・コーラ", "barrier": null, "highway": null, "ref": null, "address": null, "is_in": null, "place": null, "man_made": null, "other_tags": "\"amenity\"=>\"vending_machine\",\"brand\"=>\"コカ・コーラ\",\"brand:en\"=>\"Coca-Cola\",\"brand:ja\"=>\"コカ・コーラ\",\"brand:wikidata\"=>\"Q2813\",\"brand:wikipedia\"=>\"ja:コカ・コーラ\",\"drink:cola\"=>\"yes\",\"name:en\"=>\"Coca-Cola\",\"name:ja\"=>\"コカ・コーラ\",\"vending\"=>\"drinks\"", "area": null, "centroid_x": 139.2151494, "centroid_y": 34.3287596 }, "geometry": { "type": "Point", "coordinates": [ 139.2151494, 34.3287596 ] } },
{ "type": "Feature", "properties": { "osm_id": "5006832375", "name": "レンタサイクルSHINYA", "barrier": null, "highway": null, "ref": null, "address": null, "is_in": null, "place": null, "man_made": null, "other_tags": "\"amenity\"=>\"bicycle_rental\"", "area": null, "centroid_x": 139.214579, "centroid_y": 34.3305824 }, "geometry": { "type": "Point", "coordinates": [ 139.214579, 34.3305824 ] } },
{ "type": "Feature", "properties": { "osm_id": "5006832377", "name": "年間民宿 三好屋", "barrier": null, "highway": null, "ref": null, "address": null, "is_in": null, "place": null, "man_made": null, "other_tags": "\"tourism\"=>\"hotel\"", "area": null, "centroid_x": 139.2146053, "centroid_y": 34.3293357 }, "geometry": { "type": "Point", "coordinates": [ 139.214605299999988, 34.3293357 ] } },
{ "type": "Feature", "properties": { "osm_id": "5006832379", "name": "式根島モータース・レンタカー", "barrier": null, "highway": null, "ref": null, "address": null, "is_in": null, "place": null, "man_made": null, "other_tags": "\"amenity\"=>\"car_rental\"", "area": null, "centroid_x": 139.2154911, "centroid_y": 34.3278646 }, "geometry": { "type": "Point", "coordinates": [ 139.2154911, 34.3278646 ] } },
{ "type": "Feature", "properties": { "osm_id": "5006832380", "name": "ラメールSHIKINE", "barrier": null, "highway": null, "ref": null, "address": null, "is_in": null, "place": null, "man_made": null, "other_tags": "\"tourism\"=>\"hotel\"", "area": null, "centroid_x": 139.2149709, "centroid_y": 34.3307494 }, "geometry": { "type": "Point", "coordinates": [ 139.2149709, 34.3307494 ] } },
{ "type": "Feature", "properties": { "osm_id": "5006832382", "name": null, "barrier": null, "highway": null, "ref": null, "address": null, "is_in": null, "place": null, "man_made": null, "other_tags": "\"amenity\"=>\"vending_machine\",\"covered\"=>\"no\",\"vending\"=>\"drinks\"", "area": null, "centroid_x": 139.2148755, "centroid_y": 34.3289707 }, "geometry": { "type": "Point", "coordinates": [ 139.2148755, 34.3289707 ] } },
{ "type": "Feature", "properties": { "osm_id": "5006832383", "name": "式根島モータース", "barrier": null, "highway": null, "ref": null, "address": null, "is_in": null, "place": null, "man_made": null, "other_tags": "\"amenity\"=>\"bicycle_rental\"", "area": null, "centroid_x": 139.2160024, "centroid_y": 34.3275844 }, "geometry": { "type": "Point", "coordinates": [ 139.2160024, 34.3275844 ] } },
{ "type": "Feature", "properties": { "osm_id": "5006832384", "name": "年間民宿 水久", "barrier": null, "highway": null, "ref": null, "address": null, "is_in": null, "place": null, "man_made": null, "other_tags": "\"tourism\"=>\"hotel\"", "area": null, "centroid_x": 139.2148707, "centroid_y": 34.3298149 }, "geometry": { "type": "Point", "coordinates": [ 139.2148707, 34.3298149 ] } },
{ "type": "Feature", "properties": { "osm_id": "5006832386", "name": "民宿 池松", "barrier": null, "highway": null, "ref": null, "address": null, "is_in": null, "place": null, "man_made": null, "other_tags": "\"tourism\"=>\"hotel\"", "area": null, "centroid_x": 139.2150853, "centroid_y": 34.3289103 }, "geometry": { "type": "Point", "coordinates": [ 139.2150853, 34.3289103 ] } },
{ "type": "Feature", "properties": { "osm_id": "5006832389", "name": "清川屋", "barrier": null, "highway": null, "ref": null, "address": null, "is_in": null, "place": null, "man_made": null, "other_tags": "\"tourism\"=>\"hotel\"", "area": null, "centroid_x": 139.2148943, "centroid_y": 34.3295687 }, "geometry": { "type": "Point", "coordinates": [ 139.2148943, 34.3295687 ] } },
{ "type": "Feature", "properties": { "osm_id": "5006832391", "name": "島cafe", "barrier": null, "highway": null, "ref": null, "address": null, "is_in": null, "place": null, "man_made": null, "other_tags": "\"amenity\"=>\"cafe\",\"opening_hours\"=>\"08:30-15:00, 17:30-22:00\"", "area": null, "centroid_x": 139.2153333, "centroid_y": 34.3283055 }, "geometry": { "type": "Point", "coordinates": [ 139.2153333, 34.3283055 ] } },
{ "type": "Feature", "properties": { "osm_id": "5006832393", "name": "新屋", "barrier": null, "highway": null, "ref": null, "address": null, "is_in": null, "place": null, "man_made": null, "other_tags": "\"tourism\"=>\"hotel\"", "area": null, "centroid_x": 139.2143475, "centroid_y": 34.3307785 }, "geometry": { "type": "Point", "coordinates": [ 139.2143475, 34.3307785 ] } },
{ "type": "Feature", "properties": { "osm_id": "5006832394", "name": null, "barrier": null, "highway": null, "ref": null, "address": null, "is_in": null, "place": null, "man_made": null, "other_tags": "\"amenity\"=>\"post_box\",\"colour\"=>\"red\"", "area": null, "centroid_x": 139.2148325, "centroid_y": 34.3290644 }, "geometry": { "type": "Point", "coordinates": [ 139.2148325, 34.3290644 ] } },
{ "type": "Feature", "properties": { "osm_id": "5006832396", "name": "下田屋", "barrier": null, "highway": null, "ref": null, "address": null, "is_in": null, "place": null, "man_made": null, "other_tags": null, "area": null, "centroid_x": 139.2157387, "centroid_y": 34.3277255 }, "geometry": { "type": "Point", "coordinates": [ 139.2157387, 34.3277255 ] } },
{ "type": "Feature", "properties": { "osm_id": "5006832397", "name": "レンタサイクル 水久", "barrier": null, "highway": null, "ref": null, "address": null, "is_in": null, "place": null, "man_made": null, "other_tags": "\"amenity\"=>\"bicycle_rental\"", "area": null, "centroid_x": 139.2148454, "centroid_y": 34.3297303 }, "geometry": { "type": "Point", "coordinates": [ 139.2148454, 34.3297303 ] } },
{ "type": "Feature", "properties": { "osm_id": "5006832399", "name": "池松丸", "barrier": null, "highway": null, "ref": null, "address": null, "is_in": null, "place": null, "man_made": null, "other_tags": null, "area": null, "centroid_x": 139.2150368, "centroid_y": 34.3289871 }, "geometry": { "type": "Point", "coordinates": [ 139.2150368, 34.3289871 ] } },
{ "type": "Feature", "properties": { "osm_id": "5006832400", "name": "ABCびようしつ", "barrier": null, "highway": null, "ref": null, "address": null, "is_in": null, "place": null, "man_made": null, "other_tags": "\"shop\"=>\"hairdresser\"", "area": null, "centroid_x": 139.2159613, "centroid_y": 34.3269274 }, "geometry": { "type": "Point", "coordinates": [ 139.2159613, 34.3269274 ] } },
{ "type": "Feature", "properties": { "osm_id": "5006832401", "name": "きよかわ屋レンタサイクル", "barrier": null, "highway": null, "ref": null, "address": null, "is_in": null, "place": null, "man_made": null, "other_tags": "\"amenity\"=>\"bicycle_rental\"", "area": null, "centroid_x": 139.2148348, "centroid_y": 34.3294103 }, "geometry": { "type": "Point", "coordinates": [ 139.2148348, 34.3294103 ] } },
{ "type": "Feature", "properties": { "osm_id": "5007349789", "name": "神引展望台", "barrier": null, "highway": null, "ref": null, "address": null, "is_in": null, "place": null, "man_made": null, "other_tags": "\"tourism\"=>\"viewpoint\",\"wikidata\"=>\"Q117253775\",\"wikipedia\"=>\"ja:神引展望台\"", "area": null, "centroid_x": 139.2039298, "centroid_y": 34.3258795 }, "geometry": { "type": "Point", "coordinates": [ 139.2039298, 34.3258795 ] } },
{ "type": "Feature", "properties": { "osm_id": "5007349798", "name": null, "barrier": null, "highway": null, "ref": null, "address": null, "is_in": null, "place": null, "man_made": null, "other_tags": "\"tourism\"=>\"viewpoint\"", "area": null, "centroid_x": 139.2034464, "centroid_y": 34.326218 }, "geometry": { "type": "Point", "coordinates": [ 139.2034464, 34.326218 ] } },
{ "type": "Feature", "properties": { "osm_id": "5007349809", "name": null, "barrier": null, "highway": null, "ref": null, "address": null, "is_in": null, "place": null, "man_made": null, "other_tags": "\"amenity\"=>\"toilets\"", "area": null, "centroid_x": 139.2044064, "centroid_y": 34.3249596 }, "geometry": { "type": "Point", "coordinates": [ 139.204406400000011, 34.3249596 ] } },
{ "type": "Feature", "properties": { "osm_id": "5007349812", "name": null, "barrier": null, "highway": null, "ref": null, "address": null, "is_in": null, "place": null, "man_made": null, "other_tags": "\"amenity\"=>\"bench\"", "area": null, "centroid_x": 139.2254505, "centroid_y": 34.3273014 }, "geometry": { "type": "Point", "coordinates": [ 139.2254505, 34.3273014 ] } },
{ "type": "Feature", "properties": { "osm_id": "5008659059", "name": "すえひろ", "barrier": null, "highway": null, "ref": null, "address": null, "is_in": null, "place": null, "man_made": null, "other_tags": null, "area": null, "centroid_x": 139.2166252, "centroid_y": 34.3241735 }, "geometry": { "type": "Point", "coordinates": [ 139.21662520000001, 34.3241735 ] } },
{ "type": "Feature", "properties": { "osm_id": "5008659061", "name": "mola2", "barrier": null, "highway": null, "ref": null, "address": null, "is_in": null, "place": null, "man_made": null, "other_tags": "\"shop\"=>\"clothes\"", "area": null, "centroid_x": 139.218969, "centroid_y": 34.3246177 }, "geometry": { "type": "Point", "coordinates": [ 139.218969, 34.3246177 ] } },
{ "type": "Feature", "properties": { "osm_id": "5008659062", "name": "開島記念碑", "barrier": null, "highway": null, "ref": null, "address": null, "is_in": null, "place": null, "man_made": null, "other_tags": "\"historic\"=>\"memorial\"", "area": null, "centroid_x": 139.2199674, "centroid_y": 34.3235458 }, "geometry": { "type": "Point", "coordinates": [ 139.2199674, 34.3235458 ] } },
{ "type": "Feature", "properties": { "osm_id": "5008659063", "name": null, "barrier": null, "highway": null, "ref": null, "address": null, "is_in": null, "place": null, "man_made": null, "other_tags": "\"historic\"=>\"memorial\"", "area": null, "centroid_x": 139.2193191, "centroid_y": 34.3215411 }, "geometry": { "type": "Point", "coordinates": [ 139.2193191, 34.3215411 ] } },
{ "type": "Feature", "properties": { "osm_id": "5008659064", "name": "式根島開発総合センター", "barrier": null, "highway": null, "ref": null, "address": null, "is_in": null, "place": null, "man_made": null, "other_tags": "\"amenity\"=>\"community_centre\"", "area": null, "centroid_x": 139.2161936, "centroid_y": 34.3254225 }, "geometry": { "type": "Point", "coordinates": [ 139.2161936, 34.3254225 ] } },
{ "type": "Feature", "properties": { "osm_id": "5008659065", "name": "年間民宿 恵美寿", "barrier": null, "highway": null, "ref": null, "address": null, "is_in": null, "place": null, "man_made": null, "other_tags": "\"tourism\"=>\"hotel\"", "area": null, "centroid_x": 139.2191097, "centroid_y": 34.3239952 }, "geometry": { "type": "Point", "coordinates": [ 139.2191097, 34.3239952 ] } },
{ "type": "Feature", "properties": { "osm_id": "5008659066", "name": "名勝 地鉈温泉", "barrier": null, "highway": null, "ref": null, "address": null, "is_in": null, "place": null, "man_made": null, "other_tags": "\"information\"=>\"board\",\"tourism\"=>\"information\"", "area": null, "centroid_x": 139.215382, "centroid_y": 34.3192832 }, "geometry": { "type": "Point", "coordinates": [ 139.215382, 34.3192832 ] } },
{ "type": "Feature", "properties": { "osm_id": "5008659067", "name": "津山富久丸", "barrier": null, "highway": null, "ref": null, "address": null, "is_in": null, "place": null, "man_made": null, "other_tags": "\"tourism\"=>\"hotel\"", "area": null, "centroid_x": 139.2172844, "centroid_y": 34.3243757 }, "geometry": { "type": "Point", "coordinates": [ 139.217284400000011, 34.3243757 ] } },
{ "type": "Feature", "properties": { "osm_id": "5008659068", "name": "Paradise", "barrier": null, "highway": null, "ref": null, "address": null, "is_in": null, "place": null, "man_made": null, "other_tags": "\"disused:shop\"=>\"yes\"", "area": null, "centroid_x": 139.2206838, "centroid_y": 34.3234814 }, "geometry": { "type": "Point", "coordinates": [ 139.220683799999989, 34.3234814 ] } },
{ "type": "Feature", "properties": { "osm_id": "5008659069", "name": "しきね　あまぁにいらのココロイキ！！", "barrier": null, "highway": null, "ref": null, "address": null, "is_in": null, "place": null, "man_made": null, "other_tags": "\"shop\"=>\"seafood\"", "area": null, "centroid_x": 139.2193315, "centroid_y": 34.3220801 }, "geometry": { "type": "Point", "coordinates": [ 139.21933150000001, 34.3220801 ] } },
{ "type": "Feature", "properties": { "osm_id": "5008659070", "name": "しんさん", "barrier": null, "highway": null, "ref": null, "address": null, "is_in": null, "place": null, "man_made": null, "other_tags": "\"amenity\"=>\"bicycle_rental\"", "area": null, "centroid_x": 139.2191896, "centroid_y": 34.3249168 }, "geometry": { "type": "Point", "coordinates": [ 139.2191896, 34.3249168 ] } },
{ "type": "Feature", "properties": { "osm_id": "5008659071", "name": null, "barrier": null, "highway": null, "ref": null, "address": null, "is_in": null, "place": null, "man_made": null, "other_tags": "\"amenity\"=>\"toilets\"", "area": null, "centroid_x": 139.2198457, "centroid_y": 34.3238447 }, "geometry": { "type": "Point", "coordinates": [ 139.2198457, 34.3238447 ] } },
{ "type": "Feature", "properties": { "osm_id": "5008659072", "name": "新島村役場 式根島支所", "barrier": null, "highway": null, "ref": null, "address": null, "is_in": null, "place": null, "man_made": null, "other_tags": "\"amenity\"=>\"townhall\"", "area": null, "centroid_x": 139.2162499, "centroid_y": 34.3250041 }, "geometry": { "type": "Point", "coordinates": [ 139.2162499, 34.3250041 ] } },
{ "type": "Feature", "properties": { "osm_id": "5008659073", "name": "もんじゃ焼 佐助", "barrier": null, "highway": null, "ref": null, "address": null, "is_in": null, "place": null, "man_made": null, "other_tags": "\"amenity\"=>\"restaurant\"", "area": null, "centroid_x": 139.2196271, "centroid_y": 34.3237217 }, "geometry": { "type": "Point", "coordinates": [ 139.2196271, 34.3237217 ] } },
{ "type": "Feature", "properties": { "osm_id": "5008659075", "name": "民宿 そね", "barrier": null, "highway": null, "ref": null, "address": null, "is_in": null, "place": null, "man_made": null, "other_tags": "\"tourism\"=>\"hotel\"", "area": null, "centroid_x": 139.2176733, "centroid_y": 34.3241571 }, "geometry": { "type": "Point", "coordinates": [ 139.2176733, 34.3241571 ] } },
{ "type": "Feature", "properties": { "osm_id": "5008659076", "name": "史跡 式根島まいまず井戸", "barrier": null, "highway": null, "ref": null, "address": null, "is_in": null, "place": null, "man_made": null, "other_tags": "\"information\"=>\"board\",\"tourism\"=>\"information\"", "area": null, "centroid_x": 139.2202221, "centroid_y": 34.323605 }, "geometry": { "type": "Point", "coordinates": [ 139.2202221, 34.323605 ] } },
{ "type": "Feature", "properties": { "osm_id": "5008659077", "name": null, "barrier": null, "highway": null, "ref": null, "address": null, "is_in": null, "place": null, "man_made": null, "other_tags": "\"amenity\"=>\"telephone\"", "area": null, "centroid_x": 139.2190501, "centroid_y": 34.3216589 }, "geometry": { "type": "Point", "coordinates": [ 139.2190501, 34.3216589 ] } },
{ "type": "Feature", "properties": { "osm_id": "5008659078", "name": null, "barrier": null, "highway": null, "ref": null, "address": null, "is_in": null, "place": null, "man_made": null, "other_tags": "\"historic\"=>\"wayside_shrine\",\"religion\"=>\"shinto\"", "area": null, "centroid_x": 139.2190393, "centroid_y": 34.324438 }, "geometry": { "type": "Point", "coordinates": [ 139.2190393, 34.324438 ] } },
{ "type": "Feature", "properties": { "osm_id": "5008659080", "name": "サイクル大臣", "barrier": null, "highway": null, "ref": null, "address": null, "is_in": null, "place": null, "man_made": null, "other_tags": "\"amenity\"=>\"bicycle_rental\"", "area": null, "centroid_x": 139.2164332, "centroid_y": 34.3242321 }, "geometry": { "type": "Point", "coordinates": [ 139.216433200000012, 34.3242321 ] } },
{ "type": "Feature", "properties": { "osm_id": "5008659083", "name": "てらぴ〜十治朗", "barrier": null, "highway": null, "ref": null, "address": null, "is_in": null, "place": null, "man_made": null, "other_tags": "\"tourism\"=>\"hotel\"", "area": null, "centroid_x": 139.2186752, "centroid_y": 34.3244258 }, "geometry": { "type": "Point", "coordinates": [ 139.2186752, 34.3244258 ] } },
{ "type": "Feature", "properties": { "osm_id": "5008659084", "name": null, "barrier": null, "highway": null, "ref": null, "address": null, "is_in": null, "place": null, "man_made": null, "other_tags": "\"amenity\"=>\"toilets\"", "area": null, "centroid_x": 139.2216051, "centroid_y": 34.3234254 }, "geometry": { "type": "Point", "coordinates": [ 139.2216051, 34.3234254 ] } },
{ "type": "Feature", "properties": { "osm_id": "5008659085", "name": null, "barrier": null, "highway": null, "ref": null, "address": null, "is_in": null, "place": null, "man_made": null, "other_tags": "\"amenity\"=>\"bench\",\"backrest\"=>\"yes\",\"mapillary\"=>\"1627422314122212\",\"survey:date\"=>\"2017-08-02\"", "area": null, "centroid_x": 139.219211, "centroid_y": 34.3214892 }, "geometry": { "type": "Point", "coordinates": [ 139.219211, 34.3214892 ] } },
{ "type": "Feature", "properties": { "osm_id": "5008659086", "name": "開島百年記念碑", "barrier": null, "highway": null, "ref": null, "address": null, "is_in": null, "place": null, "man_made": null, "other_tags": "\"historic\"=>\"memorial\"", "area": null, "centroid_x": 139.2161271, "centroid_y": 34.3255817 }, "geometry": { "type": "Point", "coordinates": [ 139.2161271, 34.3255817 ] } },
{ "type": "Feature", "properties": { "osm_id": "5008659087", "name": "いのうえ", "barrier": null, "highway": null, "ref": null, "address": null, "is_in": null, "place": null, "man_made": null, "other_tags": "\"shop\"=>\"gift\"", "area": null, "centroid_x": 139.2193254, "centroid_y": 34.3240708 }, "geometry": { "type": "Point", "coordinates": [ 139.2193254, 34.3240708 ] } },
{ "type": "Feature", "properties": { "osm_id": "5008659088", "name": null, "barrier": null, "highway": null, "ref": null, "address": null, "is_in": null, "place": null, "man_made": null, "other_tags": "\"amenity\"=>\"telephone\"", "area": null, "centroid_x": 139.2154413, "centroid_y": 34.3192785 }, "geometry": { "type": "Point", "coordinates": [ 139.2154413, 34.3192785 ] } },
{ "type": "Feature", "properties": { "osm_id": "5008659089", "name": "朋輩の樹", "barrier": null, "highway": null, "ref": null, "address": null, "is_in": null, "place": null, "man_made": null, "other_tags": "\"natural\"=>\"tree\"", "area": null, "centroid_x": 139.21682, "centroid_y": 34.3247067 }, "geometry": { "type": "Point", "coordinates": [ 139.21682, 34.3247067 ] } },
{ "type": "Feature", "properties": { "osm_id": "5008659091", "name": null, "barrier": null, "highway": null, "ref": null, "address": null, "is_in": null, "place": null, "man_made": null, "other_tags": "\"amenity\"=>\"vending_machine\"", "area": null, "centroid_x": 139.2193298, "centroid_y": 34.3220184 }, "geometry": { "type": "Point", "coordinates": [ 139.2193298, 34.3220184 ] } },
{ "type": "Feature", "properties": { "osm_id": "5008659092", "name": null, "barrier": null, "highway": null, "ref": null, "address": null, "is_in": null, "place": null, "man_made": null, "other_tags": "\"amenity\"=>\"fast_food\",\"cuisine\"=>\"ice_cream\"", "area": null, "centroid_x": 139.2190864, "centroid_y": 34.3247656 }, "geometry": { "type": "Point", "coordinates": [ 139.2190864, 34.3247656 ] } },
{ "type": "Feature", "properties": { "osm_id": "5008659093", "name": null, "barrier": null, "highway": null, "ref": null, "address": null, "is_in": null, "place": null, "man_made": null, "other_tags": "\"building\"=>\"yes\",\"historic\"=>\"wayside_shrine\",\"religion\"=>\"shinto\"", "area": null, "centroid_x": 139.2200461, "centroid_y": 34.3237994 }, "geometry": { "type": "Point", "coordinates": [ 139.2200461, 34.3237994 ] } },
{ "type": "Feature", "properties": { "osm_id": "5008659094", "name": null, "barrier": null, "highway": null, "ref": null, "address": null, "is_in": null, "place": null, "man_made": null, "other_tags": "\"amenity\"=>\"telephone\"", "area": null, "centroid_x": 139.2161664, "centroid_y": 34.3248921 }, "geometry": { "type": "Point", "coordinates": [ 139.2161664, 34.3248921 ] } },
{ "type": "Feature", "properties": { "osm_id": "5008659095", "name": "KILLER WOLF", "barrier": null, "highway": null, "ref": null, "address": null, "is_in": null, "place": null, "man_made": null, "other_tags": "\"shop\"=>\"water_sports\"", "area": null, "centroid_x": 139.2196249, "centroid_y": 34.3237916 }, "geometry": { "type": "Point", "coordinates": [ 139.219624900000014, 34.3237916 ] } },
{ "type": "Feature", "properties": { "osm_id": "5008659097", "name": "ドルフィン", "barrier": null, "highway": null, "ref": null, "address": null, "is_in": null, "place": null, "man_made": null, "other_tags": null, "area": null, "centroid_x": 139.2176001, "centroid_y": 34.3243286 }, "geometry": { "type": "Point", "coordinates": [ 139.2176001, 34.3243286 ] } },
{ "type": "Feature", "properties": { "osm_id": "5008659098", "name": "MIYAFUSA", "barrier": null, "highway": null, "ref": null, "address": null, "is_in": null, "place": null, "man_made": null, "other_tags": "\"shop\"=>\"alcohol\"", "area": null, "centroid_x": 139.2204856, "centroid_y": 34.3235065 }, "geometry": { "type": "Point", "coordinates": [ 139.220485599999989, 34.3235065 ] } },
{ "type": "Feature", "properties": { "osm_id": "5008659099", "name": "シキネ独立協和国", "barrier": null, "highway": null, "ref": null, "address": null, "is_in": null, "place": null, "man_made": null, "other_tags": "\"historic\"=>\"memorial\"", "area": null, "centroid_x": 139.2189872, "centroid_y": 34.3216343 }, "geometry": { "type": "Point", "coordinates": [ 139.218987199999987, 34.3216343 ] } },
{ "type": "Feature", "properties": { "osm_id": "5008659100", "name": null, "barrier": null, "highway": null, "ref": null, "address": null, "is_in": null, "place": null, "man_made": null, "other_tags": "\"amenity\"=>\"telephone\"", "area": null, "centroid_x": 139.2190601, "centroid_y": 34.3244745 }, "geometry": { "type": "Point", "coordinates": [ 139.2190601, 34.3244745 ] } },
{ "type": "Feature", "properties": { "osm_id": "5008659102", "name": "千代屋", "barrier": null, "highway": null, "ref": null, "address": null, "is_in": null, "place": null, "man_made": null, "other_tags": "\"tourism\"=>\"hotel\"", "area": null, "centroid_x": 139.2162831, "centroid_y": 34.3243084 }, "geometry": { "type": "Point", "coordinates": [ 139.2162831, 34.3243084 ] } },
{ "type": "Feature", "properties": { "osm_id": "5008659104", "name": "中華 上山", "barrier": null, "highway": null, "ref": null, "address": null, "is_in": null, "place": null, "man_made": null, "other_tags": "\"amenity\"=>\"restaurant\"", "area": null, "centroid_x": 139.2184353, "centroid_y": 34.3243342 }, "geometry": { "type": "Point", "coordinates": [ 139.21843530000001, 34.3243342 ] } },
{ "type": "Feature", "properties": { "osm_id": "5008659105", "name": null, "barrier": null, "highway": null, "ref": null, "address": null, "is_in": null, "place": null, "man_made": null, "other_tags": "\"amenity\"=>\"bench\"", "area": null, "centroid_x": 139.2216506, "centroid_y": 34.3235891 }, "geometry": { "type": "Point", "coordinates": [ 139.2216506, 34.3235891 ] } },
{ "type": "Feature", "properties": { "osm_id": "5008659106", "name": null, "barrier": null, "highway": null, "ref": null, "address": null, "is_in": null, "place": null, "man_made": null, "other_tags": "\"amenity\"=>\"bench\",\"backrest\"=>\"yes\",\"mapillary\"=>\"3073870122899240\",\"survey:date\"=>\"2017-08-02\"", "area": null, "centroid_x": 139.2192254, "centroid_y": 34.3215766 }, "geometry": { "type": "Point", "coordinates": [ 139.2192254, 34.3215766 ] } },
{ "type": "Feature", "properties": { "osm_id": "5008659107", "name": null, "barrier": null, "highway": null, "ref": null, "address": null, "is_in": null, "place": null, "man_made": "tower", "other_tags": null, "area": null, "centroid_x": 139.2152981, "centroid_y": 34.325959 }, "geometry": { "type": "Point", "coordinates": [ 139.215298100000012, 34.325959 ] } },
{ "type": "Feature", "properties": { "osm_id": "5008659108", "name": "GIFT OKUYAMA", "barrier": null, "highway": null, "ref": null, "address": null, "is_in": null, "place": null, "man_made": null, "other_tags": "\"shop\"=>\"supermarket\"", "area": null, "centroid_x": 139.2188762, "centroid_y": 34.3244106 }, "geometry": { "type": "Point", "coordinates": [ 139.218876200000011, 34.3244106 ] } },
{ "type": "Feature", "properties": { "osm_id": "5008659110", "name": "朋輩の樹", "barrier": null, "highway": null, "ref": null, "address": null, "is_in": null, "place": null, "man_made": null, "other_tags": "\"natural\"=>\"tree\"", "area": null, "centroid_x": 139.2168574, "centroid_y": 34.3247053 }, "geometry": { "type": "Point", "coordinates": [ 139.2168574, 34.3247053 ] } },
{ "type": "Feature", "properties": { "osm_id": "5008659111", "name": "まんぼう", "barrier": null, "highway": null, "ref": null, "address": null, "is_in": null, "place": null, "man_made": null, "other_tags": "\"amenity\"=>\"bicycle_rental\"", "area": null, "centroid_x": 139.2190262, "centroid_y": 34.3246719 }, "geometry": { "type": "Point", "coordinates": [ 139.2190262, 34.3246719 ] } },
{ "type": "Feature", "properties": { "osm_id": "5008659112", "name": null, "barrier": null, "highway": null, "ref": null, "address": null, "is_in": null, "place": null, "man_made": null, "other_tags": "\"amenity\"=>\"telephone\"", "area": null, "centroid_x": 139.2198254, "centroid_y": 34.323668 }, "geometry": { "type": "Point", "coordinates": [ 139.2198254, 34.323668 ] } },
{ "type": "Feature", "properties": { "osm_id": "5008659113", "name": "式根島福祉センター", "barrier": null, "highway": null, "ref": null, "address": null, "is_in": null, "place": null, "man_made": null, "other_tags": "\"amenity\"=>\"social_facility\"", "area": null, "centroid_x": 139.2162282, "centroid_y": 34.32509 }, "geometry": { "type": "Point", "coordinates": [ 139.216228199999989, 34.32509 ] } },
{ "type": "Feature", "properties": { "osm_id": "5008659114", "name": "前岩商店", "barrier": null, "highway": null, "ref": null, "address": null, "is_in": null, "place": null, "man_made": null, "other_tags": "\"shop\"=>\"gift\"", "area": null, "centroid_x": 139.2192967, "centroid_y": 34.3239271 }, "geometry": { "type": "Point", "coordinates": [ 139.2192967, 34.3239271 ] } },
{ "type": "Feature", "properties": { "osm_id": "5008659115", "name": null, "barrier": null, "highway": null, "ref": null, "address": null, "is_in": null, "place": null, "man_made": null, "other_tags": "\"amenity\"=>\"toilets\"", "area": null, "centroid_x": 139.2150911, "centroid_y": 34.3191942 }, "geometry": { "type": "Point", "coordinates": [ 139.2150911, 34.3191942 ] } },
{ "type": "Feature", "properties": { "osm_id": "5008659116", "name": "みやとら", "barrier": null, "highway": null, "ref": null, "address": null, "is_in": null, "place": null, "man_made": null, "other_tags": "\"shop\"=>\"convenience\"", "area": null, "centroid_x": 139.2170842, "centroid_y": 34.3243681 }, "geometry": { "type": "Point", "coordinates": [ 139.217084199999988, 34.3243681 ] } },
{ "type": "Feature", "properties": { "osm_id": "5008659117", "name": "サンバレー", "barrier": null, "highway": null, "ref": null, "address": null, "is_in": null, "place": null, "man_made": null, "other_tags": "\"amenity\"=>\"restaurant\"", "area": null, "centroid_x": 139.2205866, "centroid_y": 34.3236416 }, "geometry": { "type": "Point", "coordinates": [ 139.2205866, 34.3236416 ] } },
{ "type": "Feature", "properties": { "osm_id": "5008659118", "name": "足附屋旅館", "barrier": null, "highway": null, "ref": null, "address": null, "is_in": null, "place": null, "man_made": null, "other_tags": "\"tourism\"=>\"hotel\"", "area": null, "centroid_x": 139.2190874, "centroid_y": 34.3218752 }, "geometry": { "type": "Point", "coordinates": [ 139.2190874, 34.3218752 ] } },
{ "type": "Feature", "properties": { "osm_id": "5008659119", "name": null, "barrier": null, "highway": null, "ref": null, "address": null, "is_in": null, "place": null, "man_made": null, "other_tags": "\"amenity\"=>\"post_box\"", "area": null, "centroid_x": 139.2190639, "centroid_y": 34.3245017 }, "geometry": { "type": "Point", "coordinates": [ 139.2190639, 34.3245017 ] } },
{ "type": "Feature", "properties": { "osm_id": "5008659621", "name": "マリン", "barrier": null, "highway": null, "ref": null, "address": null, "is_in": null, "place": null, "man_made": null, "other_tags": "\"amenity\"=>\"bar\"", "area": null, "centroid_x": 139.2162454, "centroid_y": 34.3245159 }, "geometry": { "type": "Point", "coordinates": [ 139.2162454, 34.3245159 ] } },
{ "type": "Feature", "properties": { "osm_id": "5008659624", "name": "中華 大師", "barrier": null, "highway": null, "ref": null, "address": null, "is_in": null, "place": null, "man_made": null, "other_tags": "\"amenity\"=>\"restaurant\"", "area": null, "centroid_x": 139.2181669, "centroid_y": 34.3244313 }, "geometry": { "type": "Point", "coordinates": [ 139.2181669, 34.3244313 ] } },
{ "type": "Feature", "properties": { "osm_id": "5008659625", "name": "式根島観光マップ", "barrier": null, "highway": null, "ref": null, "address": null, "is_in": null, "place": null, "man_made": null, "other_tags": "\"information\"=>\"map\",\"tourism\"=>\"information\"", "area": null, "centroid_x": 139.2199889, "centroid_y": 34.3236336 }, "geometry": { "type": "Point", "coordinates": [ 139.2199889, 34.3236336 ] } },
{ "type": "Feature", "properties": { "osm_id": "5008659626", "name": null, "barrier": null, "highway": null, "ref": null, "address": null, "is_in": null, "place": null, "man_made": null, "other_tags": "\"amenity\"=>\"toilets\"", "area": null, "centroid_x": 139.2189662, "centroid_y": 34.3212543 }, "geometry": { "type": "Point", "coordinates": [ 139.218966200000011, 34.3212543 ] } },
{ "type": "Feature", "properties": { "osm_id": "5008659627", "name": "式根島診療所", "barrier": null, "highway": null, "ref": null, "address": null, "is_in": null, "place": null, "man_made": null, "other_tags": "\"amenity\"=>\"doctors\"", "area": null, "centroid_x": 139.2151854, "centroid_y": 34.3263076 }, "geometry": { "type": "Point", "coordinates": [ 139.2151854, 34.3263076 ] } },
{ "type": "Feature", "properties": { "osm_id": "5008659628", "name": "式根島レンタルセンターげんべい", "barrier": null, "highway": null, "ref": null, "address": null, "is_in": null, "place": null, "man_made": null, "other_tags": "\"amenity\"=>\"bicycle_rental\"", "area": null, "centroid_x": 139.2189977, "centroid_y": 34.3243302 }, "geometry": { "type": "Point", "coordinates": [ 139.218997699999989, 34.3243302 ] } },
{ "type": "Feature", "properties": { "osm_id": "5008998796", "name": null, "barrier": null, "highway": null, "ref": null, "address": null, "is_in": null, "place": null, "man_made": null, "other_tags": "\"tourism\"=>\"picnic_site\"", "area": null, "centroid_x": 139.2089368, "centroid_y": 34.3303516 }, "geometry": { "type": "Point", "coordinates": [ 139.2089368, 34.3303516 ] } },
{ "type": "Feature", "properties": { "osm_id": "5008998799", "name": "民宿 かいぐん", "barrier": null, "highway": null, "ref": null, "address": null, "is_in": null, "place": null, "man_made": null, "other_tags": "\"tourism\"=>\"hotel\"", "area": null, "centroid_x": 139.2126358, "centroid_y": 34.3330422 }, "geometry": { "type": "Point", "coordinates": [ 139.212635799999987, 34.3330422 ] } },
{ "type": "Feature", "properties": { "osm_id": "5008998800", "name": "美松屋", "barrier": null, "highway": null, "ref": null, "address": null, "is_in": null, "place": null, "man_made": null, "other_tags": "\"tourism\"=>\"hotel\"", "area": null, "centroid_x": 139.215949, "centroid_y": 34.3253296 }, "geometry": { "type": "Point", "coordinates": [ 139.215949, 34.3253296 ] } },
{ "type": "Feature", "properties": { "osm_id": "5008998805", "name": "松が下雅湯", "barrier": null, "highway": null, "ref": null, "address": null, "is_in": null, "place": "locality", "man_made": null, "other_tags": "\"amenity\"=>\"public_bath\",\"bath:type\"=>\"onsen\",\"fee\"=>\"no\",\"natural\"=>\"hot_spring\"", "area": null, "centroid_x": 139.2182186, "centroid_y": 34.3205906 }, "geometry": { "type": "Point", "coordinates": [ 139.2182186, 34.3205906 ] } },
{ "type": "Feature", "properties": { "osm_id": "5008998808", "name": null, "barrier": null, "highway": null, "ref": null, "address": null, "is_in": null, "place": null, "man_made": null, "other_tags": "\"amenity\"=>\"bicycle_parking\"", "area": null, "centroid_x": 139.2090769, "centroid_y": 34.3305443 }, "geometry": { "type": "Point", "coordinates": [ 139.209076900000014, 34.3305443 ] } },
{ "type": "Feature", "properties": { "osm_id": "5010612972", "name": null, "barrier": null, "highway": null, "ref": null, "address": null, "is_in": null, "place": null, "man_made": null, "other_tags": "\"amenity\"=>\"bench\",\"backrest\"=>\"no\",\"mapillary\"=>\"1144734779299806\",\"survey:date\"=>\"2017-08-03\"", "area": null, "centroid_x": 139.2068131, "centroid_y": 34.3280655 }, "geometry": { "type": "Point", "coordinates": [ 139.2068131, 34.3280655 ] } },
{ "type": "Feature", "properties": { "osm_id": "5011791314", "name": "ぐんじ山展望台", "barrier": null, "highway": null, "ref": null, "address": null, "is_in": null, "place": null, "man_made": null, "other_tags": "\"tourism\"=>\"viewpoint\"", "area": null, "centroid_x": 139.2249057, "centroid_y": 34.3252853 }, "geometry": { "type": "Point", "coordinates": [ 139.2249057, 34.3252853 ] } },
{ "type": "Feature", "properties": { "osm_id": "5011794328", "name": "唐人津城", "barrier": null, "highway": null, "ref": null, "address": null, "is_in": null, "place": "locality", "man_made": null, "other_tags": null, "area": null, "centroid_x": 139.1960987, "centroid_y": 34.3211407 }, "geometry": { "type": "Point", "coordinates": [ 139.1960987, 34.3211407 ] } },
{ "type": "Feature", "properties": { "osm_id": "5011794329", "name": "隈の井", "barrier": null, "highway": null, "ref": null, "address": null, "is_in": null, "place": "locality", "man_made": null, "other_tags": null, "area": null, "centroid_x": 139.1985154, "centroid_y": 34.3180793 }, "geometry": { "type": "Point", "coordinates": [ 139.1985154, 34.3180793 ] } },
{ "type": "Feature", "properties": { "osm_id": "5011794338", "name": "高森灯台", "barrier": null, "highway": null, "ref": null, "address": null, "is_in": null, "place": null, "man_made": "lighthouse", "other_tags": null, "area": null, "centroid_x": 139.2204814, "centroid_y": 34.3323567 }, "geometry": { "type": "Point", "coordinates": [ 139.220481400000011, 34.3323567 ] } },
{ "type": "Feature", "properties": { "osm_id": "5011794339", "name": null, "barrier": null, "highway": null, "ref": null, "address": null, "is_in": null, "place": null, "man_made": null, "other_tags": "\"tourism\"=>\"viewpoint\"", "area": null, "centroid_x": 139.2161509, "centroid_y": 34.3322471 }, "geometry": { "type": "Point", "coordinates": [ 139.2161509, 34.3322471 ] } },
{ "type": "Feature", "properties": { "osm_id": "5011794340", "name": "式根島温泉憩の家", "barrier": null, "highway": null, "ref": null, "address": null, "is_in": null, "place": null, "man_made": null, "other_tags": "\"amenity\"=>\"public_bath\",\"bath:type\"=>\"onsen\"", "area": null, "centroid_x": 139.2164031, "centroid_y": 34.3214442 }, "geometry": { "type": "Point", "coordinates": [ 139.2164031, 34.3214442 ] } },
{ "type": "Feature", "properties": { "osm_id": "5011794341", "name": "足地山展望台", "barrier": null, "highway": null, "ref": null, "address": null, "is_in": null, "place": null, "man_made": null, "other_tags": "\"tourism\"=>\"viewpoint\"", "area": null, "centroid_x": 139.2164621, "centroid_y": 34.319003 }, "geometry": { "type": "Point", "coordinates": [ 139.2164621, 34.319003 ] } },
{ "type": "Feature", "properties": { "osm_id": "5013011199", "name": null, "barrier": null, "highway": null, "ref": null, "address": null, "is_in": null, "place": null, "man_made": null, "other_tags": "\"historic\"=>\"wayside_shrine\",\"religion\"=>\"shinto\"", "area": null, "centroid_x": 139.2203687, "centroid_y": 34.3317908 }, "geometry": { "type": "Point", "coordinates": [ 139.2203687, 34.3317908 ] } },
{ "type": "Feature", "properties": { "osm_id": "5013011200", "name": "高森観音", "barrier": null, "highway": null, "ref": null, "address": null, "is_in": null, "place": null, "man_made": null, "other_tags": "\"historic\"=>\"memorial\"", "area": null, "centroid_x": 139.2203338, "centroid_y": 34.3318085 }, "geometry": { "type": "Point", "coordinates": [ 139.2203338, 34.3318085 ] } },
{ "type": "Feature", "properties": { "osm_id": "5013011201", "name": "子安観世音", "barrier": null, "highway": null, "ref": null, "address": null, "is_in": null, "place": null, "man_made": null, "other_tags": "\"historic\"=>\"wayside_shrine\",\"religion\"=>\"buddhist\"", "area": null, "centroid_x": 139.2204908, "centroid_y": 34.3323135 }, "geometry": { "type": "Point", "coordinates": [ 139.2204908, 34.3323135 ] } },
{ "type": "Feature", "properties": { "osm_id": "5017828429", "name": "丸山の方角石", "barrier": null, "highway": null, "ref": null, "address": null, "is_in": null, "place": null, "man_made": null, "other_tags": "\"historic\"=>\"stone\"", "area": null, "centroid_x": 139.2032462, "centroid_y": 34.3255018 }, "geometry": { "type": "Point", "coordinates": [ 139.2032462, 34.3255018 ] } },
{ "type": "Feature", "properties": { "osm_id": "5017828430", "name": "旧跡　丸山の方角石", "barrier": null, "highway": null, "ref": null, "address": null, "is_in": null, "place": null, "man_made": null, "other_tags": "\"board_type\"=>\"history\",\"information\"=>\"board\",\"tourism\"=>\"information\"", "area": null, "centroid_x": 139.2032401, "centroid_y": 34.3254869 }, "geometry": { "type": "Point", "coordinates": [ 139.203240099999988, 34.3254869 ] } },
{ "type": "Feature", "properties": { "osm_id": "5017828431", "name": null, "barrier": null, "highway": null, "ref": null, "address": null, "is_in": null, "place": null, "man_made": null, "other_tags": "\"hiking\"=>\"yes\",\"information\"=>\"guidepost\",\"tourism\"=>\"information\"", "area": null, "centroid_x": 139.204663, "centroid_y": 34.3258839 }, "geometry": { "type": "Point", "coordinates": [ 139.204663, 34.3258839 ] } },
{ "type": "Feature", "properties": { "osm_id": "5017828432", "name": null, "barrier": null, "highway": null, "ref": null, "address": null, "is_in": null, "place": null, "man_made": null, "other_tags": "\"amenity\"=>\"bench\",\"backrest\"=>\"no\",\"mapillary\"=>\"810114909928254\",\"survey:date\"=>\"2017-08-03\"", "area": null, "centroid_x": 139.205166, "centroid_y": 34.3256203 }, "geometry": { "type": "Point", "coordinates": [ 139.205166, 34.3256203 ] } },
{ "type": "Feature", "properties": { "osm_id": "5017828433", "name": null, "barrier": null, "highway": null, "ref": null, "address": null, "is_in": null, "place": null, "man_made": null, "other_tags": "\"hiking\"=>\"yes\",\"information\"=>\"guidepost\",\"tourism\"=>\"information\"", "area": null, "centroid_x": 139.2051908, "centroid_y": 34.325617 }, "geometry": { "type": "Point", "coordinates": [ 139.2051908, 34.325617 ] } },
{ "type": "Feature", "properties": { "osm_id": "5017828434", "name": null, "barrier": null, "highway": null, "ref": null, "address": null, "is_in": null, "place": null, "man_made": null, "other_tags": "\"amenity\"=>\"bench\",\"backrest\"=>\"no\",\"mapillary\"=>\"221349026042343\",\"survey:date\"=>\"2017-08-03\"", "area": null, "centroid_x": 139.2055636, "centroid_y": 34.3258053 }, "geometry": { "type": "Point", "coordinates": [ 139.2055636, 34.3258053 ] } },
{ "type": "Feature", "properties": { "osm_id": "5017828435", "name": null, "barrier": null, "highway": null, "ref": null, "address": null, "is_in": null, "place": null, "man_made": null, "other_tags": "\"amenity\"=>\"bench\",\"backrest\"=>\"no\",\"mapillary\"=>\"478965933373838\",\"survey:date\"=>\"2017-08-03\"", "area": null, "centroid_x": 139.2058834, "centroid_y": 34.326024 }, "geometry": { "type": "Point", "coordinates": [ 139.2058834, 34.326024 ] } },
{ "type": "Feature", "properties": { "osm_id": "5017828436", "name": null, "barrier": null, "highway": null, "ref": null, "address": null, "is_in": null, "place": null, "man_made": null, "other_tags": "\"hiking\"=>\"yes\",\"information\"=>\"guidepost\",\"tourism\"=>\"information\"", "area": null, "centroid_x": 139.2065996, "centroid_y": 34.3264853 }, "geometry": { "type": "Point", "coordinates": [ 139.2065996, 34.3264853 ] } },
{ "type": "Feature", "properties": { "osm_id": "5017828437", "name": null, "barrier": null, "highway": null, "ref": null, "address": null, "is_in": null, "place": null, "man_made": null, "other_tags": "\"hiking\"=>\"yes\",\"information\"=>\"guidepost\",\"tourism\"=>\"information\"", "area": null, "centroid_x": 139.2066385, "centroid_y": 34.3270717 }, "geometry": { "type": "Point", "coordinates": [ 139.2066385, 34.3270717 ] } },
{ "type": "Feature", "properties": { "osm_id": "5017828438", "name": "式根島遊歩道案内図", "barrier": null, "highway": null, "ref": null, "address": null, "is_in": null, "place": null, "man_made": null, "other_tags": "\"information\"=>\"map\",\"tourism\"=>\"information\"", "area": null, "centroid_x": 139.2080721, "centroid_y": 34.3275452 }, "geometry": { "type": "Point", "coordinates": [ 139.20807210000001, 34.3275452 ] } },
{ "type": "Feature", "properties": { "osm_id": "5017828439", "name": "式根島　中の浦海水浴場", "barrier": null, "highway": null, "ref": null, "address": null, "is_in": null, "place": null, "man_made": null, "other_tags": "\"information\"=>\"board\",\"tourism\"=>\"information\"", "area": null, "centroid_x": 139.2080225, "centroid_y": 34.3276222 }, "geometry": { "type": "Point", "coordinates": [ 139.2080225, 34.3276222 ] } },
{ "type": "Feature", "properties": { "osm_id": "5017828440", "name": null, "barrier": null, "highway": null, "ref": null, "address": null, "is_in": null, "place": null, "man_made": null, "other_tags": "\"hiking\"=>\"yes\",\"information\"=>\"guidepost\",\"tourism\"=>\"information\"", "area": null, "centroid_x": 139.2080533, "centroid_y": 34.3275491 }, "geometry": { "type": "Point", "coordinates": [ 139.208053299999989, 34.3275491 ] } },
{ "type": "Feature", "properties": { "osm_id": "5017828441", "name": null, "barrier": null, "highway": null, "ref": null, "address": null, "is_in": null, "place": null, "man_made": null, "other_tags": "\"hiking\"=>\"yes\",\"information\"=>\"guidepost\",\"tourism\"=>\"information\"", "area": null, "centroid_x": 139.2079474, "centroid_y": 34.327589 }, "geometry": { "type": "Point", "coordinates": [ 139.2079474, 34.327589 ] } },
{ "type": "Feature", "properties": { "osm_id": "5017828442", "name": null, "barrier": null, "highway": null, "ref": null, "address": null, "is_in": null, "place": null, "man_made": null, "other_tags": "\"hiking\"=>\"yes\",\"information\"=>\"guidepost\",\"tourism\"=>\"information\"", "area": null, "centroid_x": 139.208516, "centroid_y": 34.3281283 }, "geometry": { "type": "Point", "coordinates": [ 139.208516, 34.3281283 ] } },
{ "type": "Feature", "properties": { "osm_id": "5017828443", "name": null, "barrier": null, "highway": null, "ref": null, "address": null, "is_in": null, "place": null, "man_made": null, "other_tags": "\"hiking\"=>\"yes\",\"information\"=>\"guidepost\",\"tourism\"=>\"information\"", "area": null, "centroid_x": 139.208398, "centroid_y": 34.3285193 }, "geometry": { "type": "Point", "coordinates": [ 139.208398, 34.3285193 ] } },
{ "type": "Feature", "properties": { "osm_id": "5017828444", "name": null, "barrier": null, "highway": null, "ref": null, "address": null, "is_in": null, "place": null, "man_made": null, "other_tags": "\"hiking\"=>\"yes\",\"information\"=>\"guidepost\",\"tourism\"=>\"information\"", "area": null, "centroid_x": 139.209609, "centroid_y": 34.3283908 }, "geometry": { "type": "Point", "coordinates": [ 139.209609, 34.3283908 ] } },
{ "type": "Feature", "properties": { "osm_id": "5017828445", "name": null, "barrier": null, "highway": null, "ref": null, "address": null, "is_in": null, "place": null, "man_made": null, "other_tags": "\"hiking\"=>\"yes\",\"information\"=>\"guidepost\",\"tourism\"=>\"information\"", "area": null, "centroid_x": 139.2095648, "centroid_y": 34.3291051 }, "geometry": { "type": "Point", "coordinates": [ 139.20956480000001, 34.3291051 ] } },
{ "type": "Feature", "properties": { "osm_id": "5017828446", "name": null, "barrier": null, "highway": null, "ref": null, "address": null, "is_in": null, "place": null, "man_made": null, "other_tags": "\"hiking\"=>\"yes\",\"information\"=>\"guidepost\",\"tourism\"=>\"information\"", "area": null, "centroid_x": 139.2099242, "centroid_y": 34.329938 }, "geometry": { "type": "Point", "coordinates": [ 139.209924199999989, 34.329938 ] } },
{ "type": "Feature", "properties": { "osm_id": "5017828447", "name": null, "barrier": null, "highway": null, "ref": null, "address": null, "is_in": null, "place": null, "man_made": null, "other_tags": "\"hiking\"=>\"yes\",\"information\"=>\"guidepost\",\"tourism\"=>\"information\"", "area": null, "centroid_x": 139.2107275, "centroid_y": 34.3300332 }, "geometry": { "type": "Point", "coordinates": [ 139.2107275, 34.3300332 ] } },
{ "type": "Feature", "properties": { "osm_id": "5017828448", "name": "民宿　うめう", "barrier": null, "highway": null, "ref": null, "address": null, "is_in": null, "place": null, "man_made": null, "other_tags": "\"tourism\"=>\"hotel\"", "area": null, "centroid_x": 139.2216723, "centroid_y": 34.3252487 }, "geometry": { "type": "Point", "coordinates": [ 139.2216723, 34.3252487 ] } },
{ "type": "Feature", "properties": { "osm_id": "5017828449", "name": "中村屋", "barrier": null, "highway": null, "ref": null, "address": null, "is_in": null, "place": null, "man_made": null, "other_tags": "\"tourism\"=>\"hotel\"", "area": null, "centroid_x": 139.2204559, "centroid_y": 34.3249685 }, "geometry": { "type": "Point", "coordinates": [ 139.2204559, 34.3249685 ] } },
{ "type": "Feature", "properties": { "osm_id": "5017828450", "name": "漁師宿 かねやま", "barrier": null, "highway": null, "ref": null, "address": null, "is_in": null, "place": null, "man_made": null, "other_tags": "\"tourism\"=>\"hotel\"", "area": null, "centroid_x": 139.2201166, "centroid_y": 34.3250671 }, "geometry": { "type": "Point", "coordinates": [ 139.220116600000011, 34.3250671 ] } },
{ "type": "Feature", "properties": { "osm_id": "5017828451", "name": "式根島レンタルセンターげんべい", "barrier": null, "highway": null, "ref": null, "address": null, "is_in": null, "place": null, "man_made": null, "other_tags": "\"amenity\"=>\"bicycle_rental\"", "area": null, "centroid_x": 139.219619, "centroid_y": 34.3248877 }, "geometry": { "type": "Point", "coordinates": [ 139.219619, 34.3248877 ] } },
{ "type": "Feature", "properties": { "osm_id": "5017828456", "name": null, "barrier": null, "highway": null, "ref": null, "address": null, "is_in": null, "place": null, "man_made": null, "other_tags": "\"information\"=>\"map\",\"tourism\"=>\"information\"", "area": null, "centroid_x": 139.2112026, "centroid_y": 34.3299701 }, "geometry": { "type": "Point", "coordinates": [ 139.2112026, 34.3299701 ] } },
{ "type": "Feature", "properties": { "osm_id": "5017828457", "name": null, "barrier": null, "highway": null, "ref": null, "address": null, "is_in": null, "place": null, "man_made": null, "other_tags": "\"hiking\"=>\"yes\",\"information\"=>\"guidepost\",\"tourism\"=>\"information\"", "area": null, "centroid_x": 139.2111942, "centroid_y": 34.3299889 }, "geometry": { "type": "Point", "coordinates": [ 139.2111942, 34.3299889 ] } },
{ "type": "Feature", "properties": { "osm_id": "5017828458", "name": "式根島エンジョイマップ", "barrier": null, "highway": null, "ref": null, "address": null, "is_in": null, "place": null, "man_made": null, "other_tags": "\"information\"=>\"map\",\"tourism\"=>\"information\"", "area": null, "centroid_x": 139.2101294, "centroid_y": 34.3306434 }, "geometry": { "type": "Point", "coordinates": [ 139.2101294, 34.3306434 ] } },
{ "type": "Feature", "properties": { "osm_id": "5017828459", "name": "式根島大浦キャンプ場案内図", "barrier": null, "highway": null, "ref": null, "address": null, "is_in": null, "place": null, "man_made": null, "other_tags": "\"information\"=>\"map\",\"tourism\"=>\"information\"", "area": null, "centroid_x": 139.2089291, "centroid_y": 34.3296378 }, "geometry": { "type": "Point", "coordinates": [ 139.2089291, 34.3296378 ] } },
{ "type": "Feature", "properties": { "osm_id": "5017828460", "name": "式根島　大浦海水浴場", "barrier": null, "highway": null, "ref": null, "address": null, "is_in": null, "place": null, "man_made": null, "other_tags": "\"information\"=>\"board\",\"tourism\"=>\"information\"", "area": null, "centroid_x": 139.2089378, "centroid_y": 34.3304496 }, "geometry": { "type": "Point", "coordinates": [ 139.2089378, 34.3304496 ] } },
{ "type": "Feature", "properties": { "osm_id": "5017828461", "name": "式根島大浦キャンプ場案内図", "barrier": null, "highway": null, "ref": null, "address": null, "is_in": null, "place": null, "man_made": null, "other_tags": "\"information\"=>\"map\",\"tourism\"=>\"information\"", "area": null, "centroid_x": 139.2090183, "centroid_y": 34.3303965 }, "geometry": { "type": "Point", "coordinates": [ 139.2090183, 34.3303965 ] } },
{ "type": "Feature", "properties": { "osm_id": "5017828462", "name": "式根島観光マップ", "barrier": null, "highway": null, "ref": null, "address": null, "is_in": null, "place": null, "man_made": null, "other_tags": "\"information\"=>\"map\",\"tourism\"=>\"information\"", "area": null, "centroid_x": 139.2102762, "centroid_y": 34.3326839 }, "geometry": { "type": "Point", "coordinates": [ 139.21027620000001, 34.3326839 ] } },
{ "type": "Feature", "properties": { "osm_id": "5017828467", "name": "吹之江遺跡", "barrier": null, "highway": null, "ref": null, "address": null, "is_in": null, "place": null, "man_made": null, "other_tags": "\"board_type\"=>\"history\",\"information\"=>\"board\",\"tourism\"=>\"information\"", "area": null, "centroid_x": 139.2111044, "centroid_y": 34.3344343 }, "geometry": { "type": "Point", "coordinates": [ 139.211104400000011, 34.3344343 ] } },
{ "type": "Feature", "properties": { "osm_id": "5017828474", "name": null, "barrier": null, "highway": null, "ref": null, "address": null, "is_in": null, "place": null, "man_made": null, "other_tags": "\"natural\"=>\"tree\"", "area": null, "centroid_x": 139.2211144, "centroid_y": 34.3243826 }, "geometry": { "type": "Point", "coordinates": [ 139.2211144, 34.3243826 ] } },
{ "type": "Feature", "properties": { "osm_id": "5017828475", "name": "都天然記念物　東要寺のイヌマキ", "barrier": null, "highway": null, "ref": null, "address": null, "is_in": null, "place": null, "man_made": null, "other_tags": "\"board_type\"=>\"nature\",\"information\"=>\"board\",\"tourism\"=>\"information\"", "area": null, "centroid_x": 139.2210165, "centroid_y": 34.3243893 }, "geometry": { "type": "Point", "coordinates": [ 139.2210165, 34.3243893 ] } },
{ "type": "Feature", "properties": { "osm_id": "5017828476", "name": "慰霊碑", "barrier": null, "highway": null, "ref": null, "address": null, "is_in": null, "place": null, "man_made": null, "other_tags": "\"historic\"=>\"memorial\"", "area": null, "centroid_x": 139.221231, "centroid_y": 34.3244469 }, "geometry": { "type": "Point", "coordinates": [ 139.221231, 34.3244469 ] } },
{ "type": "Feature", "properties": { "osm_id": "5017828477", "name": "慰霊碑", "barrier": null, "highway": null, "ref": null, "address": null, "is_in": null, "place": null, "man_made": null, "other_tags": "\"historic\"=>\"memorial\"", "area": null, "centroid_x": 139.2212901, "centroid_y": 34.3243594 }, "geometry": { "type": "Point", "coordinates": [ 139.2212901, 34.3243594 ] } },
{ "type": "Feature", "properties": { "osm_id": "5017828478", "name": "漁師宿 Deving Service ひだぶん", "barrier": null, "highway": null, "ref": null, "address": null, "is_in": null, "place": null, "man_made": null, "other_tags": "\"tourism\"=>\"hotel\"", "area": null, "centroid_x": 139.2215475, "centroid_y": 34.3241201 }, "geometry": { "type": "Point", "coordinates": [ 139.221547500000014, 34.3241201 ] } },
{ "type": "Feature", "properties": { "osm_id": "5017828479", "name": "潮風", "barrier": null, "highway": null, "ref": null, "address": null, "is_in": null, "place": null, "man_made": null, "other_tags": "\"tourism\"=>\"hotel\"", "area": null, "centroid_x": 139.2213665, "centroid_y": 34.3239983 }, "geometry": { "type": "Point", "coordinates": [ 139.221366499999988, 34.3239983 ] } },
{ "type": "Feature", "properties": { "osm_id": "5017828480", "name": "式根島寺子屋教育の跡", "barrier": null, "highway": null, "ref": null, "address": null, "is_in": null, "place": null, "man_made": null, "other_tags": "\"historic\"=>\"memorial\"", "area": null, "centroid_x": 139.2214805, "centroid_y": 34.3237358 }, "geometry": { "type": "Point", "coordinates": [ 139.221480500000013, 34.3237358 ] } },
{ "type": "Feature", "properties": { "osm_id": "5017828481", "name": "式根島　石白川海水浴場", "barrier": null, "highway": null, "ref": null, "address": null, "is_in": null, "place": null, "man_made": null, "other_tags": "\"information\"=>\"board\",\"tourism\"=>\"information\"", "area": null, "centroid_x": 139.2215328, "centroid_y": 34.3235752 }, "geometry": { "type": "Point", "coordinates": [ 139.2215328, 34.3235752 ] } },
{ "type": "Feature", "properties": { "osm_id": "5017828482", "name": "喫茶　椿の里　入舟", "barrier": null, "highway": null, "ref": null, "address": null, "is_in": null, "place": null, "man_made": null, "other_tags": null, "area": null, "centroid_x": 139.2168503, "centroid_y": 34.3226825 }, "geometry": { "type": "Point", "coordinates": [ 139.2168503, 34.3226825 ] } },
{ "type": "Feature", "properties": { "osm_id": "5017828483", "name": "名勝 足附温泉", "barrier": null, "highway": null, "ref": null, "address": null, "is_in": null, "place": null, "man_made": null, "other_tags": "\"information\"=>\"board\",\"tourism\"=>\"information\"", "area": null, "centroid_x": 139.2175457, "centroid_y": 34.3201926 }, "geometry": { "type": "Point", "coordinates": [ 139.217545699999988, 34.3201926 ] } },
{ "type": "Feature", "properties": { "osm_id": "5017828484", "name": null, "barrier": null, "highway": null, "ref": null, "address": null, "is_in": null, "place": null, "man_made": null, "other_tags": "\"information\"=>\"guidepost\",\"tourism\"=>\"information\"", "area": null, "centroid_x": 139.2189699, "centroid_y": 34.321617 }, "geometry": { "type": "Point", "coordinates": [ 139.2189699, 34.321617 ] } },
{ "type": "Feature", "properties": { "osm_id": "5017828485", "name": null, "barrier": null, "highway": null, "ref": null, "address": null, "is_in": null, "place": null, "man_made": null, "other_tags": "\"historic\"=>\"wayside_shrine\",\"religion\"=>\"shinto\"", "area": null, "centroid_x": 139.2210607, "centroid_y": 34.3230967 }, "geometry": { "type": "Point", "coordinates": [ 139.22106070000001, 34.3230967 ] } },
{ "type": "Feature", "properties": { "osm_id": "5017828486", "name": null, "barrier": null, "highway": null, "ref": null, "address": null, "is_in": null, "place": null, "man_made": null, "other_tags": "\"historic\"=>\"memorial\"", "area": null, "centroid_x": 139.2211626, "centroid_y": 34.3230713 }, "geometry": { "type": "Point", "coordinates": [ 139.221162600000014, 34.3230713 ] } },
{ "type": "Feature", "properties": { "osm_id": "5017828487", "name": "供養之塔", "barrier": null, "highway": null, "ref": null, "address": null, "is_in": null, "place": null, "man_made": null, "other_tags": "\"historic\"=>\"memorial\"", "area": null, "centroid_x": 139.2211331, "centroid_y": 34.3230258 }, "geometry": { "type": "Point", "coordinates": [ 139.2211331, 34.3230258 ] } },
{ "type": "Feature", "properties": { "osm_id": "5017828488", "name": "旧跡　塩釜の跡", "barrier": null, "highway": null, "ref": null, "address": null, "is_in": null, "place": null, "man_made": null, "other_tags": "\"board_type\"=>\"history\",\"information\"=>\"board\",\"tourism\"=>\"information\"", "area": null, "centroid_x": 139.2211331, "centroid_y": 34.3229771 }, "geometry": { "type": "Point", "coordinates": [ 139.2211331, 34.3229771 ] } },
{ "type": "Feature", "properties": { "osm_id": "5017828489", "name": "式根島エンジョイマップ", "barrier": null, "highway": null, "ref": null, "address": null, "is_in": null, "place": null, "man_made": null, "other_tags": "\"information\"=>\"map\",\"tourism\"=>\"information\"", "area": null, "centroid_x": 139.2198658, "centroid_y": 34.3226072 }, "geometry": { "type": "Point", "coordinates": [ 139.2198658, 34.3226072 ] } },
{ "type": "Feature", "properties": { "osm_id": "5017828490", "name": "しきね島", "barrier": null, "highway": null, "ref": null, "address": null, "is_in": null, "place": null, "man_made": null, "other_tags": "\"historic\"=>\"memorial\"", "area": null, "centroid_x": 139.2196579, "centroid_y": 34.3224178 }, "geometry": { "type": "Point", "coordinates": [ 139.219657899999987, 34.3224178 ] } },
{ "type": "Feature", "properties": { "osm_id": "5017828491", "name": null, "barrier": null, "highway": null, "ref": null, "address": null, "is_in": null, "place": null, "man_made": null, "other_tags": "\"historic\"=>\"wayside_shrine\",\"religion\"=>\"shinto\"", "area": null, "centroid_x": 139.2198168, "centroid_y": 34.3231542 }, "geometry": { "type": "Point", "coordinates": [ 139.2198168, 34.3231542 ] } },
{ "type": "Feature", "properties": { "osm_id": "5017828492", "name": null, "barrier": null, "highway": null, "ref": null, "address": null, "is_in": null, "place": null, "man_made": null, "other_tags": "\"historic\"=>\"wayside_shrine\",\"religion\"=>\"shinto\"", "area": null, "centroid_x": 139.2198093, "centroid_y": 34.3231495 }, "geometry": { "type": "Point", "coordinates": [ 139.2198093, 34.3231495 ] } },
{ "type": "Feature", "properties": { "osm_id": "5017828495", "name": "ふみのや", "barrier": null, "highway": null, "ref": null, "address": null, "is_in": null, "place": null, "man_made": null, "other_tags": "\"tourism\"=>\"hotel\"", "area": null, "centroid_x": 139.2179279, "centroid_y": 34.3239728 }, "geometry": { "type": "Point", "coordinates": [ 139.2179279, 34.3239728 ] } },
{ "type": "Feature", "properties": { "osm_id": "5017828496", "name": "民宿　澄乃屋", "barrier": null, "highway": null, "ref": null, "address": null, "is_in": null, "place": null, "man_made": null, "other_tags": "\"tourism\"=>\"hotel\"", "area": null, "centroid_x": 139.2179199, "centroid_y": 34.323851 }, "geometry": { "type": "Point", "coordinates": [ 139.2179199, 34.323851 ] } },
{ "type": "Feature", "properties": { "osm_id": "5017828497", "name": "民宿　白い砂", "barrier": null, "highway": null, "ref": null, "address": null, "is_in": null, "place": null, "man_made": null, "other_tags": "\"tourism\"=>\"hotel\"", "area": null, "centroid_x": 139.2187151, "centroid_y": 34.3237845 }, "geometry": { "type": "Point", "coordinates": [ 139.2187151, 34.3237845 ] } },
{ "type": "Feature", "properties": { "osm_id": "5017828498", "name": "民宿　源次郎", "barrier": null, "highway": null, "ref": null, "address": null, "is_in": null, "place": null, "man_made": null, "other_tags": "\"tourism\"=>\"hotel\"", "area": null, "centroid_x": 139.218982, "centroid_y": 34.3251103 }, "geometry": { "type": "Point", "coordinates": [ 139.218982, 34.3251103 ] } },
{ "type": "Feature", "properties": { "osm_id": "5017828499", "name": "じゅうぞう", "barrier": null, "highway": null, "ref": null, "address": null, "is_in": null, "place": null, "man_made": null, "other_tags": "\"tourism\"=>\"hotel\"", "area": null, "centroid_x": 139.2194206, "centroid_y": 34.3262799 }, "geometry": { "type": "Point", "coordinates": [ 139.2194206, 34.3262799 ] } },
{ "type": "Feature", "properties": { "osm_id": "5017828500", "name": "NINZ COFFEE", "barrier": null, "highway": null, "ref": null, "address": null, "is_in": null, "place": null, "man_made": null, "other_tags": "\"amenity\"=>\"cafe\",\"opening_hours\"=>\"08:00-12:00, 15:00-18:00\"", "area": null, "centroid_x": 139.2208683, "centroid_y": 34.3263762 }, "geometry": { "type": "Point", "coordinates": [ 139.2208683, 34.3263762 ] } },
{ "type": "Feature", "properties": { "osm_id": "5017828501", "name": "亀吉大家", "barrier": null, "highway": null, "ref": null, "address": null, "is_in": null, "place": null, "man_made": null, "other_tags": "\"tourism\"=>\"hotel\"", "area": null, "centroid_x": 139.2215341, "centroid_y": 34.3267971 }, "geometry": { "type": "Point", "coordinates": [ 139.221534100000014, 34.3267971 ] } },
{ "type": "Feature", "properties": { "osm_id": "5017828502", "name": "年間民宿 はまゆう", "barrier": null, "highway": null, "ref": null, "address": null, "is_in": null, "place": null, "man_made": null, "other_tags": "\"tourism\"=>\"hotel\"", "area": null, "centroid_x": 139.2203707, "centroid_y": 34.3274721 }, "geometry": { "type": "Point", "coordinates": [ 139.220370699999989, 34.3274721 ] } },
{ "type": "Feature", "properties": { "osm_id": "5017828503", "name": null, "barrier": null, "highway": null, "ref": null, "address": null, "is_in": null, "place": null, "man_made": null, "other_tags": "\"historic\"=>\"wayside_shrine\",\"religion\"=>\"shinto\"", "area": null, "centroid_x": 139.2146006, "centroid_y": 34.331494 }, "geometry": { "type": "Point", "coordinates": [ 139.214600600000011, 34.331494 ] } },
{ "type": "Feature", "properties": { "osm_id": "5017828504", "name": "心のふるさと　しきね島", "barrier": null, "highway": null, "ref": null, "address": null, "is_in": null, "place": null, "man_made": null, "other_tags": "\"historic\"=>\"memorial\"", "area": null, "centroid_x": 139.2145832, "centroid_y": 34.3314895 }, "geometry": { "type": "Point", "coordinates": [ 139.2145832, 34.3314895 ] } },
{ "type": "Feature", "properties": { "osm_id": "5017828505", "name": "菊水旅館", "barrier": null, "highway": null, "ref": null, "address": null, "is_in": null, "place": null, "man_made": null, "other_tags": "\"tourism\"=>\"hotel\"", "area": null, "centroid_x": 139.2142285, "centroid_y": 34.3317614 }, "geometry": { "type": "Point", "coordinates": [ 139.2142285, 34.3317614 ] } },
{ "type": "Feature", "properties": { "osm_id": "5017828509", "name": null, "barrier": null, "highway": null, "ref": null, "address": null, "is_in": null, "place": null, "man_made": null, "other_tags": "\"historic\"=>\"memorial\"", "area": null, "centroid_x": 139.2140789, "centroid_y": 34.3321922 }, "geometry": { "type": "Point", "coordinates": [ 139.2140789, 34.3321922 ] } },
{ "type": "Feature", "properties": { "osm_id": "5017828510", "name": "開島百年", "barrier": null, "highway": null, "ref": null, "address": null, "is_in": null, "place": null, "man_made": null, "other_tags": "\"historic\"=>\"memorial\"", "area": null, "centroid_x": 139.2143485, "centroid_y": 34.3319669 }, "geometry": { "type": "Point", "coordinates": [ 139.2143485, 34.3319669 ] } },
{ "type": "Feature", "properties": { "osm_id": "5017829122", "name": "観光案内所", "barrier": null, "highway": null, "ref": null, "address": null, "is_in": null, "place": null, "man_made": null, "other_tags": "\"information\"=>\"office\",\"tourism\"=>\"information\"", "area": null, "centroid_x": 139.2139663, "centroid_y": 34.3327687 }, "geometry": { "type": "Point", "coordinates": [ 139.21396630000001, 34.3327687 ] } },
{ "type": "Feature", "properties": { "osm_id": "5017829123", "name": "式根島観光マップ", "barrier": null, "highway": null, "ref": null, "address": null, "is_in": null, "place": null, "man_made": null, "other_tags": "\"information\"=>\"map\",\"tourism\"=>\"information\"", "area": null, "centroid_x": 139.2144424, "centroid_y": 34.333081 }, "geometry": { "type": "Point", "coordinates": [ 139.2144424, 34.333081 ] } },
{ "type": "Feature", "properties": { "osm_id": "5017829124", "name": "癒しの島　式根島", "barrier": null, "highway": null, "ref": null, "address": null, "is_in": null, "place": null, "man_made": null, "other_tags": "\"information\"=>\"map\",\"tourism\"=>\"information\"", "area": null, "centroid_x": 139.2147153, "centroid_y": 34.3340422 }, "geometry": { "type": "Point", "coordinates": [ 139.2147153, 34.3340422 ] } },
{ "type": "Feature", "properties": { "osm_id": "5017829125", "name": "名勝 泊浦", "barrier": null, "highway": null, "ref": null, "address": null, "is_in": null, "place": null, "man_made": null, "other_tags": "\"information\"=>\"board\",\"tourism\"=>\"information\"", "area": null, "centroid_x": 139.212186, "centroid_y": 34.3356314 }, "geometry": { "type": "Point", "coordinates": [ 139.212186, 34.3356314 ] } },
{ "type": "Feature", "properties": { "osm_id": "5017829126", "name": "式根島泊海水浴場", "barrier": null, "highway": null, "ref": null, "address": null, "is_in": null, "place": null, "man_made": null, "other_tags": "\"information\"=>\"board\",\"tourism\"=>\"information\"", "area": null, "centroid_x": 139.2122705, "centroid_y": 34.3357908 }, "geometry": { "type": "Point", "coordinates": [ 139.212270499999988, 34.3357908 ] } },
{ "type": "Feature", "properties": { "osm_id": "5017829127", "name": "式根島エンジョイマップ", "barrier": null, "highway": null, "ref": null, "address": null, "is_in": null, "place": null, "man_made": null, "other_tags": "\"information\"=>\"map\",\"tourism\"=>\"information\"", "area": null, "centroid_x": 139.2116871, "centroid_y": 34.3345539 }, "geometry": { "type": "Point", "coordinates": [ 139.2116871, 34.3345539 ] } },
{ "type": "Feature", "properties": { "osm_id": "5017829128", "name": null, "barrier": null, "highway": null, "ref": null, "address": null, "is_in": null, "place": null, "man_made": null, "other_tags": "\"artwork_type\"=>\"statue\",\"religion\"=>\"shinto\",\"tourism\"=>\"artwork\"", "area": null, "centroid_x": 139.2129061, "centroid_y": 34.3338534 }, "geometry": { "type": "Point", "coordinates": [ 139.2129061, 34.3338534 ] } },
{ "type": "Feature", "properties": { "osm_id": "5017829129", "name": null, "barrier": null, "highway": null, "ref": null, "address": null, "is_in": null, "place": null, "man_made": null, "other_tags": "\"artwork_type\"=>\"statue\",\"religion\"=>\"shinto\",\"tourism\"=>\"artwork\"", "area": null, "centroid_x": 139.2128672, "centroid_y": 34.3338418 }, "geometry": { "type": "Point", "coordinates": [ 139.2128672, 34.3338418 ] } },
{ "type": "Feature", "properties": { "osm_id": "5017829136", "name": "泊神社", "barrier": null, "highway": null, "ref": null, "address": null, "is_in": null, "place": null, "man_made": null, "other_tags": "\"board_type\"=>\"history\",\"information\"=>\"board\",\"subject:wikidata\"=>\"Q130689009\",\"subject:wikipedia\"=>\"ja:泊神社 (新島村)\",\"tourism\"=>\"information\"", "area": null, "centroid_x": 139.2123757, "centroid_y": 34.3338473 }, "geometry": { "type": "Point", "coordinates": [ 139.2123757, 34.3338473 ] } },
{ "type": "Feature", "properties": { "osm_id": "5017829139", "name": "鈴豊", "barrier": null, "highway": null, "ref": null, "address": null, "is_in": null, "place": null, "man_made": null, "other_tags": "\"tourism\"=>\"hotel\"", "area": null, "centroid_x": 139.2135921, "centroid_y": 34.3317819 }, "geometry": { "type": "Point", "coordinates": [ 139.2135921, 34.3317819 ] } },
{ "type": "Feature", "properties": { "osm_id": "5017829140", "name": null, "barrier": null, "highway": null, "ref": null, "address": null, "is_in": null, "place": null, "man_made": null, "other_tags": "\"historic\"=>\"wayside_shrine\",\"religion\"=>\"shinto\"", "area": null, "centroid_x": 139.2178863, "centroid_y": 34.3288216 }, "geometry": { "type": "Point", "coordinates": [ 139.2178863, 34.3288216 ] } },
{ "type": "Feature", "properties": { "osm_id": "5017829141", "name": "清水屋", "barrier": null, "highway": null, "ref": null, "address": null, "is_in": null, "place": null, "man_made": null, "other_tags": "\"amenity\"=>\"bicycle_rental\"", "area": null, "centroid_x": 139.2187178, "centroid_y": 34.3290586 }, "geometry": { "type": "Point", "coordinates": [ 139.2187178, 34.3290586 ] } },
{ "type": "Feature", "properties": { "osm_id": "5017829142", "name": "民宿　清水屋", "barrier": null, "highway": null, "ref": null, "address": null, "is_in": null, "place": null, "man_made": null, "other_tags": "\"tourism\"=>\"hotel\"", "area": null, "centroid_x": 139.2187674, "centroid_y": 34.3290553 }, "geometry": { "type": "Point", "coordinates": [ 139.2187674, 34.3290553 ] } },
{ "type": "Feature", "properties": { "osm_id": "5017829143", "name": "民宿　ふるさと", "barrier": null, "highway": null, "ref": null, "address": null, "is_in": null, "place": null, "man_made": null, "other_tags": "\"tourism\"=>\"hotel\"", "area": null, "centroid_x": 139.221388, "centroid_y": 34.3298527 }, "geometry": { "type": "Point", "coordinates": [ 139.221388, 34.3298527 ] } },
{ "type": "Feature", "properties": { "osm_id": "5017829144", "name": "民宿　さごでえ", "barrier": null, "highway": null, "ref": null, "address": null, "is_in": null, "place": null, "man_made": null, "other_tags": "\"tourism\"=>\"hotel\"", "area": null, "centroid_x": 139.2209782, "centroid_y": 34.3266016 }, "geometry": { "type": "Point", "coordinates": [ 139.2209782, 34.3266016 ] } },
{ "type": "Feature", "properties": { "osm_id": "5017829145", "name": "井上電気店", "barrier": null, "highway": null, "ref": null, "address": null, "is_in": null, "place": null, "man_made": null, "other_tags": "\"shop\"=>\"electronics\"", "area": null, "centroid_x": 139.2205833, "centroid_y": 34.3263978 }, "geometry": { "type": "Point", "coordinates": [ 139.220583299999987, 34.3263978 ] } },
{ "type": "Feature", "properties": { "osm_id": "5017829146", "name": "ENEOS 式根島SS", "barrier": null, "highway": null, "ref": null, "address": null, "is_in": null, "place": null, "man_made": null, "other_tags": "\"amenity\"=>\"fuel\",\"brand\"=>\"エネオス\",\"brand:en\"=>\"ENEOS\",\"brand:ja\"=>\"エネオス\",\"brand:wikidata\"=>\"Q1640290\",\"brand:wikipedia\"=>\"en:Eneos\",\"name:en\"=>\"ENEOS\",\"name:ja\"=>\"エネオス\"", "area": null, "centroid_x": 139.2205692, "centroid_y": 34.3261996 }, "geometry": { "type": "Point", "coordinates": [ 139.2205692, 34.3261996 ] } },
{ "type": "Feature", "properties": { "osm_id": "5017829147", "name": null, "barrier": null, "highway": null, "ref": null, "address": null, "is_in": null, "place": null, "man_made": null, "other_tags": "\"hiking\"=>\"yes\",\"information\"=>\"guidepost\",\"tourism\"=>\"information\"", "area": null, "centroid_x": 139.2050573, "centroid_y": 34.3238831 }, "geometry": { "type": "Point", "coordinates": [ 139.2050573, 34.3238831 ] } },
{ "type": "Feature", "properties": { "osm_id": "5017829148", "name": "唐人津城・隈の井地区　遊歩道案内図", "barrier": null, "highway": null, "ref": null, "address": null, "is_in": null, "place": null, "man_made": null, "other_tags": "\"hiking\"=>\"yes\",\"information\"=>\"map\",\"tourism\"=>\"information\"", "area": null, "centroid_x": 139.2048079, "centroid_y": 34.3236904 }, "geometry": { "type": "Point", "coordinates": [ 139.2048079, 34.3236904 ] } },
{ "type": "Feature", "properties": { "osm_id": "5017829149", "name": "唐人津城・隈の井地区　遊歩道案内図", "barrier": null, "highway": null, "ref": null, "address": null, "is_in": null, "place": null, "man_made": null, "other_tags": "\"hiking\"=>\"yes\",\"information\"=>\"map\",\"tourism\"=>\"information\"", "area": null, "centroid_x": 139.2018695, "centroid_y": 34.3208317 }, "geometry": { "type": "Point", "coordinates": [ 139.201869499999987, 34.3208317 ] } },
{ "type": "Feature", "properties": { "osm_id": "5017829150", "name": null, "barrier": null, "highway": null, "ref": null, "address": null, "is_in": null, "place": null, "man_made": null, "other_tags": "\"hiking\"=>\"yes\",\"information\"=>\"guidepost\",\"tourism\"=>\"information\"", "area": null, "centroid_x": 139.2018601, "centroid_y": 34.3208527 }, "geometry": { "type": "Point", "coordinates": [ 139.2018601, 34.3208527 ] } },
{ "type": "Feature", "properties": { "osm_id": "5017829151", "name": null, "barrier": null, "highway": null, "ref": null, "address": null, "is_in": null, "place": null, "man_made": null, "other_tags": "\"hiking\"=>\"yes\",\"information\"=>\"guidepost\",\"tourism\"=>\"information\"", "area": null, "centroid_x": 139.2009991, "centroid_y": 34.3202569 }, "geometry": { "type": "Point", "coordinates": [ 139.2009991, 34.3202569 ] } },
{ "type": "Feature", "properties": { "osm_id": "5017829152", "name": null, "barrier": null, "highway": null, "ref": null, "address": null, "is_in": null, "place": null, "man_made": null, "other_tags": "\"historic\"=>\"wayside_shrine\",\"religion\"=>\"shinto\"", "area": null, "centroid_x": 139.1986361, "centroid_y": 34.3186419 }, "geometry": { "type": "Point", "coordinates": [ 139.198636099999987, 34.3186419 ] } },
{ "type": "Feature", "properties": { "osm_id": "5017829153", "name": "唐人津城・隈の井地区　遊歩道案内図", "barrier": null, "highway": null, "ref": null, "address": null, "is_in": null, "place": null, "man_made": null, "other_tags": "\"hiking\"=>\"yes\",\"information\"=>\"map\",\"tourism\"=>\"information\"", "area": null, "centroid_x": 139.1983867, "centroid_y": 34.3182963 }, "geometry": { "type": "Point", "coordinates": [ 139.198386699999986, 34.3182963 ] } },
{ "type": "Feature", "properties": { "osm_id": "5017829154", "name": null, "barrier": null, "highway": null, "ref": null, "address": null, "is_in": null, "place": null, "man_made": null, "other_tags": "\"hiking\"=>\"yes\",\"information\"=>\"guidepost\",\"tourism\"=>\"information\"", "area": null, "centroid_x": 139.1982365, "centroid_y": 34.3198913 }, "geometry": { "type": "Point", "coordinates": [ 139.1982365, 34.3198913 ] } },
{ "type": "Feature", "properties": { "osm_id": "5017829155", "name": null, "barrier": null, "highway": null, "ref": null, "address": null, "is_in": null, "place": null, "man_made": null, "other_tags": "\"hiking\"=>\"yes\",\"information\"=>\"guidepost\",\"tourism\"=>\"information\"", "area": null, "centroid_x": 139.1971931, "centroid_y": 34.3207398 }, "geometry": { "type": "Point", "coordinates": [ 139.1971931, 34.3207398 ] } },
{ "type": "Feature", "properties": { "osm_id": "5017829156", "name": null, "barrier": null, "highway": null, "ref": null, "address": null, "is_in": null, "place": null, "man_made": null, "other_tags": "\"hiking\"=>\"yes\",\"information\"=>\"guidepost\",\"tourism\"=>\"information\"", "area": null, "centroid_x": 139.1972655, "centroid_y": 34.3208129 }, "geometry": { "type": "Point", "coordinates": [ 139.197265499999986, 34.3208129 ] } },
{ "type": "Feature", "properties": { "osm_id": "5017829157", "name": null, "barrier": null, "highway": null, "ref": null, "address": null, "is_in": null, "place": null, "man_made": null, "other_tags": "\"hiking\"=>\"yes\",\"information\"=>\"guidepost\",\"tourism\"=>\"information\"", "area": null, "centroid_x": 139.1979253, "centroid_y": 34.321679 }, "geometry": { "type": "Point", "coordinates": [ 139.1979253, 34.321679 ] } },
{ "type": "Feature", "properties": { "osm_id": "5017829158", "name": null, "barrier": null, "highway": null, "ref": null, "address": null, "is_in": null, "place": null, "man_made": null, "other_tags": "\"hiking\"=>\"yes\",\"information\"=>\"guidepost\",\"tourism\"=>\"information\"", "area": null, "centroid_x": 139.1984966, "centroid_y": 34.3232983 }, "geometry": { "type": "Point", "coordinates": [ 139.1984966, 34.3232983 ] } },
{ "type": "Feature", "properties": { "osm_id": "5017829159", "name": null, "barrier": null, "highway": null, "ref": null, "address": null, "is_in": null, "place": null, "man_made": null, "other_tags": "\"hiking\"=>\"yes\",\"information\"=>\"guidepost\",\"tourism\"=>\"information\"", "area": null, "centroid_x": 139.200924, "centroid_y": 34.3239075 }, "geometry": { "type": "Point", "coordinates": [ 139.200924, 34.3239075 ] } },
{ "type": "Feature", "properties": { "osm_id": "5017829164", "name": "大阪屋", "barrier": null, "highway": null, "ref": null, "address": null, "is_in": null, "place": null, "man_made": null, "other_tags": "\"tourism\"=>\"hotel\"", "area": null, "centroid_x": 139.2197719, "centroid_y": 34.3313633 }, "geometry": { "type": "Point", "coordinates": [ 139.219771900000012, 34.3313633 ] } },
{ "type": "Feature", "properties": { "osm_id": "5017829165", "name": null, "barrier": null, "highway": null, "ref": null, "address": null, "is_in": null, "place": null, "man_made": null, "other_tags": "\"amenity\"=>\"bench\"", "area": null, "centroid_x": 139.2204311, "centroid_y": 34.3323597 }, "geometry": { "type": "Point", "coordinates": [ 139.220431100000013, 34.3323597 ] } },
{ "type": "Feature", "properties": { "osm_id": "5017829166", "name": "水子地蔵", "barrier": null, "highway": null, "ref": null, "address": null, "is_in": null, "place": null, "man_made": null, "other_tags": "\"historic\"=>\"wayside_shrine\",\"religion\"=>\"buddhist\"", "area": null, "centroid_x": 139.2204857, "centroid_y": 34.3323265 }, "geometry": { "type": "Point", "coordinates": [ 139.220485700000012, 34.3323265 ] } },
{ "type": "Feature", "properties": { "osm_id": "5017829167", "name": "子育地蔵", "barrier": null, "highway": null, "ref": null, "address": null, "is_in": null, "place": null, "man_made": null, "other_tags": "\"historic\"=>\"wayside_shrine\",\"religion\"=>\"buddhist\"", "area": null, "centroid_x": 139.2204747, "centroid_y": 34.3323323 }, "geometry": { "type": "Point", "coordinates": [ 139.220474700000011, 34.3323323 ] } },
{ "type": "Feature", "properties": { "osm_id": "5017829168", "name": "きろく", "barrier": null, "highway": null, "ref": null, "address": null, "is_in": null, "place": null, "man_made": null, "other_tags": "\"tourism\"=>\"hotel\"", "area": null, "centroid_x": 139.2241587, "centroid_y": 34.3285636 }, "geometry": { "type": "Point", "coordinates": [ 139.2241587, 34.3285636 ] } },
{ "type": "Feature", "properties": { "osm_id": "5017829169", "name": "浜屋", "barrier": null, "highway": null, "ref": null, "address": null, "is_in": null, "place": null, "man_made": null, "other_tags": null, "area": null, "centroid_x": 139.2225172, "centroid_y": 34.3242109 }, "geometry": { "type": "Point", "coordinates": [ 139.2225172, 34.3242109 ] } },
{ "type": "Feature", "properties": { "osm_id": "5017829170", "name": "こころ", "barrier": null, "highway": null, "ref": null, "address": null, "is_in": null, "place": null, "man_made": null, "other_tags": "\"amenity\"=>\"restaurant\"", "area": null, "centroid_x": 139.2220438, "centroid_y": 34.3240581 }, "geometry": { "type": "Point", "coordinates": [ 139.2220438, 34.3240581 ] } },
{ "type": "Feature", "properties": { "osm_id": "5017829171", "name": "石白荘", "barrier": null, "highway": null, "ref": null, "address": null, "is_in": null, "place": null, "man_made": null, "other_tags": "\"tourism\"=>\"hotel\"", "area": null, "centroid_x": 139.2212431, "centroid_y": 34.3236217 }, "geometry": { "type": "Point", "coordinates": [ 139.2212431, 34.3236217 ] } },
{ "type": "Feature", "properties": { "osm_id": "5017829172", "name": "民宿　にしむら", "barrier": null, "highway": null, "ref": null, "address": null, "is_in": null, "place": null, "man_made": null, "other_tags": null, "area": null, "centroid_x": 139.2195359, "centroid_y": 34.3238898 }, "geometry": { "type": "Point", "coordinates": [ 139.219535900000011, 34.3238898 ] } },
{ "type": "Feature", "properties": { "osm_id": "5017829176", "name": null, "barrier": null, "highway": null, "ref": null, "address": null, "is_in": null, "place": null, "man_made": "water_tap", "other_tags": "\"drinking_water\"=>\"no\",\"religion\"=>\"shinto\"", "area": null, "centroid_x": 139.2165704, "centroid_y": 34.3243248 }, "geometry": { "type": "Point", "coordinates": [ 139.2165704, 34.3243248 ] } },
{ "type": "Feature", "properties": { "osm_id": "5017829187", "name": "式根島観光マップ", "barrier": null, "highway": null, "ref": null, "address": null, "is_in": null, "place": null, "man_made": null, "other_tags": "\"information\"=>\"map\",\"tourism\"=>\"information\"", "area": null, "centroid_x": 139.2162032, "centroid_y": 34.3248611 }, "geometry": { "type": "Point", "coordinates": [ 139.2162032, 34.3248611 ] } },
{ "type": "Feature", "properties": { "osm_id": "5017829193", "name": null, "barrier": null, "highway": null, "ref": null, "address": null, "is_in": null, "place": null, "man_made": null, "other_tags": "\"information\"=>\"guidepost\",\"tourism\"=>\"information\"", "area": null, "centroid_x": 139.2160825, "centroid_y": 34.3265368 }, "geometry": { "type": "Point", "coordinates": [ 139.2160825, 34.3265368 ] } },
{ "type": "Feature", "properties": { "osm_id": "5017829194", "name": null, "barrier": null, "highway": null, "ref": null, "address": null, "is_in": null, "place": null, "man_made": null, "other_tags": "\"information\"=>\"guidepost\",\"tourism\"=>\"information\"", "area": null, "centroid_x": 139.2160423, "centroid_y": 34.327394 }, "geometry": { "type": "Point", "coordinates": [ 139.2160423, 34.327394 ] } },
{ "type": "Feature", "properties": { "osm_id": "8362972286", "name": "式根島", "barrier": null, "highway": null, "ref": null, "address": null, "is_in": null, "place": "quarter", "man_made": null, "other_tags": "\"name:ja\"=>\"式根島\",\"name:ja-Hira\"=>\"しきねじま\",\"name:ja-Latn\"=>\"Shikinejima\"", "area": null, "centroid_x": 139.2189324, "centroid_y": 34.3273209 }, "geometry": { "type": "Point", "coordinates": [ 139.2189324, 34.3273209 ] } }
]
}
