{
"type": "FeatureCollection",
"name": "map-points",
"crs": { "type": "name", "properties": { "name": "urn:ogc:def:crs:OGC:1.3:CRS84" } },
"features": [
{ "type": "Feature", "properties": { "osm_id": "267316708", "name": "稲荷", "barrier": null, "highway": null, "ref": "JR-D03", "address": null, "is_in": null, "place": null, "man_made": null, "other_tags": "\"local_ref\"=>\"1\",\"name:en\"=>\"Inari\",\"name:es\"=>\"Inari\",\"name:it\"=>\"Inari\",\"name:ja\"=>\"稲荷\",\"name:ja-Hira\"=>\"いなり\",\"name:ja-Latn\"=>\"Inari\",\"name:ko\"=>\"이나리\",\"operator\"=>\"JR西日本\",\"public_transport\"=>\"stop_position\",\"railway\"=>\"stop\",\"train\"=>\"yes\"" }, "geometry": { "type": "Point", "coordinates": [ 135.7706313, 34.9668306 ] } },
{ "type": "Feature", "properties": { "osm_id": "670623429", "name": "伏見街道踏切", "barrier": null, "highway": null, "ref": null, "address": null, "is_in": null, "place": null, "man_made": null, "other_tags": "\"crossing:barrier\"=>\"double_half\",\"railway\"=>\"level_crossing\"" }, "geometry": { "type": "Point", "coordinates": [ 135.7710576, 34.965825 ] } },
{ "type": "Feature", "properties": { "osm_id": "717498925", "name": null, "barrier": null, "highway": null, "ref": null, "address": null, "is_in": null, "place": null, "man_made": null, "other_tags": "\"crossing:barrier\"=>\"double_half\",\"railway\"=>\"level_crossing\"" }, "geometry": { "type": "Point", "coordinates": [ 135.7703927, 34.9679104 ] } },
{ "type": "Feature", "properties": { "osm_id": "749326853", "name": "三つ辻 (Mittsu tsuji)", "barrier": null, "highway": null, "ref": null, "address": null, "is_in": null, "place": null, "man_made": null, "other_tags": "\"name:en\"=>\"T-Way Junction\",\"name:ja\"=>\"三つ辻\",\"tourism\"=>\"attraction\"" }, "geometry": { "type": "Point", "coordinates": [ 135.7787682, 34.970147 ] } },
{ "type": "Feature", "properties": { "osm_id": "749327219", "name": "四ツ辻 (Yottsu tsuji)", "barrier": null, "highway": null, "ref": null, "address": null, "is_in": null, "place": null, "man_made": null, "other_tags": "\"name:en\"=>\"4-Way Junction\",\"name:ja\"=>\"四ツ辻\",\"tourism\"=>\"attraction\"" }, "geometry": { "type": "Point", "coordinates": [ 135.7814186, 34.9690927 ] } },
{ "type": "Feature", "properties": { "osm_id": "749327432", "name": null, "barrier": null, "highway": null, "ref": null, "address": null, "is_in": null, "place": null, "man_made": null, "other_tags": "\"direction\"=>\"180-270\",\"tourism\"=>\"viewpoint\"" }, "geometry": { "type": "Point", "coordinates": [ 135.7813624, 34.9699684 ] } },
{ "type": "Feature", "properties": { "osm_id": "1214631083", "name": null, "barrier": null, "highway": null, "ref": null, "address": null, "is_in": null, "place": null, "man_made": "torii", "other_tags": "\"access\"=>\"yes\",\"foot\"=>\"yes\",\"name:en\"=>\"The first Tori\",\"name:ru\"=>\"первые ворота тропы\",\"religion\"=>\"shinto\"" }, "geometry": { "type": "Point", "coordinates": [ 135.7735001, 34.9674428 ] } },
{ "type": "Feature", "properties": { "osm_id": "1422962002", "name": "伏見稲荷郵便局", "barrier": null, "highway": null, "ref": null, "address": null, "is_in": null, "place": null, "man_made": null, "other_tags": "\"amenity\"=>\"post_office\",\"KSJ2:AdminArea\"=>\"京都府京都市伏見区\",\"KSJ2:ADS\"=>\"深草稲荷中之町53\",\"KSJ2:PubFacAdmin\"=>\"その他\",\"note:ja\"=>\"国土数値情報（公共施設データ）平成19年　国土交通省\",\"source_ref\"=>\"http://nlftp.mlit.go.jp/ksj/jpgis/datalist/KsjTmplt-P02-v2_0.html\"" }, "geometry": { "type": "Point", "coordinates": [ 135.7708092, 34.9685628 ] } },
{ "type": "Feature", "properties": { "osm_id": "2503700051", "name": "稲荷山", "barrier": null, "highway": null, "ref": null, "address": null, "is_in": null, "place": null, "man_made": null, "other_tags": "\"alt_name\"=>\"Inari Mountain\",\"name:en\"=>\"Inariyama Mountain\",\"name:ja\"=>\"稲荷山\",\"name:ja-Hira\"=>\"いなりやま\",\"name:ja-Latn\"=>\"Inari yama\",\"natural\"=>\"peak\",\"wikipedia\"=>\"ja:伏見稲荷大社#稲荷山\"" }, "geometry": { "type": "Point", "coordinates": [ 135.7855255, 34.9670127 ] } },
{ "type": "Feature", "properties": { "osm_id": "2656062941", "name": "いなりや", "barrier": null, "highway": null, "ref": null, "address": null, "is_in": null, "place": null, "man_made": null, "other_tags": "\"shop\"=>\"confectionery\"" }, "geometry": { "type": "Point", "coordinates": [ 135.7718561, 34.9678597 ] } },
{ "type": "Feature", "properties": { "osm_id": "2656062942", "name": "かのこ", "barrier": null, "highway": null, "ref": null, "address": null, "is_in": null, "place": null, "man_made": null, "other_tags": "\"amenity\"=>\"restaurant\"" }, "geometry": { "type": "Point", "coordinates": [ 135.7708811, 34.9681758 ] } },
{ "type": "Feature", "properties": { "osm_id": "2656062943", "name": "すぐきや", "barrier": null, "highway": null, "ref": null, "address": null, "is_in": null, "place": null, "man_made": null, "other_tags": "\"shop\"=>\"deli\"" }, "geometry": { "type": "Point", "coordinates": [ 135.7708854, 34.9679541 ] } },
{ "type": "Feature", "properties": { "osm_id": "2656062944", "name": "はな家", "barrier": null, "highway": null, "ref": null, "address": null, "is_in": null, "place": null, "man_made": null, "other_tags": "\"amenity\"=>\"restaurant\"" }, "geometry": { "type": "Point", "coordinates": [ 135.7716102, 34.9678988 ] } },
{ "type": "Feature", "properties": { "osm_id": "2656062945", "name": "もち焼せんべい", "barrier": null, "highway": null, "ref": null, "address": null, "is_in": null, "place": null, "man_made": null, "other_tags": "\"shop\"=>\"confectionery\"" }, "geometry": { "type": "Point", "coordinates": [ 135.7710179, 34.9678661 ] } },
{ "type": "Feature", "properties": { "osm_id": "2656062948", "name": "カッコ", "barrier": null, "highway": null, "ref": null, "address": null, "is_in": null, "place": null, "man_made": null, "other_tags": "\"int_name\"=>\"KACCO\",\"shop\"=>\"gift\"" }, "geometry": { "type": "Point", "coordinates": [ 135.7711596, 34.9679689 ] } },
{ "type": "Feature", "properties": { "osm_id": "2656062971", "name": null, "barrier": null, "highway": null, "ref": null, "address": null, "is_in": null, "place": null, "man_made": null, "other_tags": "\"amenity\"=>\"toilets\"" }, "geometry": { "type": "Point", "coordinates": [ 135.7722164, 34.9675105 ] } },
{ "type": "Feature", "properties": { "osm_id": "2656063031", "name": "中華そば 海や", "barrier": null, "highway": null, "ref": null, "address": null, "is_in": null, "place": null, "man_made": null, "other_tags": "\"amenity\"=>\"restaurant\"" }, "geometry": { "type": "Point", "coordinates": [ 135.7708386, 34.9680622 ] } },
{ "type": "Feature", "properties": { "osm_id": "2656063037", "name": "伏見稲荷大社 境内案内図", "barrier": null, "highway": null, "ref": null, "address": null, "is_in": null, "place": null, "man_made": null, "other_tags": "\"information\"=>\"map\",\"map_size\"=>\"site\",\"name:en\"=>\"Fushimi Inari Shrine\",\"name:fr\"=>\"Sanctuaire Fushimi Inari\",\"name:ja\"=>\"伏見稲荷大社 境内案内図\",\"name:ja_rm\"=>\"Fushimi-inari-taisha keidai annai zu\",\"tourism\"=>\"information\"" }, "geometry": { "type": "Point", "coordinates": [ 135.7755175, 34.966588 ] } },
{ "type": "Feature", "properties": { "osm_id": "2656063038", "name": "伏見稲荷大社 境内案内図", "barrier": null, "highway": null, "ref": null, "address": null, "is_in": null, "place": null, "man_made": null, "other_tags": "\"information\"=>\"map\",\"map_size\"=>\"site\",\"name:en\"=>\"Fushimi Inari Shrine\",\"name:fr\"=>\"Sanctuaire Fushimi Inari\",\"name:ja\"=>\"伏見稲荷大社 境内案内図\",\"name:ja_rm\"=>\"Fushimi-inari-taisha keidai an'nai-zu\",\"tourism\"=>\"information\",\"wikidata\"=>\"Q714828\",\"wikipedia\"=>\"en:Fushimi Inari-taisha\"" }, "geometry": { "type": "Point", "coordinates": [ 135.7737731, 34.9672545 ] } },
{ "type": "Feature", "properties": { "osm_id": "2656063039", "name": "八霊社", "barrier": null, "highway": null, "ref": null, "address": null, "is_in": null, "place": null, "man_made": null, "other_tags": "\"historic\"=>\"wayside_shrine\",\"name:en\"=>\"Hachirei Shrine\",\"religion\"=>\"shinto\"" }, "geometry": { "type": "Point", "coordinates": [ 135.7742378, 34.9686262 ] } },
{ "type": "Feature", "properties": { "osm_id": "2656063042", "name": "夢蔵人", "barrier": null, "highway": null, "ref": null, "address": null, "is_in": null, "place": null, "man_made": null, "other_tags": "\"name:en\"=>\"Kirara\",\"shop\"=>\"gift\"" }, "geometry": { "type": "Point", "coordinates": [ 135.7710347, 34.967986 ] } },
{ "type": "Feature", "properties": { "osm_id": "2656063044", "name": "島田神具店", "barrier": null, "highway": null, "ref": null, "address": null, "is_in": null, "place": null, "man_made": null, "other_tags": "\"shop\"=>\"gift\"" }, "geometry": { "type": "Point", "coordinates": [ 135.771695099999988, 34.9678959 ] } },
{ "type": "Feature", "properties": { "osm_id": "2656063045", "name": "布遊舎", "barrier": null, "highway": null, "ref": null, "address": null, "is_in": null, "place": null, "man_made": null, "other_tags": "\"shop\"=>\"gift\"" }, "geometry": { "type": "Point", "coordinates": [ 135.7715441, 34.967908 ] } },
{ "type": "Feature", "properties": { "osm_id": "2656063050", "name": "日野屋", "barrier": null, "highway": null, "ref": null, "address": null, "is_in": null, "place": null, "man_made": null, "other_tags": "\"amenity\"=>\"restaurant\",\"phone\"=>\"6411667\"" }, "geometry": { "type": "Point", "coordinates": [ 135.7714549, 34.9679253 ] } },
{ "type": "Feature", "properties": { "osm_id": "2656063052", "name": "末吉餅", "barrier": null, "highway": null, "ref": null, "address": null, "is_in": null, "place": null, "man_made": null, "other_tags": "\"shop\"=>\"gift\"" }, "geometry": { "type": "Point", "coordinates": [ 135.7711548, 34.9678704 ] } },
{ "type": "Feature", "properties": { "osm_id": "2656063053", "name": "本家八ツ橋", "barrier": null, "highway": null, "ref": null, "address": null, "is_in": null, "place": null, "man_made": null, "other_tags": "\"shop\"=>\"confectionery\"" }, "geometry": { "type": "Point", "coordinates": [ 135.771792299999987, 34.9678742 ] } },
{ "type": "Feature", "properties": { "osm_id": "2656063060", "name": "田中亭", "barrier": null, "highway": null, "ref": null, "address": null, "is_in": null, "place": null, "man_made": null, "other_tags": "\"tourism\"=>\"guest_house\"" }, "geometry": { "type": "Point", "coordinates": [ 135.771285400000011, 34.9680612 ] } },
{ "type": "Feature", "properties": { "osm_id": "2656063064", "name": "祢ざめ家", "barrier": null, "highway": null, "ref": null, "address": null, "is_in": null, "place": null, "man_made": null, "other_tags": "\"amenity\"=>\"restaurant\",\"name:en\"=>\"Nizameya\",\"name:ja_rm\"=>\"Nezameya\",\"opening_hours\"=>\"Mo-Su 10:00-18:00\"" }, "geometry": { "type": "Point", "coordinates": [ 135.7708671, 34.967843 ] } },
{ "type": "Feature", "properties": { "osm_id": "2656063066", "name": "稲福", "barrier": null, "highway": null, "ref": null, "address": null, "is_in": null, "place": null, "man_made": null, "other_tags": "\"addr:housenumber\"=>\"2-4\",\"addr:street\"=>\"京都市伏見区深草開土町\",\"amenity\"=>\"restaurant\",\"opening_hours\"=>\"We-Mo 09:00-16:30\"" }, "geometry": { "type": "Point", "coordinates": [ 135.77191830000001, 34.9678489 ] } },
{ "type": "Feature", "properties": { "osm_id": "2656063067", "name": "伏見稲荷　そらつき", "barrier": null, "highway": null, "ref": null, "address": null, "is_in": null, "place": null, "man_made": null, "other_tags": "\"shop\"=>\"confectionery\"" }, "geometry": { "type": "Point", "coordinates": [ 135.7719741, 34.9678344 ] } },
{ "type": "Feature", "properties": { "osm_id": "2656063068", "name": "聖護院八ツ橋総本店", "barrier": null, "highway": null, "ref": null, "address": null, "is_in": null, "place": null, "man_made": null, "other_tags": "\"shop\"=>\"confectionery\"" }, "geometry": { "type": "Point", "coordinates": [ 135.7710813, 34.9678683 ] } },
{ "type": "Feature", "properties": { "osm_id": "2656063073", "name": "近江屋", "barrier": null, "highway": null, "ref": null, "address": null, "is_in": null, "place": null, "man_made": null, "other_tags": "\"amenity\"=>\"restaurant\",\"name:ja_rm\"=>\"Nezameya\"" }, "geometry": { "type": "Point", "coordinates": [ 135.770613, 34.9678269 ] } },
{ "type": "Feature", "properties": { "osm_id": "2656063074", "name": "遊膳", "barrier": null, "highway": null, "ref": null, "address": null, "is_in": null, "place": null, "man_made": null, "other_tags": "\"shop\"=>\"gift\"" }, "geometry": { "type": "Point", "coordinates": [ 135.7708183, 34.9679495 ] } },
{ "type": "Feature", "properties": { "osm_id": "2656063075", "name": "陶庵", "barrier": null, "highway": null, "ref": null, "address": null, "is_in": null, "place": null, "man_made": null, "other_tags": "\"shop\"=>\"gift\"" }, "geometry": { "type": "Point", "coordinates": [ 135.7725877, 34.9674634 ] } },
{ "type": "Feature", "properties": { "osm_id": "2656063076", "name": "高畠商店", "barrier": null, "highway": null, "ref": null, "address": null, "is_in": null, "place": null, "man_made": null, "other_tags": "\"shop\"=>\"gift\"" }, "geometry": { "type": "Point", "coordinates": [ 135.7712453, 34.9679684 ] } },
{ "type": "Feature", "properties": { "osm_id": "2657629187", "name": "コメダ珈琲店", "barrier": null, "highway": null, "ref": null, "address": null, "is_in": null, "place": null, "man_made": null, "other_tags": "\"amenity\"=>\"cafe\",\"brand\"=>\"コメダ珈琲店\",\"brand:en\"=>\"Komeda Coffee Shop\",\"brand:ja\"=>\"コメダ珈琲店\",\"brand:wikidata\"=>\"Q11302679\",\"brand:wikipedia\"=>\"ja:コメダ\",\"cuisine\"=>\"coffee_shop\",\"name:en\"=>\"Komeda Coffee Shop\",\"name:ja\"=>\"コメダ珈琲店\",\"takeaway\"=>\"yes\"" }, "geometry": { "type": "Point", "coordinates": [ 135.7710164, 34.9677757 ] } },
{ "type": "Feature", "properties": { "osm_id": "2657629194", "name": "デイリーヤマザキ", "barrier": null, "highway": null, "ref": null, "address": null, "is_in": null, "place": null, "man_made": null, "other_tags": "\"brand\"=>\"Daily YAMAZAKI\",\"name:en\"=>\"Daily YAMAZAKI\",\"name:ja\"=>\"デイリーヤマザキ\",\"name:ja_rm\"=>\"Deiri Yamazaki\",\"shop\"=>\"convenience\"" }, "geometry": { "type": "Point", "coordinates": [ 135.7708662, 34.9670421 ] } },
{ "type": "Feature", "properties": { "osm_id": "2657629437", "name": "宇野サイクルショップ", "barrier": null, "highway": null, "ref": null, "address": null, "is_in": null, "place": null, "man_made": null, "other_tags": "\"shop\"=>\"bicycle\"" }, "geometry": { "type": "Point", "coordinates": [ 135.7708743, 34.9672909 ] } },
{ "type": "Feature", "properties": { "osm_id": "2697500339", "name": "おもかる石", "barrier": null, "highway": null, "ref": null, "address": null, "is_in": null, "place": null, "man_made": null, "other_tags": "\"historic\"=>\"stone\",\"name:ja_rm\"=>\"Omo karu ishi\",\"tourism\"=>\"attraction\"" }, "geometry": { "type": "Point", "coordinates": [ 135.7756967, 34.9665075 ] } },
{ "type": "Feature", "properties": { "osm_id": "2697500363", "name": "伏見稲荷大社 境内案内図", "barrier": null, "highway": null, "ref": null, "address": null, "is_in": null, "place": null, "man_made": null, "other_tags": "\"check_date\"=>\"2023-10-05\",\"information\"=>\"map\",\"map_size\"=>\"site\",\"tourism\"=>\"information\"" }, "geometry": { "type": "Point", "coordinates": [ 135.7724986, 34.9673947 ] } },
{ "type": "Feature", "properties": { "osm_id": "3004487858", "name": null, "barrier": null, "highway": null, "ref": null, "address": null, "is_in": null, "place": null, "man_made": null, "other_tags": "\"access\"=>\"yes\",\"amenity\"=>\"toilets\",\"changing_table\"=>\"yes\",\"check_date\"=>\"2024-02-29\",\"drinking_water\"=>\"yes\",\"fee\"=>\"no\",\"wheelchair\"=>\"yes\"" }, "geometry": { "type": "Point", "coordinates": [ 135.7731212, 34.9675047 ] } },
{ "type": "Feature", "properties": { "osm_id": "3055919075", "name": null, "barrier": null, "highway": null, "ref": null, "address": null, "is_in": null, "place": null, "man_made": null, "other_tags": "\"noexit\"=>\"yes\"" }, "geometry": { "type": "Point", "coordinates": [ 135.7757216, 34.9663465 ] } },
{ "type": "Feature", "properties": { "osm_id": "3055919121", "name": null, "barrier": null, "highway": null, "ref": null, "address": null, "is_in": null, "place": null, "man_made": null, "other_tags": "\"noexit\"=>\"yes\"" }, "geometry": { "type": "Point", "coordinates": [ 135.7754042, 34.9668573 ] } },
{ "type": "Feature", "properties": { "osm_id": "3055922763", "name": null, "barrier": null, "highway": null, "ref": null, "address": null, "is_in": null, "place": null, "man_made": null, "other_tags": "\"artwork_type\"=>\"statue\",\"description\"=>\"Kitsune (fox) figures\",\"religion\"=>\"shinto\",\"tourism\"=>\"artwork\"" }, "geometry": { "type": "Point", "coordinates": [ 135.7744452, 34.9676323 ] } },
{ "type": "Feature", "properties": { "osm_id": "3338256050", "name": null, "barrier": null, "highway": null, "ref": null, "address": null, "is_in": null, "place": null, "man_made": null, "other_tags": "\"crossing:barrier\"=>\"double_half\",\"railway\"=>\"level_crossing\"" }, "geometry": { "type": "Point", "coordinates": [ 135.7704376, 34.967907 ] } },
{ "type": "Feature", "properties": { "osm_id": "3338256057", "name": "伏見街道踏切", "barrier": null, "highway": null, "ref": null, "address": null, "is_in": null, "place": null, "man_made": null, "other_tags": "\"crossing:barrier\"=>\"double_half\",\"railway\"=>\"level_crossing\"" }, "geometry": { "type": "Point", "coordinates": [ 135.771078100000011, 34.9658715 ] } },
{ "type": "Feature", "properties": { "osm_id": "3494101735", "name": null, "barrier": null, "highway": null, "ref": null, "address": null, "is_in": null, "place": null, "man_made": null, "other_tags": "\"historic\"=>\"wayside_shrine\",\"religion\"=>\"shinto\"" }, "geometry": { "type": "Point", "coordinates": [ 135.7781051, 34.968117 ] } },
{ "type": "Feature", "properties": { "osm_id": "3494101737", "name": "五社相殿", "barrier": null, "highway": null, "ref": null, "address": null, "is_in": null, "place": null, "man_made": null, "other_tags": "\"historic\"=>\"wayside_shrine\",\"religion\"=>\"shinto\"" }, "geometry": { "type": "Point", "coordinates": [ 135.7736457, 34.9675246 ] } },
{ "type": "Feature", "properties": { "osm_id": "3494101752", "name": "薬力の滝", "barrier": null, "highway": null, "ref": null, "address": null, "is_in": null, "place": null, "man_made": null, "other_tags": "\"name:en\"=>\"Kusuri-ryoku no taki\",\"waterway\"=>\"waterfall\"" }, "geometry": { "type": "Point", "coordinates": [ 135.7853242, 34.9687089 ] } },
{ "type": "Feature", "properties": { "osm_id": "3494101753", "name": "白玉大神 大岩大神 福繁大神", "barrier": null, "highway": null, "ref": null, "address": null, "is_in": null, "place": null, "man_made": null, "other_tags": "\"historic\"=>\"wayside_shrine\",\"name:ja_rm\"=>\"Shiratama Ōgami Ōiwa Ōgami fukushige ōgami\",\"religion\"=>\"shinto\"" }, "geometry": { "type": "Point", "coordinates": [ 135.7781704, 34.9681008 ] } },
{ "type": "Feature", "properties": { "osm_id": "3494101765", "name": "末廣大明神", "barrier": null, "highway": null, "ref": null, "address": null, "is_in": null, "place": null, "man_made": null, "other_tags": "\"historic\"=>\"wayside_shrine\",\"religion\"=>\"shinto\"" }, "geometry": { "type": "Point", "coordinates": [ 135.7846026, 34.9694255 ] } },
{ "type": "Feature", "properties": { "osm_id": "3494101769", "name": "荷田社", "barrier": null, "highway": null, "ref": null, "address": null, "is_in": null, "place": null, "man_made": null, "other_tags": "\"historic\"=>\"wayside_shrine\",\"religion\"=>\"shinto\"" }, "geometry": { "type": "Point", "coordinates": [ 135.7728936, 34.9667919 ] } },
{ "type": "Feature", "properties": { "osm_id": "3494101781", "name": "金光大神", "barrier": null, "highway": null, "ref": null, "address": null, "is_in": null, "place": null, "man_made": null, "other_tags": "\"historic\"=>\"wayside_shrine\",\"name:en\"=>\"Great Goddess of Mercy\",\"name:fr\"=>\"Grande Déesse de la Miséricorde\",\"name:ja_rm\"=>\"Kanemitsu ōgami\",\"religion\"=>\"shinto\"" }, "geometry": { "type": "Point", "coordinates": [ 135.7786331, 34.9683681 ] } },
{ "type": "Feature", "properties": { "osm_id": "3494101787", "name": null, "barrier": null, "highway": null, "ref": null, "address": null, "is_in": null, "place": null, "man_made": null, "other_tags": "\"tourism\"=>\"viewpoint\"" }, "geometry": { "type": "Point", "coordinates": [ 135.7809265, 34.9694633 ] } },
{ "type": "Feature", "properties": { "osm_id": "3494101790", "name": "春葉殿", "barrier": null, "highway": null, "ref": null, "address": null, "is_in": null, "place": null, "man_made": null, "other_tags": "\"historic\"=>\"wayside_shrine\",\"religion\"=>\"shinto\"" }, "geometry": { "type": "Point", "coordinates": [ 135.772892399999989, 34.9668076 ] } },
{ "type": "Feature", "properties": { "osm_id": "3494101997", "name": "春繁大神", "barrier": null, "highway": null, "ref": null, "address": null, "is_in": null, "place": null, "man_made": null, "other_tags": "\"historic\"=>\"wayside_shrine\",\"religion\"=>\"shinto\"" }, "geometry": { "type": "Point", "coordinates": [ 135.78639050000001, 34.9675785 ] } },
{ "type": "Feature", "properties": { "osm_id": "3494101999", "name": null, "barrier": null, "highway": null, "ref": null, "address": null, "is_in": null, "place": null, "man_made": null, "other_tags": "\"historic\"=>\"wayside_shrine\",\"religion\"=>\"shinto\"" }, "geometry": { "type": "Point", "coordinates": [ 135.778973400000012, 34.9700697 ] } },
{ "type": "Feature", "properties": { "osm_id": "3494102004", "name": null, "barrier": null, "highway": null, "ref": null, "address": null, "is_in": null, "place": null, "man_made": null, "other_tags": "\"historic\"=>\"wayside_shrine\",\"religion\"=>\"shinto\"" }, "geometry": { "type": "Point", "coordinates": [ 135.7808267, 34.9695418 ] } },
{ "type": "Feature", "properties": { "osm_id": "3494102012", "name": null, "barrier": null, "highway": null, "ref": null, "address": null, "is_in": null, "place": null, "man_made": null, "other_tags": "\"historic\"=>\"wayside_shrine\"" }, "geometry": { "type": "Point", "coordinates": [ 135.775401, 34.9667649 ] } },
{ "type": "Feature", "properties": { "osm_id": "3494102013", "name": "石井社", "barrier": null, "highway": null, "ref": null, "address": null, "is_in": null, "place": null, "man_made": null, "other_tags": "\"historic\"=>\"wayside_shrine\",\"religion\"=>\"shinto\"" }, "geometry": { "type": "Point", "coordinates": [ 135.7852538, 34.9687948 ] } },
{ "type": "Feature", "properties": { "osm_id": "3494102016", "name": "榎木大神", "barrier": null, "highway": null, "ref": null, "address": null, "is_in": null, "place": null, "man_made": null, "other_tags": "\"historic\"=>\"wayside_shrine\",\"religion\"=>\"shinto\"" }, "geometry": { "type": "Point", "coordinates": [ 135.779213199999987, 34.9700053 ] } },
{ "type": "Feature", "properties": { "osm_id": "3494102024", "name": null, "barrier": null, "highway": null, "ref": null, "address": null, "is_in": null, "place": null, "man_made": null, "other_tags": "\"direction\"=>\"W\",\"tourism\"=>\"viewpoint\"" }, "geometry": { "type": "Point", "coordinates": [ 135.7813832, 34.9691106 ] } },
{ "type": "Feature", "properties": { "osm_id": "3494102034", "name": "薬力社", "barrier": null, "highway": null, "ref": null, "address": null, "is_in": null, "place": null, "man_made": null, "other_tags": "\"historic\"=>\"wayside_shrine\",\"religion\"=>\"shinto\"" }, "geometry": { "type": "Point", "coordinates": [ 135.7852255, 34.9688239 ] } },
{ "type": "Feature", "properties": { "osm_id": "3494102036", "name": null, "barrier": null, "highway": null, "ref": null, "address": null, "is_in": null, "place": null, "man_made": null, "other_tags": "\"historic\"=>\"wayside_shrine\",\"religion\"=>\"shinto\"" }, "geometry": { "type": "Point", "coordinates": [ 135.7793385, 34.9699645 ] } },
{ "type": "Feature", "properties": { "osm_id": "3494122116", "name": null, "barrier": null, "highway": null, "ref": null, "address": null, "is_in": null, "place": null, "man_made": null, "other_tags": "\"amenity\"=>\"cafe\",\"check_date\"=>\"2023-04-08\"" }, "geometry": { "type": "Point", "coordinates": [ 135.7775475, 34.9700954 ] } },
{ "type": "Feature", "properties": { "osm_id": "3494122118", "name": null, "barrier": null, "highway": null, "ref": null, "address": null, "is_in": null, "place": null, "man_made": null, "other_tags": "\"amenity\"=>\"place_of_worship\"" }, "geometry": { "type": "Point", "coordinates": [ 135.77575920000001, 34.9696554 ] } },
{ "type": "Feature", "properties": { "osm_id": "3494122123", "name": null, "barrier": null, "highway": null, "ref": null, "address": null, "is_in": null, "place": null, "man_made": null, "other_tags": "\"amenity\"=>\"cafe\"" }, "geometry": { "type": "Point", "coordinates": [ 135.7763751, 34.969811 ] } },
{ "type": "Feature", "properties": { "osm_id": "3494122124", "name": "毎日稲荷大神", "barrier": null, "highway": null, "ref": null, "address": null, "is_in": null, "place": null, "man_made": null, "other_tags": "\"historic\"=>\"wayside_shrine\",\"religion\"=>\"shinto\"" }, "geometry": { "type": "Point", "coordinates": [ 135.7775067, 34.9700945 ] } },
{ "type": "Feature", "properties": { "osm_id": "3494122126", "name": null, "barrier": null, "highway": null, "ref": null, "address": null, "is_in": null, "place": null, "man_made": null, "other_tags": "\"historic\"=>\"wayside_shrine\"" }, "geometry": { "type": "Point", "coordinates": [ 135.7758278, 34.969456 ] } },
{ "type": "Feature", "properties": { "osm_id": "3494122149", "name": "延命地蔵大菩薩", "barrier": null, "highway": null, "ref": null, "address": null, "is_in": null, "place": null, "man_made": null, "other_tags": "\"historic\"=>\"wayside_shrine\",\"religion\"=>\"buddhist\"" }, "geometry": { "type": "Point", "coordinates": [ 135.78093530000001, 34.9702646 ] } },
{ "type": "Feature", "properties": { "osm_id": "3494122153", "name": "玉姫大神", "barrier": null, "highway": null, "ref": null, "address": null, "is_in": null, "place": null, "man_made": null, "other_tags": "\"historic\"=>\"wayside_shrine\",\"religion\"=>\"shinto\"" }, "geometry": { "type": "Point", "coordinates": [ 135.777648199999987, 34.9701007 ] } },
{ "type": "Feature", "properties": { "osm_id": "3494122155", "name": "身守不動明王", "barrier": null, "highway": null, "ref": null, "address": null, "is_in": null, "place": null, "man_made": null, "other_tags": "\"historic\"=>\"wayside_shrine\",\"religion\"=>\"buddhist\"" }, "geometry": { "type": "Point", "coordinates": [ 135.7758363, 34.9696436 ] } },
{ "type": "Feature", "properties": { "osm_id": "3494122158", "name": "末廣大神", "barrier": null, "highway": null, "ref": null, "address": null, "is_in": null, "place": null, "man_made": null, "other_tags": "\"historic\"=>\"wayside_shrine\",\"religion\"=>\"shinto\"" }, "geometry": { "type": "Point", "coordinates": [ 135.776093300000014, 34.9691658 ] } },
{ "type": "Feature", "properties": { "osm_id": "3494122162", "name": "白狐大神", "barrier": null, "highway": null, "ref": null, "address": null, "is_in": null, "place": null, "man_made": null, "other_tags": "\"historic\"=>\"wayside_shrine\",\"religion\"=>\"shinto\"" }, "geometry": { "type": "Point", "coordinates": [ 135.7775939, 34.9701034 ] } },
{ "type": "Feature", "properties": { "osm_id": "3644796532", "name": "稲荷", "barrier": null, "highway": null, "ref": "JR-D03", "address": null, "is_in": null, "place": null, "man_made": null, "other_tags": "\"KSJ2:LIN\"=>\"奈良線\",\"KSJ2:STN\"=>\"稲荷\",\"name:en\"=>\"Inari\",\"name:es\"=>\"Inari\",\"name:it\"=>\"Inari\",\"name:ja\"=>\"稲荷\",\"name:ja-Hira\"=>\"いなり\",\"name:ja-Latn\"=>\"Inari\",\"name:ko\"=>\"이나리\",\"note:ja\"=>\"国土数値情報（鉄道データ）平成19年　国土交通省\",\"operator\"=>\"西日本旅客鉄道\",\"operator:en\"=>\"West Japan Railway Company\",\"operator:ja\"=>\"西日本旅客鉄道\",\"public_transport\"=>\"station\",\"railway\"=>\"station\",\"source_ref\"=>\"http://nlftp.mlit.go.jp/ksj/jpgis/datalist/KsjTmplt-N02-v1_1.html\",\"wheelchair\"=>\"yes\",\"wikidata\"=>\"Q510674\",\"wikipedia\"=>\"ja:稲荷駅\"" }, "geometry": { "type": "Point", "coordinates": [ 135.77067, 34.9668055 ] } },
{ "type": "Feature", "properties": { "osm_id": "3644796533", "name": "稲荷", "barrier": null, "highway": null, "ref": "JR-D03", "address": null, "is_in": null, "place": null, "man_made": null, "other_tags": "\"local_ref\"=>\"2\",\"name:en\"=>\"Inari\",\"name:es\"=>\"Inari\",\"name:it\"=>\"Inari\",\"name:ja\"=>\"稲荷\",\"name:ja-Hira\"=>\"いなり\",\"name:ja-Latn\"=>\"Inari\",\"name:ko\"=>\"이나리\",\"operator\"=>\"JR西日本\",\"public_transport\"=>\"stop_position\",\"railway\"=>\"stop\",\"train\"=>\"yes\"" }, "geometry": { "type": "Point", "coordinates": [ 135.7706699, 34.9668389 ] } },
{ "type": "Feature", "properties": { "osm_id": "4124716289", "name": null, "barrier": null, "highway": null, "ref": null, "address": null, "is_in": null, "place": null, "man_made": null, "other_tags": "\"amenity\"=>\"vending_machine\",\"vending\"=>\"drinks\"" }, "geometry": { "type": "Point", "coordinates": [ 135.7786068, 34.9684145 ] } },
{ "type": "Feature", "properties": { "osm_id": "4124716290", "name": null, "barrier": null, "highway": null, "ref": null, "address": null, "is_in": null, "place": null, "man_made": null, "other_tags": "\"amenity\"=>\"vending_machine\",\"check_date\"=>\"2022-10-17\",\"operator\"=>\"Kirin\",\"vending\"=>\"drinks\"" }, "geometry": { "type": "Point", "coordinates": [ 135.7803863, 34.9697719 ] } },
{ "type": "Feature", "properties": { "osm_id": "4124716291", "name": null, "barrier": null, "highway": null, "ref": null, "address": null, "is_in": null, "place": null, "man_made": null, "other_tags": "\"amenity\"=>\"vending_machine\",\"check_date\"=>\"2023-09-25\",\"vending\"=>\"drinks\"" }, "geometry": { "type": "Point", "coordinates": [ 135.7829046, 34.9671995 ] } },
{ "type": "Feature", "properties": { "osm_id": "4124727989", "name": null, "barrier": null, "highway": null, "ref": null, "address": null, "is_in": null, "place": null, "man_made": null, "other_tags": "\"amenity\"=>\"bench\",\"backrest\"=>\"yes\",\"covered\"=>\"no\"" }, "geometry": { "type": "Point", "coordinates": [ 135.781434, 34.969117 ] } },
{ "type": "Feature", "properties": { "osm_id": "4124727995", "name": null, "barrier": null, "highway": null, "ref": null, "address": null, "is_in": null, "place": null, "man_made": null, "other_tags": "\"amenity\"=>\"vending_machine\",\"check_date\"=>\"2023-09-25\",\"vending\"=>\"drinks\"" }, "geometry": { "type": "Point", "coordinates": [ 135.784775200000013, 34.9695287 ] } },
{ "type": "Feature", "properties": { "osm_id": "4124731989", "name": null, "barrier": null, "highway": null, "ref": null, "address": null, "is_in": null, "place": null, "man_made": null, "other_tags": "\"amenity\"=>\"vending_machine\",\"check_date\"=>\"2022-10-17\",\"indoor\"=>\"no\",\"operator\"=>\"Kirin\",\"vending\"=>\"drinks\"" }, "geometry": { "type": "Point", "coordinates": [ 135.784188, 34.967069 ] } },
{ "type": "Feature", "properties": { "osm_id": "4124731991", "name": null, "barrier": null, "highway": null, "ref": null, "address": null, "is_in": null, "place": null, "man_made": null, "other_tags": "\"amenity\"=>\"vending_machine\",\"vending\"=>\"drinks\"" }, "geometry": { "type": "Point", "coordinates": [ 135.776357, 34.969836 ] } },
{ "type": "Feature", "properties": { "osm_id": "4124733589", "name": null, "barrier": null, "highway": null, "ref": null, "address": null, "is_in": null, "place": null, "man_made": null, "other_tags": "\"amenity\"=>\"vending_machine\",\"check_date\"=>\"2023-09-25\",\"indoor\"=>\"yes\",\"vending\"=>\"drinks\"" }, "geometry": { "type": "Point", "coordinates": [ 135.785465, 34.966951 ] } },
{ "type": "Feature", "properties": { "osm_id": "4124743792", "name": null, "barrier": null, "highway": null, "ref": null, "address": null, "is_in": null, "place": null, "man_made": null, "other_tags": "\"amenity\"=>\"vending_machine\",\"vending\"=>\"drinks\"" }, "geometry": { "type": "Point", "coordinates": [ 135.7755453, 34.9693459 ] } },
{ "type": "Feature", "properties": { "osm_id": "4124757989", "name": null, "barrier": null, "highway": null, "ref": null, "address": null, "is_in": null, "place": null, "man_made": null, "other_tags": "\"amenity\"=>\"toilets\",\"opening_hours\"=>\"Mo-Su 09:00-17:00\"" }, "geometry": { "type": "Point", "coordinates": [ 135.7835112, 34.969472 ] } },
{ "type": "Feature", "properties": { "osm_id": "4124761790", "name": null, "barrier": null, "highway": null, "ref": null, "address": null, "is_in": null, "place": null, "man_made": null, "other_tags": "\"amenity\"=>\"vending_machine\",\"check_date\"=>\"2022-10-17\",\"vending\"=>\"drinks\"" }, "geometry": { "type": "Point", "coordinates": [ 135.777535, 34.970159 ] } },
{ "type": "Feature", "properties": { "osm_id": "4124761791", "name": null, "barrier": null, "highway": null, "ref": null, "address": null, "is_in": null, "place": null, "man_made": null, "other_tags": "\"amenity\"=>\"vending_machine\",\"vending\"=>\"drinks\"" }, "geometry": { "type": "Point", "coordinates": [ 135.775847, 34.969729 ] } },
{ "type": "Feature", "properties": { "osm_id": "4124767589", "name": null, "barrier": null, "highway": null, "ref": null, "address": null, "is_in": null, "place": null, "man_made": null, "other_tags": "\"amenity\"=>\"vending_machine\",\"check_date\"=>\"2022-10-17\",\"vending\"=>\"drinks\"" }, "geometry": { "type": "Point", "coordinates": [ 135.775043, 34.969031 ] } },
{ "type": "Feature", "properties": { "osm_id": "4284282793", "name": "伏見庵", "barrier": null, "highway": null, "ref": null, "address": null, "is_in": null, "place": null, "man_made": null, "other_tags": "\"amenity\"=>\"restaurant\"" }, "geometry": { "type": "Point", "coordinates": [ 135.7706882, 34.9678332 ] } },
{ "type": "Feature", "properties": { "osm_id": "4478171889", "name": null, "barrier": null, "highway": null, "ref": null, "address": null, "is_in": null, "place": null, "man_made": null, "other_tags": "\"information\"=>\"board\",\"name:en\"=>\"Drop baggage10\",\"opening_hours\"=>\"Mo-Su 10:00-17:00\",\"tourism\"=>\"information\"" }, "geometry": { "type": "Point", "coordinates": [ 135.770999100000012, 34.9674344 ] } },
{ "type": "Feature", "properties": { "osm_id": "4623697389", "name": "vermillon", "barrier": null, "highway": null, "ref": null, "address": null, "is_in": null, "place": null, "man_made": null, "other_tags": "\"amenity\"=>\"cafe\",\"check_date\"=>\"2023-10-05\",\"diet:vegetarian\"=>\"yes\",\"indoor_seating\"=>\"yes\",\"name:en\"=>\"Vermillion Cafe\",\"name:ja\"=>\"Vermillion Cafe\",\"outdoor_seating\"=>\"yes\",\"website\"=>\"https://www.vermillioncafe.com/\"" }, "geometry": { "type": "Point", "coordinates": [ 135.774116600000013, 34.9684427 ] } },
{ "type": "Feature", "properties": { "osm_id": "4742101443", "name": "千本鳥居", "barrier": null, "highway": null, "ref": null, "address": null, "is_in": null, "place": null, "man_made": null, "other_tags": "\"name:en\"=>\"10,000 Torii gates\",\"name:ja\"=>\"千本鳥居\",\"name:zh\"=>\"千本鸟居\",\"tourism\"=>\"attraction\"" }, "geometry": { "type": "Point", "coordinates": [ 135.774829899999986, 34.9669136 ] } },
{ "type": "Feature", "properties": { "osm_id": "5185152421", "name": null, "barrier": null, "highway": null, "ref": null, "address": null, "is_in": null, "place": null, "man_made": null, "other_tags": "\"access\"=>\"yes\",\"amenity\"=>\"toilets\",\"changing_table\"=>\"no\",\"description\"=>\"Downstairs and on the left.\nLeave a coin there.\",\"toilets:handwashing\"=>\"yes\",\"unisex\"=>\"yes\",\"wheelchair\"=>\"no\"" }, "geometry": { "type": "Point", "coordinates": [ 135.787219599999986, 34.9641584 ] } },
{ "type": "Feature", "properties": { "osm_id": "5421768321", "name": null, "barrier": null, "highway": null, "ref": null, "address": null, "is_in": null, "place": null, "man_made": null, "other_tags": "\"amenity\"=>\"cafe\",\"name:en\"=>\"Pico - hand drip coffee\"" }, "geometry": { "type": "Point", "coordinates": [ 135.7705245, 34.967944 ] } },
{ "type": "Feature", "properties": { "osm_id": "5629986431", "name": null, "barrier": null, "highway": null, "ref": null, "address": null, "is_in": null, "place": null, "man_made": "torii", "other_tags": "\"material\"=>\"stone\",\"religion\"=>\"shinto\"" }, "geometry": { "type": "Point", "coordinates": [ 135.781436899999989, 34.9692541 ] } },
{ "type": "Feature", "properties": { "osm_id": "5743446152", "name": "七面山", "barrier": null, "highway": null, "ref": null, "address": null, "is_in": null, "place": null, "man_made": null, "other_tags": "\"natural\"=>\"peak\"" }, "geometry": { "type": "Point", "coordinates": [ 135.7777824, 34.96424 ] } },
{ "type": "Feature", "properties": { "osm_id": "5912935245", "name": null, "barrier": null, "highway": null, "ref": null, "address": null, "is_in": null, "place": null, "man_made": null, "other_tags": "\"access\"=>\"yes\",\"amenity\"=>\"toilets\",\"check_date\"=>\"2023-10-05\",\"fee\"=>\"no\",\"wheelchair\"=>\"yes\"" }, "geometry": { "type": "Point", "coordinates": [ 135.772230799999988, 34.9672698 ] } },
{ "type": "Feature", "properties": { "osm_id": "5913169380", "name": "清明瀧", "barrier": null, "highway": null, "ref": null, "address": null, "is_in": null, "place": null, "man_made": null, "other_tags": "\"waterway\"=>\"waterfall\"" }, "geometry": { "type": "Point", "coordinates": [ 135.7851335, 34.9696717 ] } },
{ "type": "Feature", "properties": { "osm_id": "5913169593", "name": "おせき社", "barrier": null, "highway": null, "ref": null, "address": null, "is_in": null, "place": null, "man_made": null, "other_tags": "\"historic\"=>\"wayside_shrine\",\"religion\"=>\"shinto\"" }, "geometry": { "type": "Point", "coordinates": [ 135.785383599999989, 34.9687798 ] } },
{ "type": "Feature", "properties": { "osm_id": "6200424992", "name": null, "barrier": null, "highway": null, "ref": null, "address": null, "is_in": null, "place": null, "man_made": null, "other_tags": "\"shop\"=>\"gift\"" }, "geometry": { "type": "Point", "coordinates": [ 135.7854831, 34.9668974 ] } },
{ "type": "Feature", "properties": { "osm_id": "6200432886", "name": null, "barrier": null, "highway": null, "ref": null, "address": null, "is_in": null, "place": null, "man_made": null, "other_tags": "\"shop\"=>\"gift\"" }, "geometry": { "type": "Point", "coordinates": [ 135.7789998, 34.9699829 ] } },
{ "type": "Feature", "properties": { "osm_id": "6200432887", "name": null, "barrier": null, "highway": null, "ref": null, "address": null, "is_in": null, "place": null, "man_made": null, "other_tags": "\"amenity\"=>\"bench\"" }, "geometry": { "type": "Point", "coordinates": [ 135.7740849, 34.9677165 ] } },
{ "type": "Feature", "properties": { "osm_id": "6397775923", "name": "弘法々瀧", "barrier": null, "highway": null, "ref": null, "address": null, "is_in": null, "place": null, "man_made": null, "other_tags": "\"addr:housenumber\"=>\"27\",\"addr:postcode\"=>\"612-0811\",\"addr:province\"=>\"京都府\",\"addr:quarter\"=>\"深草笹山町\",\"addr:suburb\"=>\"伏見区\",\"amenity\"=>\"place_of_worship\",\"name:en\"=>\"Kuhouboutaki\",\"religion\"=>\"buddhist\"" }, "geometry": { "type": "Point", "coordinates": [ 135.78051210000001, 34.9655242 ] } },
{ "type": "Feature", "properties": { "osm_id": "6406040488", "name": null, "barrier": null, "highway": null, "ref": null, "address": null, "is_in": null, "place": null, "man_made": null, "other_tags": "\"amenity\"=>\"clock\"" }, "geometry": { "type": "Point", "coordinates": [ 135.781427, 34.9690951 ] } },
{ "type": "Feature", "properties": { "osm_id": "6498969985", "name": "Amazake", "barrier": null, "highway": null, "ref": null, "address": null, "is_in": null, "place": null, "man_made": null, "other_tags": "\"amenity\"=>\"cafe\",\"cuisine\"=>\"japanese\",\"internet_access\"=>\"wlan\"" }, "geometry": { "type": "Point", "coordinates": [ 135.774591500000014, 34.9689012 ] } },
{ "type": "Feature", "properties": { "osm_id": "6554241285", "name": "アレルギ", "barrier": null, "highway": null, "ref": null, "address": null, "is_in": null, "place": null, "man_made": null, "other_tags": "\"amenity\"=>\"cafe\",\"cuisine\"=>\"tea;breakfast;coffee_shop;ice_cream\",\"internet_access\"=>\"wlan\",\"name:en\"=>\"Komeda's coffee (cafe)\"" }, "geometry": { "type": "Point", "coordinates": [ 135.7709965, 34.9676846 ] } },
{ "type": "Feature", "properties": { "osm_id": "6632602186", "name": null, "barrier": null, "highway": null, "ref": null, "address": null, "is_in": null, "place": null, "man_made": null, "other_tags": "\"historic\"=>\"monument\"" }, "geometry": { "type": "Point", "coordinates": [ 135.770924900000011, 34.9665396 ] } },
{ "type": "Feature", "properties": { "osm_id": "6632602187", "name": "腹帯地蔵尊", "barrier": null, "highway": null, "ref": null, "address": null, "is_in": null, "place": null, "man_made": null, "other_tags": "\"amenity\"=>\"place_of_worship\",\"religion\"=>\"buddhist\"" }, "geometry": { "type": "Point", "coordinates": [ 135.771175, 34.9659119 ] } },
{ "type": "Feature", "properties": { "osm_id": "6632602188", "name": "摂取院", "barrier": null, "highway": null, "ref": null, "address": null, "is_in": null, "place": null, "man_made": null, "other_tags": "\"amenity\"=>\"place_of_worship\",\"religion\"=>\"buddhist\"" }, "geometry": { "type": "Point", "coordinates": [ 135.7713043, 34.9658191 ] } },
{ "type": "Feature", "properties": { "osm_id": "6632608185", "name": "玉家", "barrier": null, "highway": null, "ref": null, "address": null, "is_in": null, "place": null, "man_made": null, "other_tags": "\"amenity\"=>\"restaurant\"" }, "geometry": { "type": "Point", "coordinates": [ 135.771076099999988, 34.9667578 ] } },
{ "type": "Feature", "properties": { "osm_id": "6632608187", "name": "旧東海道本線", "barrier": null, "highway": null, "ref": null, "address": null, "is_in": null, "place": null, "man_made": null, "other_tags": "\"information\"=>\"board\",\"tourism\"=>\"information\"" }, "geometry": { "type": "Point", "coordinates": [ 135.7708996, 34.9666283 ] } },
{ "type": "Feature", "properties": { "osm_id": "6632608188", "name": "加美屋", "barrier": null, "highway": null, "ref": null, "address": null, "is_in": null, "place": null, "man_made": null, "other_tags": "\"shop\"=>\"gift\"" }, "geometry": { "type": "Point", "coordinates": [ 135.7710741, 34.9664822 ] } },
{ "type": "Feature", "properties": { "osm_id": "6632610085", "name": "エスティ", "barrier": null, "highway": null, "ref": null, "address": null, "is_in": null, "place": null, "man_made": null, "other_tags": "\"shop\"=>\"dry_cleaning\"" }, "geometry": { "type": "Point", "coordinates": [ 135.7711827, 34.9660414 ] } },
{ "type": "Feature", "properties": { "osm_id": "6633045988", "name": "オリーブ", "barrier": null, "highway": null, "ref": null, "address": null, "is_in": null, "place": null, "man_made": null, "other_tags": "\"shop\"=>\"beauty\"" }, "geometry": { "type": "Point", "coordinates": [ 135.7702218, 34.9665992 ] } },
{ "type": "Feature", "properties": { "osm_id": "6633078638", "name": "稲荷茶寮", "barrier": null, "highway": null, "ref": null, "address": null, "is_in": null, "place": null, "man_made": null, "other_tags": "\"amenity\"=>\"cafe\"" }, "geometry": { "type": "Point", "coordinates": [ 135.77411140000001, 34.96771 ] } },
{ "type": "Feature", "properties": { "osm_id": "6633078643", "name": "大橋家庭園", "barrier": null, "highway": null, "ref": null, "address": null, "is_in": null, "place": null, "man_made": null, "other_tags": "\"historic\"=>\"monument\"" }, "geometry": { "type": "Point", "coordinates": [ 135.7734972, 34.9684207 ] } },
{ "type": "Feature", "properties": { "osm_id": "6633078806", "name": "産場大神", "barrier": null, "highway": null, "ref": null, "address": null, "is_in": null, "place": null, "man_made": null, "other_tags": "\"amenity\"=>\"place_of_worship\",\"religion\"=>\"shinto\"" }, "geometry": { "type": "Point", "coordinates": [ 135.7737957, 34.968522 ] } },
{ "type": "Feature", "properties": { "osm_id": "6743475595", "name": "深草稲荷中之町", "barrier": null, "highway": null, "ref": null, "address": null, "is_in": null, "place": "neighbourhood", "man_made": null, "other_tags": "\"name:en\"=>\"Fukakusa-Inarinakanocho\",\"name:ja\"=>\"深草稲荷中之町\",\"name:ja-Hira\"=>\"ふかくさいなりなかのちょう\"" }, "geometry": { "type": "Point", "coordinates": [ 135.7711136, 34.9683617 ] } },
{ "type": "Feature", "properties": { "osm_id": "6760846086", "name": null, "barrier": null, "highway": null, "ref": null, "address": null, "is_in": null, "place": null, "man_made": null, "other_tags": "\"emergency\"=>\"fire_hydrant\"" }, "geometry": { "type": "Point", "coordinates": [ 135.7701165, 34.96797 ] } },
{ "type": "Feature", "properties": { "osm_id": "6760846087", "name": null, "barrier": null, "highway": null, "ref": null, "address": null, "is_in": null, "place": null, "man_made": null, "other_tags": "\"emergency\"=>\"fire_hydrant\"" }, "geometry": { "type": "Point", "coordinates": [ 135.7709504, 34.9679437 ] } },
{ "type": "Feature", "properties": { "osm_id": "6760847685", "name": null, "barrier": null, "highway": null, "ref": null, "address": null, "is_in": null, "place": null, "man_made": null, "other_tags": "\"emergency\"=>\"fire_hydrant\"" }, "geometry": { "type": "Point", "coordinates": [ 135.770522, 34.9679149 ] } },
{ "type": "Feature", "properties": { "osm_id": "6760848485", "name": null, "barrier": null, "highway": null, "ref": null, "address": null, "is_in": null, "place": null, "man_made": null, "other_tags": "\"emergency\"=>\"fire_hydrant\"" }, "geometry": { "type": "Point", "coordinates": [ 135.7710183, 34.9679231 ] } },
{ "type": "Feature", "properties": { "osm_id": "6760871785", "name": null, "barrier": null, "highway": null, "ref": null, "address": null, "is_in": null, "place": null, "man_made": null, "other_tags": "\"emergency\"=>\"fire_hydrant\"" }, "geometry": { "type": "Point", "coordinates": [ 135.780071600000014, 34.9711869 ] } },
{ "type": "Feature", "properties": { "osm_id": "6760872085", "name": null, "barrier": null, "highway": null, "ref": null, "address": null, "is_in": null, "place": null, "man_made": null, "other_tags": "\"emergency\"=>\"fire_hydrant\",\"fire_hydrant:type\"=>\"pillar\"" }, "geometry": { "type": "Point", "coordinates": [ 135.7796763, 34.9715083 ] } },
{ "type": "Feature", "properties": { "osm_id": "6760872385", "name": null, "barrier": null, "highway": null, "ref": null, "address": null, "is_in": null, "place": null, "man_made": null, "other_tags": "\"emergency\"=>\"fire_hydrant\"" }, "geometry": { "type": "Point", "coordinates": [ 135.779576, 34.9716588 ] } },
{ "type": "Feature", "properties": { "osm_id": "6761121027", "name": "京都一周トレイル東山3-2", "barrier": null, "highway": null, "ref": null, "address": null, "is_in": null, "place": null, "man_made": null, "other_tags": "\"hiking\"=>\"yes\",\"information\"=>\"guidepost\",\"name:en\"=>\"KYOTO TRAIL HIGASHIYAMA 3-2\",\"tourism\"=>\"information\"" }, "geometry": { "type": "Point", "coordinates": [ 135.7814482, 34.9692052 ] } },
{ "type": "Feature", "properties": { "osm_id": "6761121028", "name": "京都一周トレイル東山3-1", "barrier": null, "highway": null, "ref": null, "address": null, "is_in": null, "place": null, "man_made": null, "other_tags": "\"hiking\"=>\"yes\",\"information\"=>\"guidepost\",\"name:en\"=>\"KYOTO TRAIL HIGASHIYAMA 3-1\",\"tourism\"=>\"information\"" }, "geometry": { "type": "Point", "coordinates": [ 135.781427400000013, 34.9691024 ] } },
{ "type": "Feature", "properties": { "osm_id": "6761151484", "name": "京都一周トレイル東山2-2・F35", "barrier": null, "highway": null, "ref": "東山2-2・F35", "address": null, "is_in": null, "place": null, "man_made": null, "other_tags": "\"hiking\"=>\"yes\",\"information\"=>\"guidepost\",\"name:en\"=>\"Kyoto round-trip trail Higashiyama 2-2 F35\",\"name:fr\"=>\"Parcours aller-retour de Kyoto Higashiyama 2-2 F35\",\"name:ja_rm\"=>\"Kyōto isshū toreiru Higashiyama 2-2 F35\",\"tourism\"=>\"information\"" }, "geometry": { "type": "Point", "coordinates": [ 135.775454, 34.9668655 ] } },
{ "type": "Feature", "properties": { "osm_id": "6761170085", "name": "京都一周トレイル東山2-1", "barrier": null, "highway": null, "ref": null, "address": null, "is_in": null, "place": null, "man_made": null, "other_tags": "\"hiking\"=>\"yes\",\"information\"=>\"guidepost\",\"name:en\"=>\"Kyoto round-trip trail Higashiyama 2-1\",\"name:fr\"=>\"Parcours aller-retour de Kyoto Higashiyama 2-1\",\"name:ja_rm\"=>\"Kyōto isshū toreiru Higashiyama 2-1\",\"tourism\"=>\"information\"" }, "geometry": { "type": "Point", "coordinates": [ 135.775508, 34.9665869 ] } },
{ "type": "Feature", "properties": { "osm_id": "6761215495", "name": "京都一周トレイル東山3-3", "barrier": null, "highway": null, "ref": null, "address": null, "is_in": null, "place": null, "man_made": null, "other_tags": "\"information\"=>\"guidepost\",\"name:en\"=>\"KYOTO TRAIL HIGASHIYAMA 3-3\",\"tourism\"=>\"information\"" }, "geometry": { "type": "Point", "coordinates": [ 135.780833699999988, 34.9701866 ] } },
{ "type": "Feature", "properties": { "osm_id": "6822764367", "name": "Vending machine", "barrier": null, "highway": null, "ref": null, "address": null, "is_in": null, "place": null, "man_made": null, "other_tags": "\"amenity\"=>\"vending_machine\"" }, "geometry": { "type": "Point", "coordinates": [ 135.7763053, 34.9698372 ] } },
{ "type": "Feature", "properties": { "osm_id": "6865347485", "name": "伏見稲荷大社", "barrier": null, "highway": null, "ref": null, "address": null, "is_in": null, "place": null, "man_made": null, "other_tags": "\"name:de\"=>\"Torii Gabelung „1000 Torii“\",\"name:en\"=>\"Fushimi Inari Taisha\",\"name:it\"=>\"Santuario di Fushimi Inari-taisha\",\"tourism\"=>\"viewpoint\"" }, "geometry": { "type": "Point", "coordinates": [ 135.7747604, 34.966983 ] } },
{ "type": "Feature", "properties": { "osm_id": "7048038185", "name": null, "barrier": null, "highway": "rest_area", "ref": null, "address": null, "is_in": null, "place": null, "man_made": null, "other_tags": null }, "geometry": { "type": "Point", "coordinates": [ 135.78228, 34.9679811 ] } },
{ "type": "Feature", "properties": { "osm_id": "7112680115", "name": null, "barrier": null, "highway": null, "ref": null, "address": null, "is_in": null, "place": null, "man_made": null, "other_tags": "\"natural\"=>\"spring\"" }, "geometry": { "type": "Point", "coordinates": [ 135.7869993, 34.9642538 ] } },
{ "type": "Feature", "properties": { "osm_id": "7112680116", "name": null, "barrier": null, "highway": null, "ref": null, "address": null, "is_in": null, "place": null, "man_made": null, "other_tags": "\"craft\"=>\"carpenter\"" }, "geometry": { "type": "Point", "coordinates": [ 135.787240700000012, 34.9642823 ] } },
{ "type": "Feature", "properties": { "osm_id": "7242679440", "name": null, "barrier": null, "highway": null, "ref": null, "address": null, "is_in": null, "place": null, "man_made": null, "other_tags": "\"historic\"=>\"memorial\",\"material\"=>\"stone\",\"memorial\"=>\"stele\"" }, "geometry": { "type": "Point", "coordinates": [ 135.7710099, 34.9679055 ] } },
{ "type": "Feature", "properties": { "osm_id": "7385678110", "name": "京都市電稲荷停留所跡", "barrier": null, "highway": null, "ref": null, "address": null, "is_in": null, "place": null, "man_made": null, "other_tags": "\"board_type\"=>\"history\",\"information\"=>\"board\",\"memorial\"=>\"yes\",\"start_date\"=>\"2020-04-09\",\"tourism\"=>\"information\"" }, "geometry": { "type": "Point", "coordinates": [ 135.770153599999986, 34.9678546 ] } },
{ "type": "Feature", "properties": { "osm_id": "7440977382", "name": "深草石峰寺山町", "barrier": null, "highway": null, "ref": null, "address": null, "is_in": null, "place": "neighbourhood", "man_made": null, "other_tags": "\"name:en\"=>\"Fukakusa-Sekihojiyamacho\",\"name:ja\"=>\"深草石峰寺山町\",\"name:ja-Hira\"=>\"ふかくさせきほうじやまちょう\"" }, "geometry": { "type": "Point", "coordinates": [ 135.776665799999989, 34.9648536 ] } },
{ "type": "Feature", "properties": { "osm_id": "7440977383", "name": "深草藪之内町", "barrier": null, "highway": null, "ref": null, "address": null, "is_in": null, "place": "neighbourhood", "man_made": null, "other_tags": "\"name:en\"=>\"Fukakusa-Yabunochicho\",\"name:ja\"=>\"深草藪之内町\",\"name:ja-Hira\"=>\"ふかくさやぶのうちちょう\"" }, "geometry": { "type": "Point", "coordinates": [ 135.772503, 34.9665153 ] } },
{ "type": "Feature", "properties": { "osm_id": "7440977384", "name": "深草稲荷御前町", "barrier": null, "highway": null, "ref": null, "address": null, "is_in": null, "place": "neighbourhood", "man_made": null, "other_tags": "\"name:en\"=>\"Fukakusa-Inarionmaecho\",\"name:ja\"=>\"深草稲荷御前町\",\"name:ja-Hira\"=>\"ふかくさいなりおんまえちょう\"" }, "geometry": { "type": "Point", "coordinates": [ 135.771049299999987, 34.9669308 ] } },
{ "type": "Feature", "properties": { "osm_id": "8818048753", "name": null, "barrier": null, "highway": null, "ref": null, "address": null, "is_in": null, "place": null, "man_made": null, "other_tags": "\"access\"=>\"customers\",\"entrance\"=>\"yes\"" }, "geometry": { "type": "Point", "coordinates": [ 135.7708786, 34.9668044 ] } },
{ "type": "Feature", "properties": { "osm_id": "9236774813", "name": "深草坊山町", "barrier": null, "highway": null, "ref": null, "address": null, "is_in": null, "place": "neighbourhood", "man_made": null, "other_tags": "\"name:en\"=>\"Fukakusa-Boyamacho\",\"name:ja\"=>\"深草坊山町\",\"name:ja-Hira\"=>\"ふかくさぼうやまちょう\"" }, "geometry": { "type": "Point", "coordinates": [ 135.781884, 34.963574 ] } },
{ "type": "Feature", "properties": { "osm_id": "9236774835", "name": "深草僧坊山町", "barrier": null, "highway": null, "ref": null, "address": null, "is_in": null, "place": "neighbourhood", "man_made": null, "other_tags": "\"name:en\"=>\"Fukakusa-Soboyamacho\",\"name:ja\"=>\"深草僧坊山町\",\"name:ja-Hira\"=>\"ふかくさそうぼうやまちょう\"" }, "geometry": { "type": "Point", "coordinates": [ 135.782807, 34.962474 ] } },
{ "type": "Feature", "properties": { "osm_id": "9236774855", "name": "深草笹山町", "barrier": null, "highway": null, "ref": null, "address": null, "is_in": null, "place": "neighbourhood", "man_made": null, "other_tags": "\"name:en\"=>\"Fukakusa-Sasayamacho\",\"name:ja\"=>\"深草笹山町\",\"name:ja-Hira\"=>\"ふかくさささやまちょう\"" }, "geometry": { "type": "Point", "coordinates": [ 135.777637, 34.966679 ] } },
{ "type": "Feature", "properties": { "osm_id": "9236774858", "name": "深草極楽寺山町", "barrier": null, "highway": null, "ref": null, "address": null, "is_in": null, "place": "neighbourhood", "man_made": null, "other_tags": "\"name:en\"=>\"Fukakusa-Gokurakujiyamacho\",\"name:ja\"=>\"深草極楽寺山町\",\"name:ja-Hira\"=>\"ふかくさごくらくじやまちょう\"" }, "geometry": { "type": "Point", "coordinates": [ 135.789109, 34.964593 ] } },
{ "type": "Feature", "properties": { "osm_id": "9236774870", "name": "深草開土口町", "barrier": null, "highway": null, "ref": null, "address": null, "is_in": null, "place": "neighbourhood", "man_made": null, "other_tags": "\"name:en\"=>\"Fukakusa-Kaidoguchicho\",\"name:ja\"=>\"深草開土口町\",\"name:ja-Hira\"=>\"ふかくさかいどぐちちょう\"" }, "geometry": { "type": "Point", "coordinates": [ 135.775608, 34.969225 ] } },
{ "type": "Feature", "properties": { "osm_id": "9236775084", "name": "稲荷山官有地", "barrier": null, "highway": null, "ref": null, "address": null, "is_in": null, "place": "neighbourhood", "man_made": null, "other_tags": "\"name:en\"=>\"Inariyama-kanyuchi\",\"name:ja\"=>\"稲荷山官有地\",\"name:ja-Hira\"=>\"いなりやまかんゆうち\"" }, "geometry": { "type": "Point", "coordinates": [ 135.783712, 34.969171 ] } },
{ "type": "Feature", "properties": { "osm_id": "9313370122", "name": null, "barrier": null, "highway": null, "ref": null, "address": null, "is_in": null, "place": null, "man_made": null, "other_tags": "\"entrance\"=>\"yes\"" }, "geometry": { "type": "Point", "coordinates": [ 135.7808455, 34.9630561 ] } },
{ "type": "Feature", "properties": { "osm_id": "9313370123", "name": "観光トイレ", "barrier": null, "highway": null, "ref": null, "address": null, "is_in": null, "place": null, "man_made": null, "other_tags": "\"access\"=>\"yes\",\"amenity\"=>\"toilets\",\"toilets:disposal\"=>\"flush\",\"toilets:position\"=>\"seated\"" }, "geometry": { "type": "Point", "coordinates": [ 135.7808393, 34.9630671 ] } },
{ "type": "Feature", "properties": { "osm_id": "9313370130", "name": "京都一周トレイル", "barrier": null, "highway": null, "ref": null, "address": null, "is_in": null, "place": null, "man_made": null, "other_tags": "\"information\"=>\"guidepost\",\"tourism\"=>\"information\"" }, "geometry": { "type": "Point", "coordinates": [ 135.780641800000012, 34.9630852 ] } },
{ "type": "Feature", "properties": { "osm_id": "9313370131", "name": "観光トイレ", "barrier": null, "highway": null, "ref": null, "address": null, "is_in": null, "place": null, "man_made": null, "other_tags": "\"information\"=>\"guidepost\",\"name:en\"=>\"Toilet\",\"tourism\"=>\"information\"" }, "geometry": { "type": "Point", "coordinates": [ 135.780706900000013, 34.9630558 ] } },
{ "type": "Feature", "properties": { "osm_id": "9315721296", "name": "青木ヶ瀧道", "barrier": null, "highway": null, "ref": null, "address": null, "is_in": null, "place": null, "man_made": null, "other_tags": "\"information\"=>\"guidepost\",\"tourism\"=>\"information\"" }, "geometry": { "type": "Point", "coordinates": [ 135.7850645, 34.9636897 ] } },
{ "type": "Feature", "properties": { "osm_id": "9315721298", "name": null, "barrier": null, "highway": null, "ref": null, "address": null, "is_in": null, "place": null, "man_made": null, "other_tags": "\"genus\"=>\"Cerasus\",\"leaf_cycle\"=>\"deciduous\",\"leaf_type\"=>\"broadleaved\",\"natural\"=>\"tree\",\"species\"=>\"Cerasus jamasakura\",\"species:ja\"=>\"ヤマザクラ\",\"taxon\"=>\"Cerasus jamasakura\"" }, "geometry": { "type": "Point", "coordinates": [ 135.7852666, 34.9637447 ] } },
{ "type": "Feature", "properties": { "osm_id": "9315721299", "name": "ヤマザクラ", "barrier": null, "highway": null, "ref": null, "address": null, "is_in": null, "place": null, "man_made": null, "other_tags": "\"board_type\"=>\"nature\",\"information\"=>\"board\",\"tourism\"=>\"information\"" }, "geometry": { "type": "Point", "coordinates": [ 135.7851761, 34.9636705 ] } },
{ "type": "Feature", "properties": { "osm_id": "9315721300", "name": null, "barrier": "bollard", "highway": null, "ref": null, "address": null, "is_in": null, "place": null, "man_made": null, "other_tags": "\"bollard\"=>\"removable\"" }, "geometry": { "type": "Point", "coordinates": [ 135.7850814, 34.9631223 ] } },
{ "type": "Feature", "properties": { "osm_id": "9315721301", "name": "京都一周トレイル 東山 F33", "barrier": null, "highway": null, "ref": "東山 F33", "address": null, "is_in": null, "place": null, "man_made": null, "other_tags": "\"hiking\"=>\"yes\",\"information\"=>\"guidepost\",\"name:en\"=>\"KYOTO TRAIL HIGASHIYAMA F33\",\"tourism\"=>\"information\"" }, "geometry": { "type": "Point", "coordinates": [ 135.783368, 34.9634413 ] } },
{ "type": "Feature", "properties": { "osm_id": "9315721302", "name": "深草トレイル 3", "barrier": null, "highway": null, "ref": "3", "address": null, "is_in": null, "place": null, "man_made": null, "other_tags": "\"hiking\"=>\"yes\",\"information\"=>\"guidepost\",\"tourism\"=>\"information\"" }, "geometry": { "type": "Point", "coordinates": [ 135.78337, 34.9634515 ] } },
{ "type": "Feature", "properties": { "osm_id": "9315721303", "name": null, "barrier": null, "highway": null, "ref": null, "address": null, "is_in": null, "place": null, "man_made": null, "other_tags": "\"historic\"=>\"memorial\",\"memorial\"=>\"stele\"" }, "geometry": { "type": "Point", "coordinates": [ 135.781355600000012, 34.9635441 ] } },
{ "type": "Feature", "properties": { "osm_id": "9315721304", "name": "深草トレイル 4", "barrier": null, "highway": null, "ref": "4", "address": null, "is_in": null, "place": null, "man_made": null, "other_tags": "\"hiking\"=>\"yes\",\"information\"=>\"guidepost\",\"tourism\"=>\"information\"" }, "geometry": { "type": "Point", "coordinates": [ 135.7812926, 34.9635378 ] } },
{ "type": "Feature", "properties": { "osm_id": "9315721305", "name": "京都一周トレイル 東山 F32", "barrier": null, "highway": null, "ref": "東山 F32", "address": null, "is_in": null, "place": null, "man_made": null, "other_tags": "\"hiking\"=>\"yes\",\"information\"=>\"guidepost\",\"name:en\"=>\"KYOTO TRAIL HIGASHIYAMA F32\",\"tourism\"=>\"information\"" }, "geometry": { "type": "Point", "coordinates": [ 135.781294, 34.9635304 ] } },
{ "type": "Feature", "properties": { "osm_id": "9315721306", "name": "深草トレイル 2", "barrier": null, "highway": null, "ref": "2", "address": null, "is_in": null, "place": null, "man_made": null, "other_tags": "\"hiking\"=>\"yes\",\"information\"=>\"guidepost\",\"tourism\"=>\"information\"" }, "geometry": { "type": "Point", "coordinates": [ 135.7860763, 34.9638804 ] } },
{ "type": "Feature", "properties": { "osm_id": "9315721307", "name": "京都一周トレイル 東山 F34", "barrier": null, "highway": null, "ref": "東山 F34", "address": null, "is_in": null, "place": null, "man_made": null, "other_tags": "\"hiking\"=>\"yes\",\"information\"=>\"guidepost\",\"name:en\"=>\"KYOTO TRAIL HIGASHIYAMA F34\",\"tourism\"=>\"information\"" }, "geometry": { "type": "Point", "coordinates": [ 135.7860837, 34.9638705 ] } },
{ "type": "Feature", "properties": { "osm_id": "9315721308", "name": null, "barrier": null, "highway": null, "ref": null, "address": null, "is_in": null, "place": null, "man_made": null, "other_tags": "\"amenity\"=>\"waste_basket\"" }, "geometry": { "type": "Point", "coordinates": [ 135.7864753, 34.9640601 ] } },
{ "type": "Feature", "properties": { "osm_id": "9315721309", "name": null, "barrier": null, "highway": null, "ref": null, "address": null, "is_in": null, "place": null, "man_made": null, "other_tags": "\"amenity\"=>\"vending_machine\",\"vending\"=>\"drinks\"" }, "geometry": { "type": "Point", "coordinates": [ 135.7864619, 34.964053 ] } },
{ "type": "Feature", "properties": { "osm_id": "9315755981", "name": "深草トレイル 1", "barrier": null, "highway": null, "ref": "1", "address": null, "is_in": null, "place": null, "man_made": null, "other_tags": "\"information\"=>\"guidepost\",\"tourism\"=>\"information\"" }, "geometry": { "type": "Point", "coordinates": [ 135.7754543, 34.9668695 ] } },
{ "type": "Feature", "properties": { "osm_id": "9325834699", "name": null, "barrier": null, "highway": "street_lamp", "ref": null, "address": null, "is_in": null, "place": null, "man_made": null, "other_tags": null }, "geometry": { "type": "Point", "coordinates": [ 135.770177499999988, 34.9677572 ] } },
{ "type": "Feature", "properties": { "osm_id": "9325834700", "name": null, "barrier": null, "highway": "street_lamp", "ref": null, "address": null, "is_in": null, "place": null, "man_made": null, "other_tags": null }, "geometry": { "type": "Point", "coordinates": [ 135.7709084, 34.9667582 ] } },
{ "type": "Feature", "properties": { "osm_id": "9325834701", "name": null, "barrier": null, "highway": "street_lamp", "ref": null, "address": null, "is_in": null, "place": null, "man_made": null, "other_tags": null }, "geometry": { "type": "Point", "coordinates": [ 135.7709044, 34.9670041 ] } },
{ "type": "Feature", "properties": { "osm_id": "9528998184", "name": null, "barrier": null, "highway": null, "ref": null, "address": null, "is_in": null, "place": null, "man_made": null, "other_tags": "\"historic\"=>\"wayside_shrine\",\"religion\"=>\"buddhist\"" }, "geometry": { "type": "Point", "coordinates": [ 135.7711324, 34.9659408 ] } },
{ "type": "Feature", "properties": { "osm_id": "9528998186", "name": "セブン-イレブン", "barrier": null, "highway": null, "ref": null, "address": null, "is_in": null, "place": null, "man_made": null, "other_tags": "\"brand\"=>\"7-ELEVEN\",\"brand:en\"=>\"7-ELEVEN\",\"brand:ja\"=>\"セブン-イレブン\",\"brand:wikidata\"=>\"Q259340\",\"name:en\"=>\"7-Eleven\",\"name:ja\"=>\"セブン-イレブン\",\"official_name:en\"=>\"Seven-Eleven\",\"shop\"=>\"convenience\"" }, "geometry": { "type": "Point", "coordinates": [ 135.7709058, 34.9657164 ] } },
{ "type": "Feature", "properties": { "osm_id": "9661162315", "name": "伏見稲荷大社付近名所案内図", "barrier": null, "highway": null, "ref": null, "address": null, "is_in": null, "place": null, "man_made": null, "other_tags": "\"information\"=>\"map\",\"name:en\"=>\"Sightseeing Guide Map of Fushimi-Inari Area\",\"tourism\"=>\"information\"" }, "geometry": { "type": "Point", "coordinates": [ 135.770350400000012, 34.967848 ] } },
{ "type": "Feature", "properties": { "osm_id": "9661280974", "name": null, "barrier": null, "highway": null, "ref": null, "address": null, "is_in": null, "place": null, "man_made": "lamp", "other_tags": "\"material\"=>\"stone\"" }, "geometry": { "type": "Point", "coordinates": [ 135.772172399999988, 34.9676369 ] } },
{ "type": "Feature", "properties": { "osm_id": "9661280975", "name": null, "barrier": null, "highway": null, "ref": null, "address": null, "is_in": null, "place": null, "man_made": "lamp", "other_tags": "\"material\"=>\"stone\"" }, "geometry": { "type": "Point", "coordinates": [ 135.7722033, 34.9676583 ] } },
{ "type": "Feature", "properties": { "osm_id": "9661280976", "name": null, "barrier": null, "highway": null, "ref": null, "address": null, "is_in": null, "place": null, "man_made": null, "other_tags": "\"leaf_cycle\"=>\"evergreen\",\"leaf_type\"=>\"broadleaved\",\"natural\"=>\"tree\"" }, "geometry": { "type": "Point", "coordinates": [ 135.7721081, 34.9677699 ] } },
{ "type": "Feature", "properties": { "osm_id": "9661280977", "name": null, "barrier": null, "highway": null, "ref": null, "address": null, "is_in": null, "place": null, "man_made": null, "other_tags": "\"genus\"=>\"Cerasus\",\"leaf_cycle\"=>\"deciduous\",\"leaf_type\"=>\"broadleaved\",\"natural\"=>\"tree\",\"species:en\"=>\"Cherry blossom\",\"species:ja\"=>\"サクラ\"" }, "geometry": { "type": "Point", "coordinates": [ 135.77208060000001, 34.967771 ] } },
{ "type": "Feature", "properties": { "osm_id": "9661280978", "name": "神幸道祓川", "barrier": null, "highway": null, "ref": null, "address": null, "is_in": null, "place": null, "man_made": null, "other_tags": "\"historic\"=>\"memorial\",\"memorial\"=>\"stele\"" }, "geometry": { "type": "Point", "coordinates": [ 135.7721315, 34.9677517 ] } },
{ "type": "Feature", "properties": { "osm_id": "9661280979", "name": "官幣大社 稲荷神社", "barrier": null, "highway": null, "ref": null, "address": null, "is_in": null, "place": null, "man_made": null, "other_tags": "\"historic\"=>\"memorial\",\"memorial\"=>\"stele\"" }, "geometry": { "type": "Point", "coordinates": [ 135.7720913, 34.9677644 ] } },
{ "type": "Feature", "properties": { "osm_id": "9661280982", "name": null, "barrier": null, "highway": "traffic_mirror", "ref": null, "address": null, "is_in": null, "place": null, "man_made": null, "other_tags": null }, "geometry": { "type": "Point", "coordinates": [ 135.7709762, 34.9678913 ] } },
{ "type": "Feature", "properties": { "osm_id": "9661280983", "name": null, "barrier": null, "highway": null, "ref": null, "address": null, "is_in": null, "place": null, "man_made": null, "other_tags": "\"genus\"=>\"Pinus\",\"leaf_cycle\"=>\"evergreen\",\"leaf_type\"=>\"needleleaved\",\"natural\"=>\"tree\",\"species:en\"=>\"Pine\",\"species:ja\"=>\"マツ\"" }, "geometry": { "type": "Point", "coordinates": [ 135.770994300000012, 34.9679017 ] } },
{ "type": "Feature", "properties": { "osm_id": "9661280984", "name": null, "barrier": null, "highway": null, "ref": null, "address": null, "is_in": null, "place": null, "man_made": "lamp", "other_tags": "\"material\"=>\"stone\"" }, "geometry": { "type": "Point", "coordinates": [ 135.771066, 34.9679386 ] } },
{ "type": "Feature", "properties": { "osm_id": "9661280985", "name": "常夜燈", "barrier": null, "highway": null, "ref": null, "address": null, "is_in": null, "place": null, "man_made": "lamp", "other_tags": "\"material\"=>\"stone\",\"start_date\"=>\"1752-09\"" }, "geometry": { "type": "Point", "coordinates": [ 135.771064, 34.9678962 ] } },
{ "type": "Feature", "properties": { "osm_id": "9661912775", "name": null, "barrier": null, "highway": null, "ref": null, "address": null, "is_in": null, "place": null, "man_made": "torii", "other_tags": "\"material\"=>\"wood\",\"religion\"=>\"shinto\"" }, "geometry": { "type": "Point", "coordinates": [ 135.773957700000011, 34.9672377 ] } },
{ "type": "Feature", "properties": { "osm_id": "9661912780", "name": null, "barrier": null, "highway": null, "ref": null, "address": null, "is_in": null, "place": null, "man_made": "torii", "other_tags": "\"material\"=>\"wood\",\"religion\"=>\"shinto\"" }, "geometry": { "type": "Point", "coordinates": [ 135.7737376, 34.9673621 ] } },
{ "type": "Feature", "properties": { "osm_id": "9661912781", "name": null, "barrier": "cycle_barrier", "highway": null, "ref": null, "address": null, "is_in": null, "place": null, "man_made": null, "other_tags": null }, "geometry": { "type": "Point", "coordinates": [ 135.7733488, 34.9674705 ] } },
{ "type": "Feature", "properties": { "osm_id": "9661912782", "name": null, "barrier": null, "highway": null, "ref": null, "address": null, "is_in": null, "place": null, "man_made": null, "other_tags": "\"artwork_type\"=>\"statue\",\"note:en\"=>\"Guardian fox\",\"operator\"=>\"買先中\",\"religion\"=>\"shinto\",\"tourism\"=>\"artwork\"" }, "geometry": { "type": "Point", "coordinates": [ 135.773482699999988, 34.9674093 ] } },
{ "type": "Feature", "properties": { "osm_id": "9661912783", "name": null, "barrier": null, "highway": null, "ref": null, "address": null, "is_in": null, "place": null, "man_made": null, "other_tags": "\"artwork_type\"=>\"statue\",\"note:en\"=>\"Guardian fox\",\"operator\"=>\"職方中\",\"religion\"=>\"shinto\",\"tourism\"=>\"artwork\"" }, "geometry": { "type": "Point", "coordinates": [ 135.773483199999987, 34.9674644 ] } },
{ "type": "Feature", "properties": { "osm_id": "9664306026", "name": null, "barrier": null, "highway": null, "ref": null, "address": null, "is_in": null, "place": null, "man_made": null, "other_tags": "\"amenity\"=>\"bench\",\"backrest\"=>\"no\",\"material\"=>\"stone\",\"seats\"=>\"3\"" }, "geometry": { "type": "Point", "coordinates": [ 135.7753793, 34.9668217 ] } },
{ "type": "Feature", "properties": { "osm_id": "9664306027", "name": null, "barrier": null, "highway": null, "ref": null, "address": null, "is_in": null, "place": null, "man_made": null, "other_tags": "\"historic\"=>\"wayside_shrine\"" }, "geometry": { "type": "Point", "coordinates": [ 135.7753314, 34.9668417 ] } },
{ "type": "Feature", "properties": { "osm_id": "9664306028", "name": null, "barrier": null, "highway": null, "ref": null, "address": null, "is_in": null, "place": null, "man_made": "torii", "other_tags": "\"material\"=>\"wood\",\"religion\"=>\"shinto\"" }, "geometry": { "type": "Point", "coordinates": [ 135.77539010000001, 34.9669096 ] } },
{ "type": "Feature", "properties": { "osm_id": "9664306029", "name": null, "barrier": null, "highway": null, "ref": null, "address": null, "is_in": null, "place": null, "man_made": "lamp", "other_tags": "\"material\"=>\"wood\"" }, "geometry": { "type": "Point", "coordinates": [ 135.775373699999989, 34.9669319 ] } },
{ "type": "Feature", "properties": { "osm_id": "9664306030", "name": null, "barrier": null, "highway": null, "ref": null, "address": null, "is_in": null, "place": null, "man_made": "lamp", "other_tags": "\"material\"=>\"wood\"" }, "geometry": { "type": "Point", "coordinates": [ 135.775374699999986, 34.9668896 ] } },
{ "type": "Feature", "properties": { "osm_id": "9664306031", "name": "根上がりの松", "barrier": null, "highway": null, "ref": null, "address": null, "is_in": null, "place": null, "man_made": null, "other_tags": "\"information\"=>\"board\",\"tourism\"=>\"information\"" }, "geometry": { "type": "Point", "coordinates": [ 135.775382400000012, 34.9668934 ] } },
{ "type": "Feature", "properties": { "osm_id": "9664306032", "name": "根上がりの松", "barrier": null, "highway": null, "ref": null, "address": null, "is_in": null, "place": null, "man_made": null, "other_tags": "\"genus\"=>\"Pinus\",\"leaf_cycle\"=>\"evergreen\",\"leaf_type\"=>\"needleleaved\",\"natural\"=>\"tree\",\"religion\"=>\"shinto\",\"species:en\"=>\"Pine\",\"species:ja\"=>\"マツ\"" }, "geometry": { "type": "Point", "coordinates": [ 135.7753411, 34.9669115 ] } },
{ "type": "Feature", "properties": { "osm_id": "9664306034", "name": null, "barrier": null, "highway": null, "ref": null, "address": null, "is_in": null, "place": null, "man_made": "torii", "other_tags": "\"material\"=>\"wood\",\"religion\"=>\"shinto\"" }, "geometry": { "type": "Point", "coordinates": [ 135.7757056, 34.9665541 ] } },
{ "type": "Feature", "properties": { "osm_id": "9664306039", "name": null, "barrier": null, "highway": null, "ref": null, "address": null, "is_in": null, "place": null, "man_made": "lamp", "other_tags": "\"material\"=>\"wood\"" }, "geometry": { "type": "Point", "coordinates": [ 135.775667700000014, 34.9664708 ] } },
{ "type": "Feature", "properties": { "osm_id": "9664306040", "name": null, "barrier": null, "highway": null, "ref": null, "address": null, "is_in": null, "place": null, "man_made": null, "other_tags": "\"natural\"=>\"tree\"" }, "geometry": { "type": "Point", "coordinates": [ 135.7757057, 34.9663917 ] } },
{ "type": "Feature", "properties": { "osm_id": "9664306041", "name": null, "barrier": null, "highway": null, "ref": null, "address": null, "is_in": null, "place": null, "man_made": null, "other_tags": "\"natural\"=>\"tree\"" }, "geometry": { "type": "Point", "coordinates": [ 135.7757063, 34.9664135 ] } },
{ "type": "Feature", "properties": { "osm_id": "9664306042", "name": "碑文", "barrier": null, "highway": null, "ref": null, "address": null, "is_in": null, "place": null, "man_made": null, "other_tags": "\"information\"=>\"board\",\"operator\"=>\"土井哲夫（柾三氏後裔）\",\"start_date\"=>\"2007-07\",\"tourism\"=>\"information\"" }, "geometry": { "type": "Point", "coordinates": [ 135.7756971, 34.9664093 ] } },
{ "type": "Feature", "properties": { "osm_id": "9664306043", "name": "後醍醐天皇御製", "barrier": null, "highway": null, "ref": null, "address": null, "is_in": null, "place": null, "man_made": null, "other_tags": "\"artist_name\"=>\"土井柾三\",\"historic\"=>\"memorial\",\"inscription\"=>\"ぬば玉のくらきやみ路にまよふなり　われにかさなむ三つのともし火\",\"material\"=>\"stone\",\"memorial\"=>\"stone\",\"start_date\"=>\"1892-12\"" }, "geometry": { "type": "Point", "coordinates": [ 135.7757078, 34.9664047 ] } },
{ "type": "Feature", "properties": { "osm_id": "9664306044", "name": null, "barrier": null, "highway": "street_lamp", "ref": null, "address": null, "is_in": null, "place": null, "man_made": null, "other_tags": null }, "geometry": { "type": "Point", "coordinates": [ 135.7756772, 34.9665924 ] } },
{ "type": "Feature", "properties": { "osm_id": "9664306045", "name": "おもかる石", "barrier": null, "highway": null, "ref": null, "address": null, "is_in": null, "place": null, "man_made": null, "other_tags": "\"historic\"=>\"stone\",\"name:ja_rm\"=>\"Omo karu ishi\",\"tourism\"=>\"attraction\"" }, "geometry": { "type": "Point", "coordinates": [ 135.775698, 34.9664964 ] } },
{ "type": "Feature", "properties": { "osm_id": "9664306050", "name": "おもかる石", "barrier": null, "highway": null, "ref": null, "address": null, "is_in": null, "place": null, "man_made": null, "other_tags": "\"information\"=>\"board\",\"tourism\"=>\"information\"" }, "geometry": { "type": "Point", "coordinates": [ 135.7756896, 34.966518 ] } },
{ "type": "Feature", "properties": { "osm_id": "9664306051", "name": null, "barrier": null, "highway": "street_lamp", "ref": null, "address": null, "is_in": null, "place": null, "man_made": null, "other_tags": null }, "geometry": { "type": "Point", "coordinates": [ 135.775694499999986, 34.9665254 ] } },
{ "type": "Feature", "properties": { "osm_id": "9664306052", "name": null, "barrier": null, "highway": null, "ref": "奥之院へ1丁", "address": null, "is_in": null, "place": null, "man_made": null, "other_tags": "\"information\"=>\"guidepost\",\"tourism\"=>\"information\"" }, "geometry": { "type": "Point", "coordinates": [ 135.7747751, 34.9669815 ] } },
{ "type": "Feature", "properties": { "osm_id": "9664702724", "name": "帰路", "barrier": null, "highway": null, "ref": null, "address": null, "is_in": null, "place": null, "man_made": null, "other_tags": "\"information\"=>\"board\",\"tourism\"=>\"information\"" }, "geometry": { "type": "Point", "coordinates": [ 135.775571500000012, 34.9678888 ] } },
{ "type": "Feature", "properties": { "osm_id": "9664702725", "name": null, "barrier": null, "highway": null, "ref": null, "address": null, "is_in": null, "place": null, "man_made": "lamp", "other_tags": "\"material\"=>\"wood\"" }, "geometry": { "type": "Point", "coordinates": [ 135.775392399999987, 34.9668755 ] } },
{ "type": "Feature", "properties": { "osm_id": "9664702726", "name": null, "barrier": null, "highway": null, "ref": null, "address": null, "is_in": null, "place": null, "man_made": null, "other_tags": "\"information\"=>\"map\",\"tourism\"=>\"information\"" }, "geometry": { "type": "Point", "coordinates": [ 135.7756124, 34.9679039 ] } },
{ "type": "Feature", "properties": { "osm_id": "9664702727", "name": null, "barrier": null, "highway": null, "ref": null, "address": null, "is_in": null, "place": null, "man_made": null, "other_tags": "\"information\"=>\"guidepost\",\"tourism\"=>\"information\"" }, "geometry": { "type": "Point", "coordinates": [ 135.775627500000013, 34.9679071 ] } },
{ "type": "Feature", "properties": { "osm_id": "9664702729", "name": null, "barrier": null, "highway": null, "ref": null, "address": null, "is_in": null, "place": null, "man_made": "lamp", "other_tags": "\"material\"=>\"wood\"" }, "geometry": { "type": "Point", "coordinates": [ 135.7753904, 34.9668357 ] } },
{ "type": "Feature", "properties": { "osm_id": "9664702740", "name": null, "barrier": null, "highway": null, "ref": null, "address": null, "is_in": null, "place": null, "man_made": null, "other_tags": "\"historic\"=>\"memorial\",\"memorial\"=>\"stone\"" }, "geometry": { "type": "Point", "coordinates": [ 135.7753985, 34.9668239 ] } },
{ "type": "Feature", "properties": { "osm_id": "9664702747", "name": null, "barrier": null, "highway": null, "ref": null, "address": null, "is_in": null, "place": null, "man_made": null, "other_tags": "\"amenity\"=>\"bench\",\"backrest\"=>\"no\",\"material\"=>\"stone\",\"seats\"=>\"2\"" }, "geometry": { "type": "Point", "coordinates": [ 135.775406800000013, 34.9669104 ] } },
{ "type": "Feature", "properties": { "osm_id": "9664702748", "name": null, "barrier": null, "highway": null, "ref": null, "address": null, "is_in": null, "place": null, "man_made": null, "other_tags": "\"emergency\"=>\"fire_hose\"" }, "geometry": { "type": "Point", "coordinates": [ 135.775564800000012, 34.9673369 ] } },
{ "type": "Feature", "properties": { "osm_id": "9667109061", "name": null, "barrier": null, "highway": null, "ref": null, "address": null, "is_in": null, "place": null, "man_made": null, "other_tags": "\"emergency\"=>\"fire_extinguisher\"" }, "geometry": { "type": "Point", "coordinates": [ 135.7786433, 34.9683985 ] } },
{ "type": "Feature", "properties": { "osm_id": "9667109062", "name": null, "barrier": null, "highway": null, "ref": null, "address": null, "is_in": null, "place": null, "man_made": null, "other_tags": "\"emergency\"=>\"fire_extinguisher\"" }, "geometry": { "type": "Point", "coordinates": [ 135.778784800000011, 34.9701621 ] } },
{ "type": "Feature", "properties": { "osm_id": "9667109063", "name": null, "barrier": null, "highway": null, "ref": null, "address": null, "is_in": null, "place": null, "man_made": null, "other_tags": "\"information\"=>\"guidepost\",\"tourism\"=>\"information\"" }, "geometry": { "type": "Point", "coordinates": [ 135.778788100000014, 34.9701596 ] } },
{ "type": "Feature", "properties": { "osm_id": "9667109064", "name": "三ツ辻周辺案内図", "barrier": null, "highway": null, "ref": null, "address": null, "is_in": null, "place": null, "man_made": null, "other_tags": "\"information\"=>\"map\",\"map_type\"=>\"scheme\",\"tourism\"=>\"information\"" }, "geometry": { "type": "Point", "coordinates": [ 135.778772, 34.9701654 ] } },
{ "type": "Feature", "properties": { "osm_id": "9667109065", "name": null, "barrier": null, "highway": null, "ref": null, "address": null, "is_in": null, "place": null, "man_made": null, "other_tags": "\"amenity\"=>\"bench\",\"backrest\"=>\"yes\",\"colour\"=>\"blue\",\"material\"=>\"metal\",\"seats\"=>\"3\"" }, "geometry": { "type": "Point", "coordinates": [ 135.778669799999989, 34.9684172 ] } },
{ "type": "Feature", "properties": { "osm_id": "9667109066", "name": null, "barrier": null, "highway": null, "ref": null, "address": null, "is_in": null, "place": null, "man_made": null, "other_tags": "\"amenity\"=>\"bench\",\"backrest\"=>\"no\",\"material\"=>\"wood\",\"seats\"=>\"3\"" }, "geometry": { "type": "Point", "coordinates": [ 135.778654, 34.9683944 ] } },
{ "type": "Feature", "properties": { "osm_id": "9667109067", "name": null, "barrier": null, "highway": null, "ref": null, "address": null, "is_in": null, "place": null, "man_made": null, "other_tags": "\"amenity\"=>\"bench\",\"backrest\"=>\"no\",\"material\"=>\"wood\",\"seats\"=>\"3\"" }, "geometry": { "type": "Point", "coordinates": [ 135.7786667, 34.9683971 ] } },
{ "type": "Feature", "properties": { "osm_id": "9667109068", "name": null, "barrier": null, "highway": "street_lamp", "ref": null, "address": null, "is_in": null, "place": null, "man_made": null, "other_tags": null }, "geometry": { "type": "Point", "coordinates": [ 135.7785568, 34.9682996 ] } },
{ "type": "Feature", "properties": { "osm_id": "9667109069", "name": null, "barrier": null, "highway": null, "ref": null, "address": null, "is_in": null, "place": null, "man_made": null, "other_tags": "\"amenity\"=>\"bench\",\"backrest\"=>\"no\",\"material\"=>\"stone\",\"seats\"=>\"3\"" }, "geometry": { "type": "Point", "coordinates": [ 135.778542, 34.9682867 ] } },
{ "type": "Feature", "properties": { "osm_id": "9667109070", "name": null, "barrier": null, "highway": null, "ref": null, "address": null, "is_in": null, "place": null, "man_made": null, "other_tags": "\"information\"=>\"guidepost\",\"tourism\"=>\"information\"" }, "geometry": { "type": "Point", "coordinates": [ 135.778538, 34.9682779 ] } },
{ "type": "Feature", "properties": { "osm_id": "9673171287", "name": "お山右廻り道", "barrier": null, "highway": null, "ref": null, "address": null, "is_in": null, "place": null, "man_made": null, "other_tags": "\"information\"=>\"guidepost\",\"tourism\"=>\"information\"" }, "geometry": { "type": "Point", "coordinates": [ 135.7814784, 34.9690524 ] } },
{ "type": "Feature", "properties": { "osm_id": "9673171292", "name": null, "barrier": null, "highway": null, "ref": null, "address": null, "is_in": null, "place": null, "man_made": "water_tap", "other_tags": "\"drinking_water\"=>\"no\"" }, "geometry": { "type": "Point", "coordinates": [ 135.7815022, 34.9690993 ] } },
{ "type": "Feature", "properties": { "osm_id": "9673171293", "name": "御膳谷へ三丁", "barrier": null, "highway": null, "ref": null, "address": null, "is_in": null, "place": null, "man_made": null, "other_tags": "\"information\"=>\"guidepost\",\"tourism\"=>\"information\"" }, "geometry": { "type": "Point", "coordinates": [ 135.7814864, 34.9691145 ] } },
{ "type": "Feature", "properties": { "osm_id": "9673171294", "name": "天龍参道", "barrier": null, "highway": null, "ref": null, "address": null, "is_in": null, "place": null, "man_made": null, "other_tags": "\"information\"=>\"guidepost\",\"tourism\"=>\"information\"" }, "geometry": { "type": "Point", "coordinates": [ 135.7815434, 34.9690958 ] } },
{ "type": "Feature", "properties": { "osm_id": "9673171295", "name": "四ツ辻周辺案内図", "barrier": null, "highway": null, "ref": null, "address": null, "is_in": null, "place": null, "man_made": null, "other_tags": "\"information\"=>\"map\",\"map_type\"=>\"scheme\",\"tourism\"=>\"information\"" }, "geometry": { "type": "Point", "coordinates": [ 135.781537, 34.9691005 ] } },
{ "type": "Feature", "properties": { "osm_id": "9673171296", "name": "伏見稲荷大社境内案内図", "barrier": null, "highway": null, "ref": null, "address": null, "is_in": null, "place": null, "man_made": null, "other_tags": "\"information\"=>\"map\",\"tourism\"=>\"information\"" }, "geometry": { "type": "Point", "coordinates": [ 135.7812121, 34.9690497 ] } },
{ "type": "Feature", "properties": { "osm_id": "9673171297", "name": null, "barrier": null, "highway": null, "ref": null, "address": null, "is_in": null, "place": null, "man_made": null, "other_tags": "\"direction\"=>\"SW\",\"tourism\"=>\"viewpoint\"" }, "geometry": { "type": "Point", "coordinates": [ 135.781202900000011, 34.9690749 ] } },
{ "type": "Feature", "properties": { "osm_id": "9673171303", "name": null, "barrier": null, "highway": null, "ref": null, "address": null, "is_in": null, "place": null, "man_made": null, "other_tags": "\"direction\"=>\"SW\",\"tourism\"=>\"viewpoint\"" }, "geometry": { "type": "Point", "coordinates": [ 135.780671, 34.9695697 ] } },
{ "type": "Feature", "properties": { "osm_id": "9675093579", "name": null, "barrier": null, "highway": null, "ref": null, "address": null, "is_in": null, "place": null, "man_made": "torii", "other_tags": "\"material\"=>\"wood\",\"religion\"=>\"shinto\"" }, "geometry": { "type": "Point", "coordinates": [ 135.7802734, 34.970803 ] } },
{ "type": "Feature", "properties": { "osm_id": "9675093580", "name": null, "barrier": null, "highway": null, "ref": null, "address": null, "is_in": null, "place": null, "man_made": "torii", "other_tags": "\"material\"=>\"wood\",\"religion\"=>\"shinto\"" }, "geometry": { "type": "Point", "coordinates": [ 135.7801729, 34.9709529 ] } },
{ "type": "Feature", "properties": { "osm_id": "9675093581", "name": null, "barrier": null, "highway": null, "ref": null, "address": null, "is_in": null, "place": null, "man_made": "torii", "other_tags": "\"material\"=>\"wood\",\"religion\"=>\"shinto\"" }, "geometry": { "type": "Point", "coordinates": [ 135.780912300000011, 34.9700979 ] } },
{ "type": "Feature", "properties": { "osm_id": "9675093582", "name": null, "barrier": null, "highway": null, "ref": null, "address": null, "is_in": null, "place": null, "man_made": "torii", "other_tags": "\"material\"=>\"stone\",\"religion\"=>\"shinto\"" }, "geometry": { "type": "Point", "coordinates": [ 135.7809521, 34.9700049 ] } },
{ "type": "Feature", "properties": { "osm_id": "9675093583", "name": null, "barrier": null, "highway": "street_lamp", "ref": null, "address": null, "is_in": null, "place": null, "man_made": null, "other_tags": null }, "geometry": { "type": "Point", "coordinates": [ 135.7809406, 34.9699832 ] } },
{ "type": "Feature", "properties": { "osm_id": "9675093584", "name": null, "barrier": null, "highway": "street_lamp", "ref": null, "address": null, "is_in": null, "place": null, "man_made": null, "other_tags": null }, "geometry": { "type": "Point", "coordinates": [ 135.7809942, 34.9698711 ] } },
{ "type": "Feature", "properties": { "osm_id": "9675093585", "name": null, "barrier": null, "highway": null, "ref": null, "address": null, "is_in": null, "place": null, "man_made": "torii", "other_tags": "\"material\"=>\"wood\",\"religion\"=>\"shinto\"" }, "geometry": { "type": "Point", "coordinates": [ 135.78130440000001, 34.9695513 ] } },
{ "type": "Feature", "properties": { "osm_id": "9675093586", "name": null, "barrier": null, "highway": "street_lamp", "ref": null, "address": null, "is_in": null, "place": null, "man_made": null, "other_tags": null }, "geometry": { "type": "Point", "coordinates": [ 135.7813013, 34.9695337 ] } },
{ "type": "Feature", "properties": { "osm_id": "9675093587", "name": null, "barrier": null, "highway": "street_lamp", "ref": null, "address": null, "is_in": null, "place": null, "man_made": null, "other_tags": null }, "geometry": { "type": "Point", "coordinates": [ 135.7813516, 34.9694546 ] } },
{ "type": "Feature", "properties": { "osm_id": "9675093588", "name": "白瀧道", "barrier": null, "highway": null, "ref": null, "address": null, "is_in": null, "place": null, "man_made": null, "other_tags": "\"historic\"=>\"memorial\",\"memorial\"=>\"stele\"" }, "geometry": { "type": "Point", "coordinates": [ 135.7814703, 34.9692392 ] } },
{ "type": "Feature", "properties": { "osm_id": "9675933529", "name": null, "barrier": "bollard", "highway": null, "ref": null, "address": null, "is_in": null, "place": null, "man_made": null, "other_tags": null }, "geometry": { "type": "Point", "coordinates": [ 135.7801719, 34.9709546 ] } },
{ "type": "Feature", "properties": { "osm_id": "9675933540", "name": "横山大観筆塚", "barrier": null, "highway": null, "ref": null, "address": null, "is_in": null, "place": null, "man_made": null, "other_tags": "\"historic\"=>\"memorial\",\"memorial\"=>\"stone\"" }, "geometry": { "type": "Point", "coordinates": [ 135.780258, 34.9711739 ] } },
{ "type": "Feature", "properties": { "osm_id": "9675933541", "name": null, "barrier": null, "highway": null, "ref": null, "address": null, "is_in": null, "place": null, "man_made": null, "other_tags": "\"genus\"=>\"Cerasus\",\"leaf_cycle\"=>\"deciduous\",\"leaf_type\"=>\"broadleaved\",\"natural\"=>\"tree\",\"species:en\"=>\"Cherry blossom\",\"species:ja\"=>\"サクラ\"" }, "geometry": { "type": "Point", "coordinates": [ 135.780315, 34.9711679 ] } },
{ "type": "Feature", "properties": { "osm_id": "9675933542", "name": null, "barrier": null, "highway": null, "ref": null, "address": null, "is_in": null, "place": null, "man_made": null, "other_tags": "\"noexit\"=>\"yes\"" }, "geometry": { "type": "Point", "coordinates": [ 135.7804008, 34.9711487 ] } },
{ "type": "Feature", "properties": { "osm_id": "9675933548", "name": null, "barrier": null, "highway": null, "ref": null, "address": null, "is_in": null, "place": null, "man_made": null, "other_tags": "\"noexit\"=>\"yes\"" }, "geometry": { "type": "Point", "coordinates": [ 135.7803907, 34.9708294 ] } },
{ "type": "Feature", "properties": { "osm_id": "9675933549", "name": null, "barrier": null, "highway": null, "ref": null, "address": null, "is_in": null, "place": null, "man_made": null, "other_tags": "\"description\"=>\"石塚\",\"historic\"=>\"wayside_shrine\",\"religion\"=>\"shinto\"" }, "geometry": { "type": "Point", "coordinates": [ 135.7802935, 34.9709355 ] } },
{ "type": "Feature", "properties": { "osm_id": "9675933554", "name": null, "barrier": "bollard", "highway": null, "ref": null, "address": null, "is_in": null, "place": null, "man_made": null, "other_tags": null }, "geometry": { "type": "Point", "coordinates": [ 135.7801785, 34.9709695 ] } },
{ "type": "Feature", "properties": { "osm_id": "9687675123", "name": null, "barrier": null, "highway": null, "ref": null, "address": null, "is_in": null, "place": null, "man_made": null, "other_tags": "\"emergency\"=>\"fire_hydrant\",\"fire_hydrant:type\"=>\"pillar\"" }, "geometry": { "type": "Point", "coordinates": [ 135.7795049, 34.9718531 ] } },
{ "type": "Feature", "properties": { "osm_id": "9712835696", "name": null, "barrier": null, "highway": null, "ref": null, "address": null, "is_in": null, "place": null, "man_made": null, "other_tags": "\"crossing:barrier\"=>\"full\",\"railway\"=>\"crossing\"" }, "geometry": { "type": "Point", "coordinates": [ 135.7704421, 34.9678675 ] } },
{ "type": "Feature", "properties": { "osm_id": "9712835697", "name": null, "barrier": null, "highway": null, "ref": null, "address": null, "is_in": null, "place": null, "man_made": null, "other_tags": "\"crossing:barrier\"=>\"full\",\"railway\"=>\"crossing\"" }, "geometry": { "type": "Point", "coordinates": [ 135.770397800000012, 34.967869 ] } },
{ "type": "Feature", "properties": { "osm_id": "9712835698", "name": null, "barrier": null, "highway": "crossing", "ref": null, "address": null, "is_in": null, "place": null, "man_made": null, "other_tags": "\"crossing\"=>\"uncontrolled\"" }, "geometry": { "type": "Point", "coordinates": [ 135.7709461, 34.9678797 ] } },
{ "type": "Feature", "properties": { "osm_id": "10107552545", "name": null, "barrier": null, "highway": null, "ref": null, "address": null, "is_in": null, "place": null, "man_made": null, "other_tags": "\"amenity\"=>\"vending_machine\",\"check_date\"=>\"2022-10-17\",\"operator\"=>\"Kirin\",\"vending\"=>\"drinks\"" }, "geometry": { "type": "Point", "coordinates": [ 135.780391900000012, 34.9697792 ] } },
{ "type": "Feature", "properties": { "osm_id": "10107552546", "name": null, "barrier": null, "highway": null, "ref": null, "address": null, "is_in": null, "place": null, "man_made": null, "other_tags": "\"amenity\"=>\"vending_machine\",\"check_date\"=>\"2022-10-17\",\"operator\"=>\"Coca Cola\",\"vending\"=>\"drinks\"" }, "geometry": { "type": "Point", "coordinates": [ 135.7803849, 34.9697565 ] } },
{ "type": "Feature", "properties": { "osm_id": "10107577310", "name": null, "barrier": null, "highway": null, "ref": null, "address": null, "is_in": null, "place": null, "man_made": null, "other_tags": "\"description\"=>\"Right, 7min, 325m Chhojyasha-shinseki/(Mitsurugisha); Left, 4min, 154m Nakasha-shinseki(Ninomine)\",\"information\"=>\"map\",\"tourism\"=>\"information\"" }, "geometry": { "type": "Point", "coordinates": [ 135.7841123, 34.9671768 ] } },
{ "type": "Feature", "properties": { "osm_id": "10107635658", "name": null, "barrier": null, "highway": null, "ref": null, "address": null, "is_in": null, "place": null, "man_made": null, "other_tags": "\"amenity\"=>\"vending_machine\",\"check_date\"=>\"2022-10-17\",\"operator\"=>\"Boss\",\"vending\"=>\"drinks\"" }, "geometry": { "type": "Point", "coordinates": [ 135.77386150000001, 34.9684194 ] } },
{ "type": "Feature", "properties": { "osm_id": "10236493859", "name": "稲荷神社", "barrier": null, "highway": null, "ref": null, "address": null, "is_in": null, "place": null, "man_made": null, "other_tags": "\"historic\"=>\"memorial\",\"inscription\"=>\"官幣大社　稲荷神社\",\"material\"=>\"stone\",\"memorial\"=>\"stele\",\"start_date\"=>\"1875/08\"" }, "geometry": { "type": "Point", "coordinates": [ 135.771899499999989, 34.9671934 ] } },
{ "type": "Feature", "properties": { "osm_id": "10236494264", "name": null, "barrier": null, "highway": null, "ref": null, "address": null, "is_in": null, "place": null, "man_made": "lamp", "other_tags": "\"material\"=>\"stone\"" }, "geometry": { "type": "Point", "coordinates": [ 135.771825799999988, 34.9671758 ] } },
{ "type": "Feature", "properties": { "osm_id": "10236496678", "name": "熊野社", "barrier": null, "highway": null, "ref": null, "address": null, "is_in": null, "place": null, "man_made": null, "other_tags": "\"historic\"=>\"wayside_shrine\",\"religion\"=>\"shinto\"" }, "geometry": { "type": "Point", "coordinates": [ 135.77178, 34.9672911 ] } },
{ "type": "Feature", "properties": { "osm_id": "10236503541", "name": "藤尾社", "barrier": null, "highway": null, "ref": null, "address": null, "is_in": null, "place": null, "man_made": null, "other_tags": "\"historic\"=>\"wayside_shrine\",\"religion\"=>\"shinto\"" }, "geometry": { "type": "Point", "coordinates": [ 135.771824400000014, 34.9672898 ] } },
{ "type": "Feature", "properties": { "osm_id": "10236503542", "name": "霊魂社", "barrier": null, "highway": null, "ref": null, "address": null, "is_in": null, "place": null, "man_made": null, "other_tags": "\"historic\"=>\"wayside_shrine\",\"religion\"=>\"shinto\"" }, "geometry": { "type": "Point", "coordinates": [ 135.7718754, 34.967289 ] } },
{ "type": "Feature", "properties": { "osm_id": "10236505915", "name": null, "barrier": null, "highway": null, "ref": null, "address": null, "is_in": null, "place": null, "man_made": "lamp", "other_tags": "\"material\"=>\"stone\"" }, "geometry": { "type": "Point", "coordinates": [ 135.771899499999989, 34.967178 ] } },
{ "type": "Feature", "properties": { "osm_id": "10236510264", "name": null, "barrier": null, "highway": null, "ref": null, "address": null, "is_in": null, "place": null, "man_made": "lamp", "other_tags": "\"material\"=>\"stone\"" }, "geometry": { "type": "Point", "coordinates": [ 135.7718097, 34.967266 ] } },
{ "type": "Feature", "properties": { "osm_id": "10236510265", "name": null, "barrier": null, "highway": null, "ref": null, "address": null, "is_in": null, "place": null, "man_made": "lamp", "other_tags": "\"material\"=>\"stone\"" }, "geometry": { "type": "Point", "coordinates": [ 135.7718432, 34.9672654 ] } },
{ "type": "Feature", "properties": { "osm_id": "10237854177", "name": "鉄道省歌歌碑", "barrier": null, "highway": null, "ref": null, "address": null, "is_in": null, "place": null, "man_made": null, "other_tags": "\"historic\"=>\"memorial\",\"inscription\"=>\"鉄道省歌　赤き鳥居の神さびて　立つは伏見の稲荷山\",\"material\"=>\"stone\",\"memorial\"=>\"stone\",\"start_date\"=>\"1971\"" }, "geometry": { "type": "Point", "coordinates": [ 135.7709128, 34.9665931 ] } },
{ "type": "Feature", "properties": { "osm_id": "10237865789", "name": null, "barrier": null, "highway": null, "ref": null, "address": null, "is_in": null, "place": null, "man_made": "lamp", "other_tags": "\"material\"=>\"wood\"" }, "geometry": { "type": "Point", "coordinates": [ 135.7710841, 34.9670868 ] } },
{ "type": "Feature", "properties": { "osm_id": "10237865790", "name": null, "barrier": null, "highway": null, "ref": null, "address": null, "is_in": null, "place": null, "man_made": "lamp", "other_tags": "\"material\"=>\"wood\"" }, "geometry": { "type": "Point", "coordinates": [ 135.7710868, 34.9670011 ] } },
{ "type": "Feature", "properties": { "osm_id": "10237876230", "name": "伏見庵稲荷大社", "barrier": null, "highway": null, "ref": null, "address": null, "is_in": null, "place": null, "man_made": null, "other_tags": "\"historic\"=>\"memorial\",\"inscription\"=>\"伏見稲荷大社\",\"material\"=>\"stone\",\"memorial\"=>\"stone\"" }, "geometry": { "type": "Point", "coordinates": [ 135.77104460000001, 34.9669676 ] } },
{ "type": "Feature", "properties": { "osm_id": "10241756592", "name": null, "barrier": null, "highway": "street_lamp", "ref": null, "address": null, "is_in": null, "place": null, "man_made": null, "other_tags": "\"lamp_mount\"=>\"straight_mast\",\"lamp_type\"=>\"electric\"" }, "geometry": { "type": "Point", "coordinates": [ 135.7717629, 34.9672676 ] } },
{ "type": "Feature", "properties": { "osm_id": "10241756593", "name": null, "barrier": null, "highway": "street_lamp", "ref": null, "address": null, "is_in": null, "place": null, "man_made": null, "other_tags": "\"lamp_mount\"=>\"straight_mast\",\"lamp_type\"=>\"electric\"" }, "geometry": { "type": "Point", "coordinates": [ 135.771889499999986, 34.967269 ] } },
{ "type": "Feature", "properties": { "osm_id": "10564299665", "name": null, "barrier": null, "highway": null, "ref": null, "address": null, "is_in": null, "place": null, "man_made": null, "other_tags": "\"natural\"=>\"tree\"" }, "geometry": { "type": "Point", "coordinates": [ 135.772027400000013, 34.9671881 ] } },
{ "type": "Feature", "properties": { "osm_id": "10564299671", "name": null, "barrier": null, "highway": null, "ref": null, "address": null, "is_in": null, "place": null, "man_made": null, "other_tags": "\"natural\"=>\"tree\"" }, "geometry": { "type": "Point", "coordinates": [ 135.7723824, 34.9672245 ] } },
{ "type": "Feature", "properties": { "osm_id": "10564299672", "name": null, "barrier": null, "highway": null, "ref": null, "address": null, "is_in": null, "place": null, "man_made": null, "other_tags": "\"natural\"=>\"tree\"" }, "geometry": { "type": "Point", "coordinates": [ 135.7723511, 34.9672486 ] } },
{ "type": "Feature", "properties": { "osm_id": "10564299673", "name": null, "barrier": null, "highway": null, "ref": null, "address": null, "is_in": null, "place": null, "man_made": null, "other_tags": "\"natural\"=>\"tree\"" }, "geometry": { "type": "Point", "coordinates": [ 135.772302200000013, 34.9672452 ] } },
{ "type": "Feature", "properties": { "osm_id": "10564299677", "name": null, "barrier": null, "highway": null, "ref": null, "address": null, "is_in": null, "place": null, "man_made": null, "other_tags": "\"denotation\"=>\"urban\",\"genus\"=>\"Cinnamomum\",\"leaf_cycle\"=>\"evergreen\",\"leaf_type\"=>\"broadleaved\",\"natural\"=>\"tree\",\"species\"=>\"Cinnamomum camphora\",\"species:en\"=>\"Camphorwood\",\"species:ja\"=>\"クスノキ\",\"taxon\"=>\"Cinnamomum camphora\"" }, "geometry": { "type": "Point", "coordinates": [ 135.772165300000012, 34.9670284 ] } },