{
"type": "FeatureCollection",
"name": "map-points",
"crs": { "type": "name", "properties": { "name": "urn:ogc:def:crs:OGC:1.3:CRS84" } },
"features": [
{ "type": "Feature", "properties": { "osm_id": "749326853", "name": "三つ辻 (Mittsu tsuji)", "barrier": null, "highway": null, "ref": null, "address": null, "is_in": null, "place": null, "man_made": null, "other_tags": "\"name:en\"=>\"T-Way Junction\",\"name:ja\"=>\"三つ辻\",\"tourism\"=>\"attraction\"", "area": null, "centroid_x": 135.7787682, "centroid_y": 34.970147 }, "geometry": { "type": "Point", "coordinates": [ 135.7787682, 34.970147 ] } },
{ "type": "Feature", "properties": { "osm_id": "749327219", "name": "四ツ辻 (Yottsu tsuji)", "barrier": null, "highway": null, "ref": null, "address": null, "is_in": null, "place": null, "man_made": null, "other_tags": "\"name:en\"=>\"4-Way Junction\",\"name:ja\"=>\"四ツ辻\",\"tourism\"=>\"attraction\"", "area": null, "centroid_x": 135.7814186, "centroid_y": 34.9690927 }, "geometry": { "type": "Point", "coordinates": [ 135.7814186, 34.9690927 ] } },
{ "type": "Feature", "properties": { "osm_id": "749327432", "name": null, "barrier": null, "highway": null, "ref": null, "address": null, "is_in": null, "place": null, "man_made": null, "other_tags": "\"direction\"=>\"180-270\",\"tourism\"=>\"viewpoint\"", "area": null, "centroid_x": 135.7813624, "centroid_y": 34.9699684 }, "geometry": { "type": "Point", "coordinates": [ 135.7813624, 34.9699684 ] } },
{ "type": "Feature", "properties": { "osm_id": "1214631083", "name": null, "barrier": null, "highway": null, "ref": null, "address": null, "is_in": null, "place": null, "man_made": "torii", "other_tags": "\"access\"=>\"yes\",\"foot\"=>\"yes\",\"name:en\"=>\"The first Tori\",\"name:ru\"=>\"первые ворота тропы\",\"religion\"=>\"shinto\"", "area": null, "centroid_x": 135.7735001, "centroid_y": 34.9674428 }, "geometry": { "type": "Point", "coordinates": [ 135.7735001, 34.9674428 ] } },
{ "type": "Feature", "properties": { "osm_id": "2503700051", "name": "稲荷山", "barrier": null, "highway": null, "ref": null, "address": null, "is_in": null, "place": null, "man_made": null, "other_tags": "\"alt_name\"=>\"Inari Mountain\",\"name:en\"=>\"Inariyama Mountain\",\"name:ja\"=>\"稲荷山\",\"name:ja-Hira\"=>\"いなりやま\",\"name:ja-Latn\"=>\"Inari yama\",\"natural\"=>\"peak\",\"wikipedia\"=>\"ja:伏見稲荷大社#稲荷山\"", "area": null, "centroid_x": 135.7855255, "centroid_y": 34.9670127 }, "geometry": { "type": "Point", "coordinates": [ 135.7855255, 34.9670127 ] } },
{ "type": "Feature", "properties": { "osm_id": "2656062971", "name": null, "barrier": null, "highway": null, "ref": null, "address": null, "is_in": null, "place": null, "man_made": null, "other_tags": "\"amenity\"=>\"toilets\"", "area": null, "centroid_x": 135.7722164, "centroid_y": 34.9675105 }, "geometry": { "type": "Point", "coordinates": [ 135.7722164, 34.9675105 ] } },
{ "type": "Feature", "properties": { "osm_id": "2656063037", "name": "伏見稲荷大社 境内案内図", "barrier": null, "highway": null, "ref": null, "address": null, "is_in": null, "place": null, "man_made": null, "other_tags": "\"information\"=>\"map\",\"map_size\"=>\"site\",\"name:en\"=>\"Fushimi Inari Shrine\",\"name:fr\"=>\"Sanctuaire Fushimi Inari\",\"name:ja\"=>\"伏見稲荷大社 境内案内図\",\"name:ja_rm\"=>\"Fushimi-inari-taisha keidai annai zu\",\"tourism\"=>\"information\"", "area": null, "centroid_x": 135.7755175, "centroid_y": 34.966588 }, "geometry": { "type": "Point", "coordinates": [ 135.7755175, 34.966588 ] } },
{ "type": "Feature", "properties": { "osm_id": "2656063038", "name": "伏見稲荷大社 境内案内図", "barrier": null, "highway": null, "ref": null, "address": null, "is_in": null, "place": null, "man_made": null, "other_tags": "\"information\"=>\"map\",\"map_size\"=>\"site\",\"name:en\"=>\"Fushimi Inari Shrine\",\"name:fr\"=>\"Sanctuaire Fushimi Inari\",\"name:ja\"=>\"伏見稲荷大社 境内案内図\",\"name:ja_rm\"=>\"Fushimi-inari-taisha keidai an'nai-zu\",\"tourism\"=>\"information\",\"wikidata\"=>\"Q714828\",\"wikipedia\"=>\"en:Fushimi Inari-taisha\"", "area": null, "centroid_x": 135.7737731, "centroid_y": 34.9672545 }, "geometry": { "type": "Point", "coordinates": [ 135.7737731, 34.9672545 ] } },
{ "type": "Feature", "properties": { "osm_id": "2656063075", "name": "陶庵", "barrier": null, "highway": null, "ref": null, "address": null, "is_in": null, "place": null, "man_made": null, "other_tags": "\"shop\"=>\"gift\"", "area": null, "centroid_x": 135.7725877, "centroid_y": 34.9674634 }, "geometry": { "type": "Point", "coordinates": [ 135.7725877, 34.9674634 ] } },
{ "type": "Feature", "properties": { "osm_id": "2697500339", "name": "おもかる石", "barrier": null, "highway": null, "ref": null, "address": null, "is_in": null, "place": null, "man_made": null, "other_tags": "\"historic\"=>\"stone\",\"name:en\"=>\"Omokaru Stone\",\"name:ja_rm\"=>\"Omo karu ishi\",\"tourism\"=>\"attraction\"", "area": null, "centroid_x": 135.7756967, "centroid_y": 34.9665075 }, "geometry": { "type": "Point", "coordinates": [ 135.7756967, 34.9665075 ] } },
{ "type": "Feature", "properties": { "osm_id": "2697500363", "name": "伏見稲荷大社 境内案内図", "barrier": null, "highway": null, "ref": null, "address": null, "is_in": null, "place": null, "man_made": null, "other_tags": "\"check_date\"=>\"2023-10-05\",\"information\"=>\"map\",\"map_size\"=>\"site\",\"tourism\"=>\"information\"", "area": null, "centroid_x": 135.7724986, "centroid_y": 34.9673947 }, "geometry": { "type": "Point", "coordinates": [ 135.7724986, 34.9673947 ] } },
{ "type": "Feature", "properties": { "osm_id": "3004487858", "name": null, "barrier": null, "highway": null, "ref": null, "address": null, "is_in": null, "place": null, "man_made": null, "other_tags": "\"access\"=>\"yes\",\"amenity\"=>\"toilets\",\"changing_table\"=>\"yes\",\"check_date\"=>\"2024-02-29\",\"drinking_water\"=>\"yes\",\"fee\"=>\"no\",\"wheelchair\"=>\"yes\"", "area": null, "centroid_x": 135.7731212, "centroid_y": 34.9675047 }, "geometry": { "type": "Point", "coordinates": [ 135.7731212, 34.9675047 ] } },
{ "type": "Feature", "properties": { "osm_id": "3055919075", "name": null, "barrier": null, "highway": null, "ref": null, "address": null, "is_in": null, "place": null, "man_made": null, "other_tags": "\"noexit\"=>\"yes\"", "area": null, "centroid_x": 135.7757216, "centroid_y": 34.9663465 }, "geometry": { "type": "Point", "coordinates": [ 135.7757216, 34.9663465 ] } },
{ "type": "Feature", "properties": { "osm_id": "3055919121", "name": null, "barrier": null, "highway": null, "ref": null, "address": null, "is_in": null, "place": null, "man_made": null, "other_tags": "\"noexit\"=>\"yes\"", "area": null, "centroid_x": 135.7753956, "centroid_y": 34.9668571 }, "geometry": { "type": "Point", "coordinates": [ 135.7753956, 34.9668571 ] } },
{ "type": "Feature", "properties": { "osm_id": "3055922763", "name": null, "barrier": null, "highway": null, "ref": null, "address": null, "is_in": null, "place": null, "man_made": null, "other_tags": "\"artwork_type\"=>\"statue\",\"description\"=>\"Kitsune (fox) figures\",\"religion\"=>\"shinto\",\"tourism\"=>\"artwork\"", "area": null, "centroid_x": 135.7744452, "centroid_y": 34.9676323 }, "geometry": { "type": "Point", "coordinates": [ 135.7744452, 34.9676323 ] } },
{ "type": "Feature", "properties": { "osm_id": "3494101735", "name": null, "barrier": null, "highway": null, "ref": null, "address": null, "is_in": null, "place": null, "man_made": null, "other_tags": "\"historic\"=>\"wayside_shrine\",\"religion\"=>\"shinto\"", "area": null, "centroid_x": 135.7781051, "centroid_y": 34.968117 }, "geometry": { "type": "Point", "coordinates": [ 135.7781051, 34.968117 ] } },
{ "type": "Feature", "properties": { "osm_id": "3494101737", "name": "五社相殿", "barrier": null, "highway": null, "ref": null, "address": null, "is_in": null, "place": null, "man_made": null, "other_tags": "\"historic\"=>\"wayside_shrine\",\"religion\"=>\"shinto\"", "area": null, "centroid_x": 135.7736457, "centroid_y": 34.9675246 }, "geometry": { "type": "Point", "coordinates": [ 135.7736457, 34.9675246 ] } },
{ "type": "Feature", "properties": { "osm_id": "3494101752", "name": "薬力の滝", "barrier": null, "highway": null, "ref": null, "address": null, "is_in": null, "place": null, "man_made": null, "other_tags": "\"name:en\"=>\"Kusuri-ryoku no taki\",\"waterway\"=>\"waterfall\"", "area": null, "centroid_x": 135.7853242, "centroid_y": 34.9687089 }, "geometry": { "type": "Point", "coordinates": [ 135.7853242, 34.9687089 ] } },
{ "type": "Feature", "properties": { "osm_id": "3494101753", "name": "白玉大神 大岩大神 福繁大神", "barrier": null, "highway": null, "ref": null, "address": null, "is_in": null, "place": null, "man_made": null, "other_tags": "\"historic\"=>\"wayside_shrine\",\"name:ja_rm\"=>\"Shiratama Ōgami Ōiwa Ōgami fukushige ōgami\",\"religion\"=>\"shinto\"", "area": null, "centroid_x": 135.7781704, "centroid_y": 34.9681008 }, "geometry": { "type": "Point", "coordinates": [ 135.7781704, 34.9681008 ] } },
{ "type": "Feature", "properties": { "osm_id": "3494101765", "name": "末廣大明神", "barrier": null, "highway": null, "ref": null, "address": null, "is_in": null, "place": null, "man_made": null, "other_tags": "\"historic\"=>\"wayside_shrine\",\"religion\"=>\"shinto\"", "area": null, "centroid_x": 135.7846026, "centroid_y": 34.9694255 }, "geometry": { "type": "Point", "coordinates": [ 135.7846026, 34.9694255 ] } },
{ "type": "Feature", "properties": { "osm_id": "3494101781", "name": "金光大神", "barrier": null, "highway": null, "ref": null, "address": null, "is_in": null, "place": null, "man_made": null, "other_tags": "\"historic\"=>\"wayside_shrine\",\"name:en\"=>\"Great Goddess of Mercy\",\"name:fr\"=>\"Grande Déesse de la Miséricorde\",\"name:ja_rm\"=>\"Kanemitsu ōgami\",\"religion\"=>\"shinto\"", "area": null, "centroid_x": 135.7786331, "centroid_y": 34.9683681 }, "geometry": { "type": "Point", "coordinates": [ 135.7786331, 34.9683681 ] } },
{ "type": "Feature", "properties": { "osm_id": "3494101787", "name": null, "barrier": null, "highway": null, "ref": null, "address": null, "is_in": null, "place": null, "man_made": null, "other_tags": "\"tourism\"=>\"viewpoint\"", "area": null, "centroid_x": 135.7809265, "centroid_y": 34.9694633 }, "geometry": { "type": "Point", "coordinates": [ 135.7809265, 34.9694633 ] } },
{ "type": "Feature", "properties": { "osm_id": "3494101997", "name": "春繁大神", "barrier": null, "highway": null, "ref": null, "address": null, "is_in": null, "place": null, "man_made": null, "other_tags": "\"historic\"=>\"wayside_shrine\",\"religion\"=>\"shinto\"", "area": null, "centroid_x": 135.7863905, "centroid_y": 34.9675785 }, "geometry": { "type": "Point", "coordinates": [ 135.78639050000001, 34.9675785 ] } },
{ "type": "Feature", "properties": { "osm_id": "3494101999", "name": null, "barrier": null, "highway": null, "ref": null, "address": null, "is_in": null, "place": null, "man_made": null, "other_tags": "\"historic\"=>\"wayside_shrine\",\"religion\"=>\"shinto\"", "area": null, "centroid_x": 135.7789734, "centroid_y": 34.9700697 }, "geometry": { "type": "Point", "coordinates": [ 135.778973400000012, 34.9700697 ] } },
{ "type": "Feature", "properties": { "osm_id": "3494102004", "name": null, "barrier": null, "highway": null, "ref": null, "address": null, "is_in": null, "place": null, "man_made": null, "other_tags": "\"historic\"=>\"wayside_shrine\",\"religion\"=>\"shinto\"", "area": null, "centroid_x": 135.7808267, "centroid_y": 34.9695418 }, "geometry": { "type": "Point", "coordinates": [ 135.7808267, 34.9695418 ] } },
{ "type": "Feature", "properties": { "osm_id": "3494102012", "name": null, "barrier": null, "highway": null, "ref": null, "address": null, "is_in": null, "place": null, "man_made": null, "other_tags": "\"historic\"=>\"wayside_shrine\"", "area": null, "centroid_x": 135.775401, "centroid_y": 34.9667649 }, "geometry": { "type": "Point", "coordinates": [ 135.775401, 34.9667649 ] } },
{ "type": "Feature", "properties": { "osm_id": "3494102013", "name": "石井社", "barrier": null, "highway": null, "ref": null, "address": null, "is_in": null, "place": null, "man_made": null, "other_tags": "\"historic\"=>\"wayside_shrine\",\"religion\"=>\"shinto\"", "area": null, "centroid_x": 135.7852538, "centroid_y": 34.9687948 }, "geometry": { "type": "Point", "coordinates": [ 135.7852538, 34.9687948 ] } },
{ "type": "Feature", "properties": { "osm_id": "3494102016", "name": "榎木大神", "barrier": null, "highway": null, "ref": null, "address": null, "is_in": null, "place": null, "man_made": null, "other_tags": "\"historic\"=>\"wayside_shrine\",\"religion\"=>\"shinto\"", "area": null, "centroid_x": 135.7792132, "centroid_y": 34.9700053 }, "geometry": { "type": "Point", "coordinates": [ 135.779213199999987, 34.9700053 ] } },
{ "type": "Feature", "properties": { "osm_id": "3494102024", "name": null, "barrier": null, "highway": null, "ref": null, "address": null, "is_in": null, "place": null, "man_made": null, "other_tags": "\"direction\"=>\"W\",\"tourism\"=>\"viewpoint\"", "area": null, "centroid_x": 135.7813832, "centroid_y": 34.9691106 }, "geometry": { "type": "Point", "coordinates": [ 135.7813832, 34.9691106 ] } },
{ "type": "Feature", "properties": { "osm_id": "3494102034", "name": "薬力社", "barrier": null, "highway": null, "ref": null, "address": null, "is_in": null, "place": null, "man_made": null, "other_tags": "\"historic\"=>\"wayside_shrine\",\"religion\"=>\"shinto\"", "area": null, "centroid_x": 135.7852255, "centroid_y": 34.9688239 }, "geometry": { "type": "Point", "coordinates": [ 135.7852255, 34.9688239 ] } },
{ "type": "Feature", "properties": { "osm_id": "3494102036", "name": null, "barrier": null, "highway": null, "ref": null, "address": null, "is_in": null, "place": null, "man_made": null, "other_tags": "\"historic\"=>\"wayside_shrine\",\"religion\"=>\"shinto\"", "area": null, "centroid_x": 135.7793385, "centroid_y": 34.9699645 }, "geometry": { "type": "Point", "coordinates": [ 135.7793385, 34.9699645 ] } },
{ "type": "Feature", "properties": { "osm_id": "3494122149", "name": "延命地蔵大菩薩", "barrier": null, "highway": null, "ref": null, "address": null, "is_in": null, "place": null, "man_made": null, "other_tags": "\"historic\"=>\"wayside_shrine\",\"religion\"=>\"buddhist\"", "area": null, "centroid_x": 135.7809353, "centroid_y": 34.9702646 }, "geometry": { "type": "Point", "coordinates": [ 135.78093530000001, 34.9702646 ] } },
{ "type": "Feature", "properties": { "osm_id": "4124716289", "name": null, "barrier": null, "highway": null, "ref": null, "address": null, "is_in": null, "place": null, "man_made": null, "other_tags": "\"amenity\"=>\"vending_machine\",\"vending\"=>\"drinks\"", "area": null, "centroid_x": 135.7786068, "centroid_y": 34.9684145 }, "geometry": { "type": "Point", "coordinates": [ 135.7786068, 34.9684145 ] } },
{ "type": "Feature", "properties": { "osm_id": "4124716290", "name": null, "barrier": null, "highway": null, "ref": null, "address": null, "is_in": null, "place": null, "man_made": null, "other_tags": "\"amenity\"=>\"vending_machine\",\"check_date\"=>\"2025-03-30\",\"operator\"=>\"Kirin\",\"vending\"=>\"drinks\"", "area": null, "centroid_x": 135.7804238, "centroid_y": 34.9697638 }, "geometry": { "type": "Point", "coordinates": [ 135.7804238, 34.9697638 ] } },
{ "type": "Feature", "properties": { "osm_id": "4124716291", "name": null, "barrier": null, "highway": null, "ref": null, "address": null, "is_in": null, "place": null, "man_made": null, "other_tags": "\"amenity\"=>\"vending_machine\",\"check_date\"=>\"2023-09-25\",\"vending\"=>\"drinks\"", "area": null, "centroid_x": 135.7829046, "centroid_y": 34.9671995 }, "geometry": { "type": "Point", "coordinates": [ 135.7829046, 34.9671995 ] } },
{ "type": "Feature", "properties": { "osm_id": "4124727989", "name": null, "barrier": null, "highway": null, "ref": null, "address": null, "is_in": null, "place": null, "man_made": null, "other_tags": "\"amenity\"=>\"bench\",\"backrest\"=>\"yes\",\"covered\"=>\"no\"", "area": null, "centroid_x": 135.781434, "centroid_y": 34.969117 }, "geometry": { "type": "Point", "coordinates": [ 135.781434, 34.969117 ] } },
{ "type": "Feature", "properties": { "osm_id": "4124727995", "name": null, "barrier": null, "highway": null, "ref": null, "address": null, "is_in": null, "place": null, "man_made": null, "other_tags": "\"amenity\"=>\"vending_machine\",\"check_date\"=>\"2023-09-25\",\"vending\"=>\"drinks\"", "area": null, "centroid_x": 135.7847752, "centroid_y": 34.9695287 }, "geometry": { "type": "Point", "coordinates": [ 135.784775200000013, 34.9695287 ] } },
{ "type": "Feature", "properties": { "osm_id": "4124731989", "name": null, "barrier": null, "highway": null, "ref": null, "address": null, "is_in": null, "place": null, "man_made": null, "other_tags": "\"amenity\"=>\"vending_machine\",\"check_date\"=>\"2025-03-30\",\"indoor\"=>\"no\",\"operator\"=>\"Kirin\",\"vending\"=>\"drinks\"", "area": null, "centroid_x": 135.784188, "centroid_y": 34.967069 }, "geometry": { "type": "Point", "coordinates": [ 135.784188, 34.967069 ] } },
{ "type": "Feature", "properties": { "osm_id": "4124733589", "name": null, "barrier": null, "highway": null, "ref": null, "address": null, "is_in": null, "place": null, "man_made": null, "other_tags": "\"amenity\"=>\"vending_machine\",\"check_date\"=>\"2023-09-25\",\"indoor\"=>\"yes\",\"vending\"=>\"drinks\"", "area": null, "centroid_x": 135.785465, "centroid_y": 34.966951 }, "geometry": { "type": "Point", "coordinates": [ 135.785465, 34.966951 ] } },
{ "type": "Feature", "properties": { "osm_id": "4124757989", "name": null, "barrier": null, "highway": null, "ref": null, "address": null, "is_in": null, "place": null, "man_made": null, "other_tags": "\"amenity\"=>\"toilets\",\"opening_hours\"=>\"Mo-Su 09:00-17:00\"", "area": null, "centroid_x": 135.7835112, "centroid_y": 34.969472 }, "geometry": { "type": "Point", "coordinates": [ 135.7835112, 34.969472 ] } },
{ "type": "Feature", "properties": { "osm_id": "4742101443", "name": "千本鳥居", "barrier": null, "highway": null, "ref": null, "address": null, "is_in": null, "place": null, "man_made": null, "other_tags": "\"name:en\"=>\"10,000 Torii gates\",\"name:ja\"=>\"千本鳥居\",\"name:zh\"=>\"千本鸟居\",\"tourism\"=>\"attraction\"", "area": null, "centroid_x": 135.7748299, "centroid_y": 34.9669136 }, "geometry": { "type": "Point", "coordinates": [ 135.774829899999986, 34.9669136 ] } },
{ "type": "Feature", "properties": { "osm_id": "5629986431", "name": null, "barrier": null, "highway": null, "ref": null, "address": null, "is_in": null, "place": null, "man_made": "torii", "other_tags": "\"material\"=>\"stone\",\"religion\"=>\"shinto\"", "area": null, "centroid_x": 135.7814369, "centroid_y": 34.9692541 }, "geometry": { "type": "Point", "coordinates": [ 135.781436899999989, 34.9692541 ] } },
{ "type": "Feature", "properties": { "osm_id": "5912935245", "name": null, "barrier": null, "highway": null, "ref": null, "address": null, "is_in": null, "place": null, "man_made": null, "other_tags": "\"access\"=>\"yes\",\"amenity\"=>\"toilets\",\"check_date\"=>\"2023-10-05\",\"fee\"=>\"no\",\"wheelchair\"=>\"yes\"", "area": null, "centroid_x": 135.7722308, "centroid_y": 34.9672698 }, "geometry": { "type": "Point", "coordinates": [ 135.772230799999988, 34.9672698 ] } },
{ "type": "Feature", "properties": { "osm_id": "5913169380", "name": "清明瀧", "barrier": null, "highway": null, "ref": null, "address": null, "is_in": null, "place": null, "man_made": null, "other_tags": "\"waterway\"=>\"waterfall\"", "area": null, "centroid_x": 135.7851335, "centroid_y": 34.9696717 }, "geometry": { "type": "Point", "coordinates": [ 135.7851335, 34.9696717 ] } },
{ "type": "Feature", "properties": { "osm_id": "5913169593", "name": "おせき社", "barrier": null, "highway": null, "ref": null, "address": null, "is_in": null, "place": null, "man_made": null, "other_tags": "\"historic\"=>\"wayside_shrine\",\"religion\"=>\"shinto\"", "area": null, "centroid_x": 135.7853865, "centroid_y": 34.9687598 }, "geometry": { "type": "Point", "coordinates": [ 135.785386499999987, 34.9687598 ] } },
{ "type": "Feature", "properties": { "osm_id": "6200424992", "name": null, "barrier": null, "highway": null, "ref": null, "address": null, "is_in": null, "place": null, "man_made": null, "other_tags": "\"shop\"=>\"gift\"", "area": null, "centroid_x": 135.7854831, "centroid_y": 34.9668974 }, "geometry": { "type": "Point", "coordinates": [ 135.7854831, 34.9668974 ] } },
{ "type": "Feature", "properties": { "osm_id": "6200432886", "name": null, "barrier": null, "highway": null, "ref": null, "address": null, "is_in": null, "place": null, "man_made": null, "other_tags": "\"shop\"=>\"gift\"", "area": null, "centroid_x": 135.7789998, "centroid_y": 34.9699829 }, "geometry": { "type": "Point", "coordinates": [ 135.7789998, 34.9699829 ] } },
{ "type": "Feature", "properties": { "osm_id": "6200432887", "name": null, "barrier": null, "highway": null, "ref": null, "address": null, "is_in": null, "place": null, "man_made": null, "other_tags": "\"amenity\"=>\"bench\"", "area": null, "centroid_x": 135.7740849, "centroid_y": 34.9677165 }, "geometry": { "type": "Point", "coordinates": [ 135.7740849, 34.9677165 ] } },
{ "type": "Feature", "properties": { "osm_id": "6406040488", "name": null, "barrier": null, "highway": null, "ref": null, "address": null, "is_in": null, "place": null, "man_made": null, "other_tags": "\"amenity\"=>\"clock\"", "area": null, "centroid_x": 135.781427, "centroid_y": 34.9690951 }, "geometry": { "type": "Point", "coordinates": [ 135.781427, 34.9690951 ] } },
{ "type": "Feature", "properties": { "osm_id": "6633078638", "name": "稲荷茶寮", "barrier": null, "highway": null, "ref": null, "address": null, "is_in": null, "place": null, "man_made": null, "other_tags": "\"amenity\"=>\"cafe\"", "area": null, "centroid_x": 135.7741114, "centroid_y": 34.96771 }, "geometry": { "type": "Point", "coordinates": [ 135.77411140000001, 34.96771 ] } },
{ "type": "Feature", "properties": { "osm_id": "6761121027", "name": "京都一周トレイル東山3-2", "barrier": null, "highway": null, "ref": null, "address": null, "is_in": null, "place": null, "man_made": null, "other_tags": "\"hiking\"=>\"yes\",\"information\"=>\"guidepost\",\"name:en\"=>\"KYOTO TRAIL HIGASHIYAMA 3-2\",\"tourism\"=>\"information\"", "area": null, "centroid_x": 135.7814482, "centroid_y": 34.9692052 }, "geometry": { "type": "Point", "coordinates": [ 135.7814482, 34.9692052 ] } },
{ "type": "Feature", "properties": { "osm_id": "6761121028", "name": "京都一周トレイル東山3-1", "barrier": null, "highway": null, "ref": null, "address": null, "is_in": null, "place": null, "man_made": null, "other_tags": "\"hiking\"=>\"yes\",\"information\"=>\"guidepost\",\"name:en\"=>\"KYOTO TRAIL HIGASHIYAMA 3-1\",\"tourism\"=>\"information\"", "area": null, "centroid_x": 135.7814274, "centroid_y": 34.9691024 }, "geometry": { "type": "Point", "coordinates": [ 135.781427400000013, 34.9691024 ] } },
{ "type": "Feature", "properties": { "osm_id": "6761151484", "name": "京都一周トレイル東山2-2・F35", "barrier": null, "highway": null, "ref": "東山2-2・F35", "address": null, "is_in": null, "place": null, "man_made": null, "other_tags": "\"hiking\"=>\"yes\",\"information\"=>\"guidepost\",\"name:en\"=>\"Kyoto round-trip trail Higashiyama 2-2 F35\",\"name:fr\"=>\"Parcours aller-retour de Kyoto Higashiyama 2-2 F35\",\"name:ja_rm\"=>\"Kyōto isshū toreiru Higashiyama 2-2 F35\",\"tourism\"=>\"information\"", "area": null, "centroid_x": 135.775454, "centroid_y": 34.9668655 }, "geometry": { "type": "Point", "coordinates": [ 135.775454, 34.9668655 ] } },
{ "type": "Feature", "properties": { "osm_id": "6761170085", "name": "京都一周トレイル東山2-1", "barrier": null, "highway": null, "ref": null, "address": null, "is_in": null, "place": null, "man_made": null, "other_tags": "\"hiking\"=>\"yes\",\"information\"=>\"guidepost\",\"name:en\"=>\"Kyoto round-trip trail Higashiyama 2-1\",\"name:fr\"=>\"Parcours aller-retour de Kyoto Higashiyama 2-1\",\"name:ja_rm\"=>\"Kyōto isshū toreiru Higashiyama 2-1\",\"tourism\"=>\"information\"", "area": null, "centroid_x": 135.775508, "centroid_y": 34.9665869 }, "geometry": { "type": "Point", "coordinates": [ 135.775508, 34.9665869 ] } },
{ "type": "Feature", "properties": { "osm_id": "6761215495", "name": "京都一周トレイル東山3-3", "barrier": null, "highway": null, "ref": null, "address": null, "is_in": null, "place": null, "man_made": null, "other_tags": "\"information\"=>\"guidepost\",\"name:en\"=>\"KYOTO TRAIL HIGASHIYAMA 3-3\",\"tourism\"=>\"information\",\"wheelchair\"=>\"no\"", "area": null, "centroid_x": 135.7808337, "centroid_y": 34.9701866 }, "geometry": { "type": "Point", "coordinates": [ 135.780833699999988, 34.9701866 ] } },
{ "type": "Feature", "properties": { "osm_id": "6865347485", "name": "伏見稲荷大社", "barrier": null, "highway": null, "ref": null, "address": null, "is_in": null, "place": null, "man_made": null, "other_tags": "\"name:de\"=>\"Torii Gabelung „1000 Torii“\",\"name:en\"=>\"Fushimi Inari Taisha\",\"name:it\"=>\"Santuario di Fushimi Inari-taisha\",\"tourism\"=>\"viewpoint\"", "area": null, "centroid_x": 135.7747604, "centroid_y": 34.966983 }, "geometry": { "type": "Point", "coordinates": [ 135.7747604, 34.966983 ] } },
{ "type": "Feature", "properties": { "osm_id": "7048038185", "name": null, "barrier": null, "highway": "rest_area", "ref": null, "address": null, "is_in": null, "place": null, "man_made": null, "other_tags": null, "area": null, "centroid_x": 135.78228, "centroid_y": 34.9679811 }, "geometry": { "type": "Point", "coordinates": [ 135.78228, 34.9679811 ] } },
{ "type": "Feature", "properties": { "osm_id": "7440977383", "name": "深草藪之内町", "barrier": null, "highway": null, "ref": null, "address": null, "is_in": null, "place": "neighbourhood", "man_made": null, "other_tags": "\"name:en\"=>\"Fukakusa-Yabunochicho\",\"name:ja\"=>\"深草藪之内町\",\"name:ja-Hira\"=>\"ふかくさやぶのうちちょう\"", "area": null, "centroid_x": 135.772503, "centroid_y": 34.9665153 }, "geometry": { "type": "Point", "coordinates": [ 135.772503, 34.9665153 ] } },
{ "type": "Feature", "properties": { "osm_id": "7440977384", "name": "深草稲荷御前町", "barrier": null, "highway": null, "ref": null, "address": null, "is_in": null, "place": "neighbourhood", "man_made": null, "other_tags": "\"name:en\"=>\"Fukakusa-Inarionmaecho\",\"name:ja\"=>\"深草稲荷御前町\",\"name:ja-Hira\"=>\"ふかくさいなりおんまえちょう\"", "area": null, "centroid_x": 135.7710493, "centroid_y": 34.9669308 }, "geometry": { "type": "Point", "coordinates": [ 135.771049299999987, 34.9669308 ] } },
{ "type": "Feature", "properties": { "osm_id": "9236774855", "name": "深草笹山町", "barrier": null, "highway": null, "ref": null, "address": null, "is_in": null, "place": "neighbourhood", "man_made": null, "other_tags": "\"name:en\"=>\"Fukakusa-Sasayamacho\",\"name:ja\"=>\"深草笹山町\",\"name:ja-Hira\"=>\"ふかくさささやまちょう\"", "area": null, "centroid_x": 135.777637, "centroid_y": 34.966679 }, "geometry": { "type": "Point", "coordinates": [ 135.777637, 34.966679 ] } },
{ "type": "Feature", "properties": { "osm_id": "9236775084", "name": "稲荷山官有地", "barrier": null, "highway": null, "ref": null, "address": null, "is_in": null, "place": "neighbourhood", "man_made": null, "other_tags": "\"name:en\"=>\"Inariyama-kanyuchi\",\"name:ja\"=>\"稲荷山官有地\",\"name:ja-Hira\"=>\"いなりやまかんゆうち\"", "area": null, "centroid_x": 135.783712, "centroid_y": 34.969171 }, "geometry": { "type": "Point", "coordinates": [ 135.783712, 34.969171 ] } },
{ "type": "Feature", "properties": { "osm_id": "9315755981", "name": "深草トレイル 1", "barrier": null, "highway": null, "ref": "1", "address": null, "is_in": null, "place": null, "man_made": null, "other_tags": "\"information\"=>\"guidepost\",\"tourism\"=>\"information\"", "area": null, "centroid_x": 135.7754543, "centroid_y": 34.9668695 }, "geometry": { "type": "Point", "coordinates": [ 135.7754543, 34.9668695 ] } },
{ "type": "Feature", "properties": { "osm_id": "9661280974", "name": null, "barrier": null, "highway": null, "ref": null, "address": null, "is_in": null, "place": null, "man_made": "lamp", "other_tags": "\"material\"=>\"stone\"", "area": null, "centroid_x": 135.7721724, "centroid_y": 34.9676369 }, "geometry": { "type": "Point", "coordinates": [ 135.772172399999988, 34.9676369 ] } },
{ "type": "Feature", "properties": { "osm_id": "9661280975", "name": null, "barrier": null, "highway": null, "ref": null, "address": null, "is_in": null, "place": null, "man_made": "lamp", "other_tags": "\"material\"=>\"stone\"", "area": null, "centroid_x": 135.7722033, "centroid_y": 34.9676583 }, "geometry": { "type": "Point", "coordinates": [ 135.7722033, 34.9676583 ] } },
{ "type": "Feature", "properties": { "osm_id": "9661280978", "name": "神幸道祓川", "barrier": null, "highway": null, "ref": null, "address": null, "is_in": null, "place": null, "man_made": null, "other_tags": "\"historic\"=>\"memorial\",\"memorial\"=>\"stele\"", "area": null, "centroid_x": 135.7721315, "centroid_y": 34.9677517 }, "geometry": { "type": "Point", "coordinates": [ 135.7721315, 34.9677517 ] } },
{ "type": "Feature", "properties": { "osm_id": "9661912775", "name": null, "barrier": null, "highway": null, "ref": null, "address": null, "is_in": null, "place": null, "man_made": "torii", "other_tags": "\"material\"=>\"wood\",\"religion\"=>\"shinto\"", "area": null, "centroid_x": 135.7739626, "centroid_y": 34.9672193 }, "geometry": { "type": "Point", "coordinates": [ 135.7739626, 34.9672193 ] } },
{ "type": "Feature", "properties": { "osm_id": "9661912780", "name": null, "barrier": null, "highway": null, "ref": null, "address": null, "is_in": null, "place": null, "man_made": "torii", "other_tags": "\"material\"=>\"wood\",\"religion\"=>\"shinto\"", "area": null, "centroid_x": 135.7737376, "centroid_y": 34.9673621 }, "geometry": { "type": "Point", "coordinates": [ 135.7737376, 34.9673621 ] } },
{ "type": "Feature", "properties": { "osm_id": "9661912781", "name": null, "barrier": "cycle_barrier", "highway": null, "ref": null, "address": null, "is_in": null, "place": null, "man_made": null, "other_tags": null, "area": null, "centroid_x": 135.7733488, "centroid_y": 34.9674705 }, "geometry": { "type": "Point", "coordinates": [ 135.7733488, 34.9674705 ] } },
{ "type": "Feature", "properties": { "osm_id": "9661912782", "name": null, "barrier": null, "highway": null, "ref": null, "address": null, "is_in": null, "place": null, "man_made": null, "other_tags": "\"artwork_type\"=>\"statue\",\"note:en\"=>\"Guardian fox\",\"operator\"=>\"買先中\",\"religion\"=>\"shinto\",\"tourism\"=>\"artwork\"", "area": null, "centroid_x": 135.7734827, "centroid_y": 34.9674093 }, "geometry": { "type": "Point", "coordinates": [ 135.773482699999988, 34.9674093 ] } },
{ "type": "Feature", "properties": { "osm_id": "9661912783", "name": null, "barrier": null, "highway": null, "ref": null, "address": null, "is_in": null, "place": null, "man_made": null, "other_tags": "\"artwork_type\"=>\"statue\",\"note:en\"=>\"Guardian fox\",\"operator\"=>\"職方中\",\"religion\"=>\"shinto\",\"tourism\"=>\"artwork\"", "area": null, "centroid_x": 135.7734832, "centroid_y": 34.9674644 }, "geometry": { "type": "Point", "coordinates": [ 135.773483199999987, 34.9674644 ] } },
{ "type": "Feature", "properties": { "osm_id": "9664306026", "name": null, "barrier": null, "highway": null, "ref": null, "address": null, "is_in": null, "place": null, "man_made": null, "other_tags": "\"amenity\"=>\"bench\",\"backrest\"=>\"no\",\"material\"=>\"stone\",\"seats\"=>\"3\"", "area": null, "centroid_x": 135.7753793, "centroid_y": 34.9668217 }, "geometry": { "type": "Point", "coordinates": [ 135.7753793, 34.9668217 ] } },
{ "type": "Feature", "properties": { "osm_id": "9664306027", "name": null, "barrier": null, "highway": null, "ref": null, "address": null, "is_in": null, "place": null, "man_made": null, "other_tags": "\"historic\"=>\"wayside_shrine\"", "area": null, "centroid_x": 135.7753314, "centroid_y": 34.9668417 }, "geometry": { "type": "Point", "coordinates": [ 135.7753314, 34.9668417 ] } },
{ "type": "Feature", "properties": { "osm_id": "9664306028", "name": null, "barrier": null, "highway": null, "ref": null, "address": null, "is_in": null, "place": null, "man_made": "torii", "other_tags": "\"material\"=>\"wood\",\"religion\"=>\"shinto\"", "area": null, "centroid_x": 135.7753901, "centroid_y": 34.9669096 }, "geometry": { "type": "Point", "coordinates": [ 135.77539010000001, 34.9669096 ] } },
{ "type": "Feature", "properties": { "osm_id": "9664306029", "name": null, "barrier": null, "highway": null, "ref": null, "address": null, "is_in": null, "place": null, "man_made": "lamp", "other_tags": "\"material\"=>\"wood\"", "area": null, "centroid_x": 135.7753737, "centroid_y": 34.9669319 }, "geometry": { "type": "Point", "coordinates": [ 135.775373699999989, 34.9669319 ] } },
{ "type": "Feature", "properties": { "osm_id": "9664306030", "name": null, "barrier": null, "highway": null, "ref": null, "address": null, "is_in": null, "place": null, "man_made": "lamp", "other_tags": "\"material\"=>\"wood\"", "area": null, "centroid_x": 135.7753747, "centroid_y": 34.9668896 }, "geometry": { "type": "Point", "coordinates": [ 135.775374699999986, 34.9668896 ] } },
{ "type": "Feature", "properties": { "osm_id": "9664306031", "name": "根上がりの松", "barrier": null, "highway": null, "ref": null, "address": null, "is_in": null, "place": null, "man_made": null, "other_tags": "\"information\"=>\"board\",\"tourism\"=>\"information\"", "area": null, "centroid_x": 135.7753824, "centroid_y": 34.9668934 }, "geometry": { "type": "Point", "coordinates": [ 135.775382400000012, 34.9668934 ] } },
{ "type": "Feature", "properties": { "osm_id": "9664306032", "name": "根上がりの松", "barrier": null, "highway": null, "ref": null, "address": null, "is_in": null, "place": null, "man_made": null, "other_tags": "\"genus\"=>\"Pinus\",\"leaf_cycle\"=>\"evergreen\",\"leaf_type\"=>\"needleleaved\",\"natural\"=>\"tree\",\"religion\"=>\"shinto\",\"species:en\"=>\"Pine\",\"species:ja\"=>\"マツ\"", "area": null, "centroid_x": 135.7753411, "centroid_y": 34.9669115 }, "geometry": { "type": "Point", "coordinates": [ 135.7753411, 34.9669115 ] } },
{ "type": "Feature", "properties": { "osm_id": "9664306034", "name": null, "barrier": null, "highway": null, "ref": null, "address": null, "is_in": null, "place": null, "man_made": "torii", "other_tags": "\"material\"=>\"wood\",\"religion\"=>\"shinto\"", "area": null, "centroid_x": 135.7757056, "centroid_y": 34.9665541 }, "geometry": { "type": "Point", "coordinates": [ 135.7757056, 34.9665541 ] } },
{ "type": "Feature", "properties": { "osm_id": "9664306039", "name": null, "barrier": null, "highway": null, "ref": null, "address": null, "is_in": null, "place": null, "man_made": "lamp", "other_tags": "\"material\"=>\"wood\"", "area": null, "centroid_x": 135.7756677, "centroid_y": 34.9664708 }, "geometry": { "type": "Point", "coordinates": [ 135.775667700000014, 34.9664708 ] } },
{ "type": "Feature", "properties": { "osm_id": "9664306040", "name": null, "barrier": null, "highway": null, "ref": null, "address": null, "is_in": null, "place": null, "man_made": null, "other_tags": "\"natural\"=>\"tree\"", "area": null, "centroid_x": 135.7757057, "centroid_y": 34.9663917 }, "geometry": { "type": "Point", "coordinates": [ 135.7757057, 34.9663917 ] } },
{ "type": "Feature", "properties": { "osm_id": "9664306041", "name": null, "barrier": null, "highway": null, "ref": null, "address": null, "is_in": null, "place": null, "man_made": null, "other_tags": "\"natural\"=>\"tree\"", "area": null, "centroid_x": 135.7757063, "centroid_y": 34.9664135 }, "geometry": { "type": "Point", "coordinates": [ 135.7757063, 34.9664135 ] } },
{ "type": "Feature", "properties": { "osm_id": "9664306042", "name": "碑文", "barrier": null, "highway": null, "ref": null, "address": null, "is_in": null, "place": null, "man_made": null, "other_tags": "\"information\"=>\"board\",\"operator\"=>\"土井哲夫（柾三氏後裔）\",\"start_date\"=>\"2007-07\",\"tourism\"=>\"information\"", "area": null, "centroid_x": 135.7756971, "centroid_y": 34.9664093 }, "geometry": { "type": "Point", "coordinates": [ 135.7756971, 34.9664093 ] } },
{ "type": "Feature", "properties": { "osm_id": "9664306043", "name": "後醍醐天皇御製", "barrier": null, "highway": null, "ref": null, "address": null, "is_in": null, "place": null, "man_made": null, "other_tags": "\"artist_name\"=>\"土井柾三\",\"historic\"=>\"memorial\",\"inscription\"=>\"ぬば玉のくらきやみ路にまよふなり　われにかさなむ三つのともし火\",\"material\"=>\"stone\",\"memorial\"=>\"stone\",\"start_date\"=>\"1892-12\"", "area": null, "centroid_x": 135.7757078, "centroid_y": 34.9664047 }, "geometry": { "type": "Point", "coordinates": [ 135.7757078, 34.9664047 ] } },
{ "type": "Feature", "properties": { "osm_id": "9664306044", "name": null, "barrier": null, "highway": "street_lamp", "ref": null, "address": null, "is_in": null, "place": null, "man_made": null, "other_tags": null, "area": null, "centroid_x": 135.7756772, "centroid_y": 34.9665924 }, "geometry": { "type": "Point", "coordinates": [ 135.7756772, 34.9665924 ] } },
{ "type": "Feature", "properties": { "osm_id": "9664306045", "name": "おもかる石", "barrier": null, "highway": null, "ref": null, "address": null, "is_in": null, "place": null, "man_made": null, "other_tags": "\"historic\"=>\"stone\",\"name:en\"=>\"Omokaru Stone\",\"name:ja_rm\"=>\"Omo karu ishi\",\"tourism\"=>\"attraction\"", "area": null, "centroid_x": 135.775698, "centroid_y": 34.9664964 }, "geometry": { "type": "Point", "coordinates": [ 135.775698, 34.9664964 ] } },
{ "type": "Feature", "properties": { "osm_id": "9664306050", "name": "おもかる石", "barrier": null, "highway": null, "ref": null, "address": null, "is_in": null, "place": null, "man_made": null, "other_tags": "\"information\"=>\"board\",\"tourism\"=>\"information\"", "area": null, "centroid_x": 135.7756896, "centroid_y": 34.966518 }, "geometry": { "type": "Point", "coordinates": [ 135.7756896, 34.966518 ] } },
{ "type": "Feature", "properties": { "osm_id": "9664306051", "name": null, "barrier": null, "highway": "street_lamp", "ref": null, "address": null, "is_in": null, "place": null, "man_made": null, "other_tags": null, "area": null, "centroid_x": 135.7756945, "centroid_y": 34.9665254 }, "geometry": { "type": "Point", "coordinates": [ 135.775694499999986, 34.9665254 ] } },
{ "type": "Feature", "properties": { "osm_id": "9664306052", "name": null, "barrier": null, "highway": null, "ref": "奥之院へ1丁", "address": null, "is_in": null, "place": null, "man_made": null, "other_tags": "\"information\"=>\"guidepost\",\"tourism\"=>\"information\"", "area": null, "centroid_x": 135.7747751, "centroid_y": 34.9669815 }, "geometry": { "type": "Point", "coordinates": [ 135.7747751, 34.9669815 ] } },
{ "type": "Feature", "properties": { "osm_id": "9664702724", "name": "帰路", "barrier": null, "highway": null, "ref": null, "address": null, "is_in": null, "place": null, "man_made": null, "other_tags": "\"information\"=>\"board\",\"tourism\"=>\"information\"", "area": null, "centroid_x": 135.7755715, "centroid_y": 34.9678888 }, "geometry": { "type": "Point", "coordinates": [ 135.775571500000012, 34.9678888 ] } },
{ "type": "Feature", "properties": { "osm_id": "9664702725", "name": null, "barrier": null, "highway": null, "ref": null, "address": null, "is_in": null, "place": null, "man_made": "lamp", "other_tags": "\"material\"=>\"wood\"", "area": null, "centroid_x": 135.7753924, "centroid_y": 34.9668755 }, "geometry": { "type": "Point", "coordinates": [ 135.775392399999987, 34.9668755 ] } },
{ "type": "Feature", "properties": { "osm_id": "9664702726", "name": null, "barrier": null, "highway": null, "ref": null, "address": null, "is_in": null, "place": null, "man_made": null, "other_tags": "\"information\"=>\"map\",\"tourism\"=>\"information\"", "area": null, "centroid_x": 135.7756124, "centroid_y": 34.9679039 }, "geometry": { "type": "Point", "coordinates": [ 135.7756124, 34.9679039 ] } },
{ "type": "Feature", "properties": { "osm_id": "9664702727", "name": null, "barrier": null, "highway": null, "ref": null, "address": null, "is_in": null, "place": null, "man_made": null, "other_tags": "\"information\"=>\"guidepost\",\"tourism\"=>\"information\"", "area": null, "centroid_x": 135.7756275, "centroid_y": 34.9679071 }, "geometry": { "type": "Point", "coordinates": [ 135.775627500000013, 34.9679071 ] } },
{ "type": "Feature", "properties": { "osm_id": "9664702729", "name": null, "barrier": null, "highway": null, "ref": null, "address": null, "is_in": null, "place": null, "man_made": "lamp", "other_tags": "\"material\"=>\"wood\"", "area": null, "centroid_x": 135.7753904, "centroid_y": 34.9668357 }, "geometry": { "type": "Point", "coordinates": [ 135.7753904, 34.9668357 ] } },
{ "type": "Feature", "properties": { "osm_id": "9664702740", "name": null, "barrier": null, "highway": null, "ref": null, "address": null, "is_in": null, "place": null, "man_made": null, "other_tags": "\"historic\"=>\"memorial\",\"memorial\"=>\"stone\"", "area": null, "centroid_x": 135.7753985, "centroid_y": 34.9668239 }, "geometry": { "type": "Point", "coordinates": [ 135.7753985, 34.9668239 ] } },
{ "type": "Feature", "properties": { "osm_id": "9664702747", "name": null, "barrier": null, "highway": null, "ref": null, "address": null, "is_in": null, "place": null, "man_made": null, "other_tags": "\"amenity\"=>\"bench\",\"backrest\"=>\"no\",\"material\"=>\"stone\",\"seats\"=>\"2\"", "area": null, "centroid_x": 135.7754068, "centroid_y": 34.9669104 }, "geometry": { "type": "Point", "coordinates": [ 135.775406800000013, 34.9669104 ] } },
{ "type": "Feature", "properties": { "osm_id": "9664702748", "name": null, "barrier": null, "highway": null, "ref": null, "address": null, "is_in": null, "place": null, "man_made": null, "other_tags": "\"emergency\"=>\"fire_hose\"", "area": null, "centroid_x": 135.7755648, "centroid_y": 34.9673369 }, "geometry": { "type": "Point", "coordinates": [ 135.775564800000012, 34.9673369 ] } },
{ "type": "Feature", "properties": { "osm_id": "9667109061", "name": null, "barrier": null, "highway": null, "ref": null, "address": null, "is_in": null, "place": null, "man_made": null, "other_tags": "\"emergency\"=>\"fire_extinguisher\"", "area": null, "centroid_x": 135.7786433, "centroid_y": 34.9683985 }, "geometry": { "type": "Point", "coordinates": [ 135.7786433, 34.9683985 ] } },
{ "type": "Feature", "properties": { "osm_id": "9667109062", "name": null, "barrier": null, "highway": null, "ref": null, "address": null, "is_in": null, "place": null, "man_made": null, "other_tags": "\"emergency\"=>\"fire_extinguisher\"", "area": null, "centroid_x": 135.7787848, "centroid_y": 34.9701621 }, "geometry": { "type": "Point", "coordinates": [ 135.778784800000011, 34.9701621 ] } },
{ "type": "Feature", "properties": { "osm_id": "9667109063", "name": null, "barrier": null, "highway": null, "ref": null, "address": null, "is_in": null, "place": null, "man_made": null, "other_tags": "\"information\"=>\"guidepost\",\"tourism\"=>\"information\"", "area": null, "centroid_x": 135.7787881, "centroid_y": 34.9701596 }, "geometry": { "type": "Point", "coordinates": [ 135.778788100000014, 34.9701596 ] } },
{ "type": "Feature", "properties": { "osm_id": "9667109064", "name": "三ツ辻周辺案内図", "barrier": null, "highway": null, "ref": null, "address": null, "is_in": null, "place": null, "man_made": null, "other_tags": "\"information\"=>\"map\",\"map_type\"=>\"scheme\",\"tourism\"=>\"information\"", "area": null, "centroid_x": 135.778772, "centroid_y": 34.9701654 }, "geometry": { "type": "Point", "coordinates": [ 135.778772, 34.9701654 ] } },
{ "type": "Feature", "properties": { "osm_id": "9667109065", "name": null, "barrier": null, "highway": null, "ref": null, "address": null, "is_in": null, "place": null, "man_made": null, "other_tags": "\"amenity\"=>\"bench\",\"backrest\"=>\"yes\",\"colour\"=>\"blue\",\"material\"=>\"metal\",\"seats\"=>\"3\"", "area": null, "centroid_x": 135.7786698, "centroid_y": 34.9684172 }, "geometry": { "type": "Point", "coordinates": [ 135.778669799999989, 34.9684172 ] } },
{ "type": "Feature", "properties": { "osm_id": "9667109066", "name": null, "barrier": null, "highway": null, "ref": null, "address": null, "is_in": null, "place": null, "man_made": null, "other_tags": "\"amenity\"=>\"bench\",\"backrest\"=>\"no\",\"material\"=>\"wood\",\"seats\"=>\"3\"", "area": null, "centroid_x": 135.778654, "centroid_y": 34.9683944 }, "geometry": { "type": "Point", "coordinates": [ 135.778654, 34.9683944 ] } },
{ "type": "Feature", "properties": { "osm_id": "9667109067", "name": null, "barrier": null, "highway": null, "ref": null, "address": null, "is_in": null, "place": null, "man_made": null, "other_tags": "\"amenity\"=>\"bench\",\"backrest\"=>\"no\",\"material\"=>\"wood\",\"seats\"=>\"3\"", "area": null, "centroid_x": 135.7786667, "centroid_y": 34.9683971 }, "geometry": { "type": "Point", "coordinates": [ 135.7786667, 34.9683971 ] } },
{ "type": "Feature", "properties": { "osm_id": "9667109068", "name": null, "barrier": null, "highway": "street_lamp", "ref": null, "address": null, "is_in": null, "place": null, "man_made": null, "other_tags": null, "area": null, "centroid_x": 135.7785568, "centroid_y": 34.9682996 }, "geometry": { "type": "Point", "coordinates": [ 135.7785568, 34.9682996 ] } },
{ "type": "Feature", "properties": { "osm_id": "9667109069", "name": null, "barrier": null, "highway": null, "ref": null, "address": null, "is_in": null, "place": null, "man_made": null, "other_tags": "\"amenity\"=>\"bench\",\"backrest\"=>\"no\",\"material\"=>\"stone\",\"seats\"=>\"3\"", "area": null, "centroid_x": 135.778542, "centroid_y": 34.9682867 }, "geometry": { "type": "Point", "coordinates": [ 135.778542, 34.9682867 ] } },
{ "type": "Feature", "properties": { "osm_id": "9667109070", "name": null, "barrier": null, "highway": null, "ref": null, "address": null, "is_in": null, "place": null, "man_made": null, "other_tags": "\"information\"=>\"guidepost\",\"tourism\"=>\"information\"", "area": null, "centroid_x": 135.778538, "centroid_y": 34.9682779 }, "geometry": { "type": "Point", "coordinates": [ 135.778538, 34.9682779 ] } },
{ "type": "Feature", "properties": { "osm_id": "9673171287", "name": "お山右廻り道", "barrier": null, "highway": null, "ref": null, "address": null, "is_in": null, "place": null, "man_made": null, "other_tags": "\"information\"=>\"guidepost\",\"tourism\"=>\"information\"", "area": null, "centroid_x": 135.7814784, "centroid_y": 34.9690524 }, "geometry": { "type": "Point", "coordinates": [ 135.7814784, 34.9690524 ] } },
{ "type": "Feature", "properties": { "osm_id": "9673171292", "name": null, "barrier": null, "highway": null, "ref": null, "address": null, "is_in": null, "place": null, "man_made": "water_tap", "other_tags": "\"drinking_water\"=>\"no\"", "area": null, "centroid_x": 135.7815022, "centroid_y": 34.9690993 }, "geometry": { "type": "Point", "coordinates": [ 135.7815022, 34.9690993 ] } },
{ "type": "Feature", "properties": { "osm_id": "9673171293", "name": "御膳谷へ三丁", "barrier": null, "highway": null, "ref": null, "address": null, "is_in": null, "place": null, "man_made": null, "other_tags": "\"information\"=>\"guidepost\",\"tourism\"=>\"information\"", "area": null, "centroid_x": 135.7814864, "centroid_y": 34.9691145 }, "geometry": { "type": "Point", "coordinates": [ 135.7814864, 34.9691145 ] } },
{ "type": "Feature", "properties": { "osm_id": "9673171294", "name": "天龍参道", "barrier": null, "highway": null, "ref": null, "address": null, "is_in": null, "place": null, "man_made": null, "other_tags": "\"information\"=>\"guidepost\",\"tourism\"=>\"information\"", "area": null, "centroid_x": 135.7815434, "centroid_y": 34.9690958 }, "geometry": { "type": "Point", "coordinates": [ 135.7815434, 34.9690958 ] } },
{ "type": "Feature", "properties": { "osm_id": "9673171295", "name": "四ツ辻周辺案内図", "barrier": null, "highway": null, "ref": null, "address": null, "is_in": null, "place": null, "man_made": null, "other_tags": "\"information\"=>\"map\",\"map_type\"=>\"scheme\",\"tourism\"=>\"information\"", "area": null, "centroid_x": 135.781537, "centroid_y": 34.9691005 }, "geometry": { "type": "Point", "coordinates": [ 135.781537, 34.9691005 ] } },
{ "type": "Feature", "properties": { "osm_id": "9673171296", "name": "伏見稲荷大社境内案内図", "barrier": null, "highway": null, "ref": null, "address": null, "is_in": null, "place": null, "man_made": null, "other_tags": "\"information\"=>\"map\",\"tourism\"=>\"information\"", "area": null, "centroid_x": 135.7812121, "centroid_y": 34.9690497 }, "geometry": { "type": "Point", "coordinates": [ 135.7812121, 34.9690497 ] } },
{ "type": "Feature", "properties": { "osm_id": "9673171297", "name": null, "barrier": null, "highway": null, "ref": null, "address": null, "is_in": null, "place": null, "man_made": null, "other_tags": "\"direction\"=>\"SW\",\"tourism\"=>\"viewpoint\"", "area": null, "centroid_x": 135.7812029, "centroid_y": 34.9690749 }, "geometry": { "type": "Point", "coordinates": [ 135.781202900000011, 34.9690749 ] } },
{ "type": "Feature", "properties": { "osm_id": "9673171303", "name": null, "barrier": null, "highway": null, "ref": null, "address": null, "is_in": null, "place": null, "man_made": null, "other_tags": "\"direction\"=>\"SW\",\"tourism\"=>\"viewpoint\"", "area": null, "centroid_x": 135.780671, "centroid_y": 34.9695697 }, "geometry": { "type": "Point", "coordinates": [ 135.780671, 34.9695697 ] } },
{ "type": "Feature", "properties": { "osm_id": "9675093581", "name": null, "barrier": null, "highway": null, "ref": null, "address": null, "is_in": null, "place": null, "man_made": "torii", "other_tags": "\"material\"=>\"wood\",\"religion\"=>\"shinto\"", "area": null, "centroid_x": 135.7809123, "centroid_y": 34.9700979 }, "geometry": { "type": "Point", "coordinates": [ 135.780912300000011, 34.9700979 ] } },
{ "type": "Feature", "properties": { "osm_id": "9675093582", "name": null, "barrier": null, "highway": null, "ref": null, "address": null, "is_in": null, "place": null, "man_made": "torii", "other_tags": "\"material\"=>\"stone\",\"religion\"=>\"shinto\"", "area": null, "centroid_x": 135.7809521, "centroid_y": 34.9700049 }, "geometry": { "type": "Point", "coordinates": [ 135.7809521, 34.9700049 ] } },
{ "type": "Feature", "properties": { "osm_id": "9675093583", "name": null, "barrier": null, "highway": "street_lamp", "ref": null, "address": null, "is_in": null, "place": null, "man_made": null, "other_tags": null, "area": null, "centroid_x": 135.7809406, "centroid_y": 34.9699832 }, "geometry": { "type": "Point", "coordinates": [ 135.7809406, 34.9699832 ] } },
{ "type": "Feature", "properties": { "osm_id": "9675093584", "name": null, "barrier": null, "highway": "street_lamp", "ref": null, "address": null, "is_in": null, "place": null, "man_made": null, "other_tags": null, "area": null, "centroid_x": 135.7809942, "centroid_y": 34.9698711 }, "geometry": { "type": "Point", "coordinates": [ 135.7809942, 34.9698711 ] } },
{ "type": "Feature", "properties": { "osm_id": "9675093585", "name": null, "barrier": null, "highway": null, "ref": null, "address": null, "is_in": null, "place": null, "man_made": "torii", "other_tags": "\"material\"=>\"wood\",\"religion\"=>\"shinto\"", "area": null, "centroid_x": 135.7813044, "centroid_y": 34.9695513 }, "geometry": { "type": "Point", "coordinates": [ 135.78130440000001, 34.9695513 ] } },
{ "type": "Feature", "properties": { "osm_id": "9675093586", "name": null, "barrier": null, "highway": "street_lamp", "ref": null, "address": null, "is_in": null, "place": null, "man_made": null, "other_tags": null, "area": null, "centroid_x": 135.7813013, "centroid_y": 34.9695337 }, "geometry": { "type": "Point", "coordinates": [ 135.7813013, 34.9695337 ] } },
{ "type": "Feature", "properties": { "osm_id": "9675093587", "name": null, "barrier": null, "highway": "street_lamp", "ref": null, "address": null, "is_in": null, "place": null, "man_made": null, "other_tags": null, "area": null, "centroid_x": 135.7813516, "centroid_y": 34.9694546 }, "geometry": { "type": "Point", "coordinates": [ 135.7813516, 34.9694546 ] } },
{ "type": "Feature", "properties": { "osm_id": "9675093588", "name": "白瀧道", "barrier": null, "highway": null, "ref": null, "address": null, "is_in": null, "place": null, "man_made": null, "other_tags": "\"historic\"=>\"memorial\",\"memorial\"=>\"stele\"", "area": null, "centroid_x": 135.7814703, "centroid_y": 34.9692392 }, "geometry": { "type": "Point", "coordinates": [ 135.7814703, 34.9692392 ] } },
{ "type": "Feature", "properties": { "osm_id": "10107552545", "name": null, "barrier": null, "highway": null, "ref": null, "address": null, "is_in": null, "place": null, "man_made": null, "other_tags": "\"amenity\"=>\"vending_machine\",\"check_date\"=>\"2025-03-30\",\"operator\"=>\"Kirin\",\"vending\"=>\"drinks\"", "area": null, "centroid_x": 135.7804204, "centroid_y": 34.9697598 }, "geometry": { "type": "Point", "coordinates": [ 135.7804204, 34.9697598 ] } },
{ "type": "Feature", "properties": { "osm_id": "10107552546", "name": null, "barrier": null, "highway": null, "ref": null, "address": null, "is_in": null, "place": null, "man_made": null, "other_tags": "\"amenity\"=>\"vending_machine\",\"check_date\"=>\"2025-03-30\",\"operator\"=>\"Coca Cola\",\"vending\"=>\"drinks\"", "area": null, "centroid_x": 135.780427, "centroid_y": 34.9697658 }, "geometry": { "type": "Point", "coordinates": [ 135.780427, 34.9697658 ] } },
{ "type": "Feature", "properties": { "osm_id": "10107577310", "name": null, "barrier": null, "highway": null, "ref": null, "address": null, "is_in": null, "place": null, "man_made": null, "other_tags": "\"description\"=>\"Right, 7min, 325m Chhojyasha-shinseki/(Mitsurugisha); Left, 4min, 154m Nakasha-shinseki(Ninomine)\",\"information\"=>\"map\",\"tourism\"=>\"information\"", "area": null, "centroid_x": 135.7841123, "centroid_y": 34.9671768 }, "geometry": { "type": "Point", "coordinates": [ 135.7841123, 34.9671768 ] } },
{ "type": "Feature", "properties": { "osm_id": "10236493859", "name": "稲荷神社", "barrier": null, "highway": null, "ref": null, "address": null, "is_in": null, "place": null, "man_made": null, "other_tags": "\"historic\"=>\"memorial\",\"inscription\"=>\"官幣大社　稲荷神社\",\"material\"=>\"stone\",\"memorial\"=>\"stele\",\"start_date\"=>\"1875/08\"", "area": null, "centroid_x": 135.7718995, "centroid_y": 34.9671934 }, "geometry": { "type": "Point", "coordinates": [ 135.771899499999989, 34.9671934 ] } },
{ "type": "Feature", "properties": { "osm_id": "10236494264", "name": null, "barrier": null, "highway": null, "ref": null, "address": null, "is_in": null, "place": null, "man_made": "lamp", "other_tags": "\"material\"=>\"stone\"", "area": null, "centroid_x": 135.7718258, "centroid_y": 34.9671758 }, "geometry": { "type": "Point", "coordinates": [ 135.771825799999988, 34.9671758 ] } },
{ "type": "Feature", "properties": { "osm_id": "10236496678", "name": "熊野社", "barrier": null, "highway": null, "ref": null, "address": null, "is_in": null, "place": null, "man_made": null, "other_tags": "\"historic\"=>\"wayside_shrine\",\"religion\"=>\"shinto\"", "area": null, "centroid_x": 135.77178, "centroid_y": 34.9672911 }, "geometry": { "type": "Point", "coordinates": [ 135.77178, 34.9672911 ] } },
{ "type": "Feature", "properties": { "osm_id": "10236503541", "name": "藤尾社", "barrier": null, "highway": null, "ref": null, "address": null, "is_in": null, "place": null, "man_made": null, "other_tags": "\"historic\"=>\"wayside_shrine\",\"religion\"=>\"shinto\"", "area": null, "centroid_x": 135.7718244, "centroid_y": 34.9672898 }, "geometry": { "type": "Point", "coordinates": [ 135.771824400000014, 34.9672898 ] } },
{ "type": "Feature", "properties": { "osm_id": "10236503542", "name": "霊魂社", "barrier": null, "highway": null, "ref": null, "address": null, "is_in": null, "place": null, "man_made": null, "other_tags": "\"historic\"=>\"wayside_shrine\",\"religion\"=>\"shinto\"", "area": null, "centroid_x": 135.7718754, "centroid_y": 34.967289 }, "geometry": { "type": "Point", "coordinates": [ 135.7718754, 34.967289 ] } },
{ "type": "Feature", "properties": { "osm_id": "10236505915", "name": null, "barrier": null, "highway": null, "ref": null, "address": null, "is_in": null, "place": null, "man_made": "lamp", "other_tags": "\"material\"=>\"stone\"", "area": null, "centroid_x": 135.7718995, "centroid_y": 34.967178 }, "geometry": { "type": "Point", "coordinates": [ 135.771899499999989, 34.967178 ] } },
{ "type": "Feature", "properties": { "osm_id": "10236510264", "name": null, "barrier": null, "highway": null, "ref": null, "address": null, "is_in": null, "place": null, "man_made": "lamp", "other_tags": "\"material\"=>\"stone\"", "area": null, "centroid_x": 135.7718097, "centroid_y": 34.967266 }, "geometry": { "type": "Point", "coordinates": [ 135.7718097, 34.967266 ] } },
{ "type": "Feature", "properties": { "osm_id": "10236510265", "name": null, "barrier": null, "highway": null, "ref": null, "address": null, "is_in": null, "place": null, "man_made": "lamp", "other_tags": "\"material\"=>\"stone\"", "area": null, "centroid_x": 135.7718432, "centroid_y": 34.9672654 }, "geometry": { "type": "Point", "coordinates": [ 135.7718432, 34.9672654 ] } },
{ "type": "Feature", "properties": { "osm_id": "10237865789", "name": null, "barrier": null, "highway": null, "ref": null, "address": null, "is_in": null, "place": null, "man_made": "lamp", "other_tags": "\"material\"=>\"wood\"", "area": null, "centroid_x": 135.7710841, "centroid_y": 34.9670868 }, "geometry": { "type": "Point", "coordinates": [ 135.7710841, 34.9670868 ] } },
{ "type": "Feature", "properties": { "osm_id": "10237865790", "name": null, "barrier": null, "highway": null, "ref": null, "address": null, "is_in": null, "place": null, "man_made": "lamp", "other_tags": "\"material\"=>\"wood\"", "area": null, "centroid_x": 135.7710868, "centroid_y": 34.9670011 }, "geometry": { "type": "Point", "coordinates": [ 135.7710868, 34.9670011 ] } },
{ "type": "Feature", "properties": { "osm_id": "10237876230", "name": "伏見庵稲荷大社", "barrier": null, "highway": null, "ref": null, "address": null, "is_in": null, "place": null, "man_made": null, "other_tags": "\"historic\"=>\"memorial\",\"inscription\"=>\"伏見稲荷大社\",\"material\"=>\"stone\",\"memorial\"=>\"stone\"", "area": null, "centroid_x": 135.7710446, "centroid_y": 34.9669676 }, "geometry": { "type": "Point", "coordinates": [ 135.77104460000001, 34.9669676 ] } },
{ "type": "Feature", "properties": { "osm_id": "10241756592", "name": null, "barrier": null, "highway": "street_lamp", "ref": null, "address": null, "is_in": null, "place": null, "man_made": null, "other_tags": "\"lamp_mount\"=>\"straight_mast\",\"lamp_type\"=>\"electric\"", "area": null, "centroid_x": 135.7717629, "centroid_y": 34.9672676 }, "geometry": { "type": "Point", "coordinates": [ 135.7717629, 34.9672676 ] } },
{ "type": "Feature", "properties": { "osm_id": "10241756593", "name": null, "barrier": null, "highway": "street_lamp", "ref": null, "address": null, "is_in": null, "place": null, "man_made": null, "other_tags": "\"lamp_mount\"=>\"straight_mast\",\"lamp_type\"=>\"electric\"", "area": null, "centroid_x": 135.7718895, "centroid_y": 34.967269 }, "geometry": { "type": "Point", "coordinates": [ 135.771889499999986, 34.967269 ] } },
{ "type": "Feature", "properties": { "osm_id": "10564299665", "name": null, "barrier": null, "highway": null, "ref": null, "address": null, "is_in": null, "place": null, "man_made": null, "other_tags": "\"natural\"=>\"tree\"", "area": null, "centroid_x": 135.7720274, "centroid_y": 34.9671881 }, "geometry": { "type": "Point", "coordinates": [ 135.772027400000013, 34.9671881 ] } },
{ "type": "Feature", "properties": { "osm_id": "10564299671", "name": null, "barrier": null, "highway": null, "ref": null, "address": null, "is_in": null, "place": null, "man_made": null, "other_tags": "\"natural\"=>\"tree\"", "area": null, "centroid_x": 135.7723824, "centroid_y": 34.9672245 }, "geometry": { "type": "Point", "coordinates": [ 135.7723824, 34.9672245 ] } },
{ "type": "Feature", "properties": { "osm_id": "10564299672", "name": null, "barrier": null, "highway": null, "ref": null, "address": null, "is_in": null, "place": null, "man_made": null, "other_tags": "\"natural\"=>\"tree\"", "area": null, "centroid_x": 135.7723511, "centroid_y": 34.9672486 }, "geometry": { "type": "Point", "coordinates": [ 135.7723511, 34.9672486 ] } },
{ "type": "Feature", "properties": { "osm_id": "10564299673", "name": null, "barrier": null, "highway": null, "ref": null, "address": null, "is_in": null, "place": null, "man_made": null, "other_tags": "\"natural\"=>\"tree\"", "area": null, "centroid_x": 135.7723022, "centroid_y": 34.9672452 }, "geometry": { "type": "Point", "coordinates": [ 135.772302200000013, 34.9672452 ] } },
{ "type": "Feature", "properties": { "osm_id": "10564299677", "name": null, "barrier": null, "highway": null, "ref": null, "address": null, "is_in": null, "place": null, "man_made": null, "other_tags": "\"denotation\"=>\"urban\",\"genus\"=>\"Cinnamomum\",\"leaf_cycle\"=>\"evergreen\",\"leaf_type\"=>\"broadleaved\",\"natural\"=>\"tree\",\"species\"=>\"Cinnamomum camphora\",\"species:en\"=>\"Camphorwood\",\"species:ja\"=>\"クスノキ\",\"taxon\"=>\"Cinnamomum camphora\"", "area": null, "centroid_x": 135.7721653, "centroid_y": 34.9670284 }, "geometry": { "type": "Point", "coordinates": [ 135.772165300000012, 34.9670284 ] } },
{ "type": "Feature", "properties": { "osm_id": "10564299686", "name": null, "barrier": null, "highway": null, "ref": null, "address": null, "is_in": null, "place": null, "man_made": null, "other_tags": "\"natural\"=>\"tree\"", "area": null, "centroid_x": 135.7730538, "centroid_y": 34.9668723 }, "geometry": { "type": "Point", "coordinates": [ 135.773053800000014, 34.9668723 ] } },
{ "type": "Feature", "properties": { "osm_id": "10564299691", "name": null, "barrier": null, "highway": null, "ref": null, "address": null, "is_in": null, "place": null, "man_made": null, "other_tags": "\"natural\"=>\"tree\"", "area": null, "centroid_x": 135.7730976, "centroid_y": 34.9672279 }, "geometry": { "type": "Point", "coordinates": [ 135.7730976, 34.9672279 ] } },
{ "type": "Feature", "properties": { "osm_id": "10564299693", "name": null, "barrier": null, "highway": null, "ref": null, "address": null, "is_in": null, "place": null, "man_made": null, "other_tags": "\"entrance\"=>\"main\"", "area": null, "centroid_x": 135.7731245, "centroid_y": 34.9674748 }, "geometry": { "type": "Point", "coordinates": [ 135.7731245, 34.9674748 ] } },
{ "type": "Feature", "properties": { "osm_id": "10564305264", "name": null, "barrier": null, "highway": null, "ref": null, "address": null, "is_in": null, "place": null, "man_made": null, "other_tags": "\"artwork_type\"=>\"statue\",\"tourism\"=>\"artwork\"", "area": null, "centroid_x": 135.7730244, "centroid_y": 34.967226 }, "geometry": { "type": "Point", "coordinates": [ 135.7730244, 34.967226 ] } },
{ "type": "Feature", "properties": { "osm_id": "10564305265", "name": null, "barrier": null, "highway": null, "ref": null, "address": null, "is_in": null, "place": null, "man_made": null, "other_tags": "\"artwork_type\"=>\"statue\",\"tourism\"=>\"artwork\"", "area": null, "centroid_x": 135.7730423, "centroid_y": 34.9670813 }, "geometry": { "type": "Point", "coordinates": [ 135.773042299999986, 34.9670813 ] } },
{ "type": "Feature", "properties": { "osm_id": "10564305266", "name": null, "barrier": null, "highway": null, "ref": null, "address": null, "is_in": null, "place": null, "man_made": null, "other_tags": "\"natural\"=>\"tree\"", "area": null, "centroid_x": 135.772894, "centroid_y": 34.9673286 }, "geometry": { "type": "Point", "coordinates": [ 135.772894, 34.9673286 ] } },
{ "type": "Feature", "properties": { "osm_id": "10564305277", "name": null, "barrier": null, "highway": null, "ref": null, "address": null, "is_in": null, "place": null, "man_made": null, "other_tags": "\"information\"=>\"guidepost\",\"tourism\"=>\"information\"", "area": null, "centroid_x": 135.772858, "centroid_y": 34.967325 }, "geometry": { "type": "Point", "coordinates": [ 135.772858, 34.967325 ] } },
{ "type": "Feature", "properties": { "osm_id": "10564305301", "name": null, "barrier": null, "highway": null, "ref": null, "address": null, "is_in": null, "place": null, "man_made": null, "other_tags": "\"artwork_type\"=>\"statue\",\"tourism\"=>\"artwork\"", "area": null, "centroid_x": 135.7737681, "centroid_y": 34.967367 }, "geometry": { "type": "Point", "coordinates": [ 135.773768100000012, 34.967367 ] } },
{ "type": "Feature", "properties": { "osm_id": "10564305302", "name": null, "barrier": null, "highway": null, "ref": null, "address": null, "is_in": null, "place": null, "man_made": null, "other_tags": "\"artwork_type\"=>\"statue\",\"tourism\"=>\"artwork\"", "area": null, "centroid_x": 135.7737066, "centroid_y": 34.9673693 }, "geometry": { "type": "Point", "coordinates": [ 135.7737066, 34.9673693 ] } },
{ "type": "Feature", "properties": { "osm_id": "10564313414", "name": null, "barrier": null, "highway": null, "ref": null, "address": null, "is_in": null, "place": null, "man_made": null, "other_tags": "\"natural\"=>\"tree\"", "area": null, "centroid_x": 135.7725773, "centroid_y": 34.9676436 }, "geometry": { "type": "Point", "coordinates": [ 135.7725773, 34.9676436 ] } },
{ "type": "Feature", "properties": { "osm_id": "10564313415", "name": null, "barrier": null, "highway": null, "ref": null, "address": null, "is_in": null, "place": null, "man_made": null, "other_tags": "\"natural\"=>\"tree\"", "area": null, "centroid_x": 135.7720669, "centroid_y": 34.9676941 }, "geometry": { "type": "Point", "coordinates": [ 135.7720669, 34.9676941 ] } },
{ "type": "Feature", "properties": { "osm_id": "10564318621", "name": null, "barrier": null, "highway": null, "ref": null, "address": null, "is_in": null, "place": null, "man_made": null, "other_tags": "\"natural\"=>\"tree\"", "area": null, "centroid_x": 135.7725621, "centroid_y": 34.9670164 }, "geometry": { "type": "Point", "coordinates": [ 135.772562099999988, 34.9670164 ] } },
{ "type": "Feature", "properties": { "osm_id": "10564318622", "name": "手水舎", "barrier": null, "highway": null, "ref": null, "address": null, "is_in": null, "place": null, "man_made": "water_tap", "other_tags": "\"covered\"=>\"yes\",\"drinking_water\"=>\"no\",\"name:ja-Hira\"=>\"ちょうずや\",\"name:ja-Latn\"=>\"Chōzuya\",\"name:ja_rm\"=>\"Chouzusha\",\"religion\"=>\"shinto\"", "area": null, "centroid_x": 135.7725938, "centroid_y": 34.9672688 }, "geometry": { "type": "Point", "coordinates": [ 135.77259380000001, 34.9672688 ] } },
{ "type": "Feature", "properties": { "osm_id": "10564318624", "name": null, "barrier": null, "highway": null, "ref": null, "address": null, "is_in": null, "place": null, "man_made": null, "other_tags": "\"information\"=>\"map\",\"tourism\"=>\"information\"", "area": null, "centroid_x": 135.7728258, "centroid_y": 34.9673321 }, "geometry": { "type": "Point", "coordinates": [ 135.7728258, 34.9673321 ] } },
{ "type": "Feature", "properties": { "osm_id": "10774454781", "name": "小出淡路守奉納の手水鉢", "barrier": null, "highway": null, "ref": null, "address": null, "is_in": null, "place": null, "man_made": "water_tap", "other_tags": "\"drinking_water\"=>\"no\",\"start_date\"=>\"1694\"", "area": null, "centroid_x": 135.7720578, "centroid_y": 34.9672187 }, "geometry": { "type": "Point", "coordinates": [ 135.7720578, 34.9672187 ] } },
{ "type": "Feature", "properties": { "osm_id": "10774454782", "name": "常夜燈", "barrier": null, "highway": null, "ref": null, "address": null, "is_in": null, "place": null, "man_made": "lamp", "other_tags": "\"material\"=>\"stone\",\"start_date\"=>\"1771\"", "area": null, "centroid_x": 135.7720752, "centroid_y": 34.9671824 }, "geometry": { "type": "Point", "coordinates": [ 135.772075199999989, 34.9671824 ] } },
{ "type": "Feature", "properties": { "osm_id": "10775141388", "name": null, "barrier": null, "highway": null, "ref": null, "address": null, "is_in": null, "place": null, "man_made": "lamp", "other_tags": "\"material\"=>\"stone\"", "area": null, "centroid_x": 135.7725714, "centroid_y": 34.9672605 }, "geometry": { "type": "Point", "coordinates": [ 135.7725714, 34.9672605 ] } },
{ "type": "Feature", "properties": { "osm_id": "10775165309", "name": null, "barrier": null, "highway": null, "ref": null, "address": null, "is_in": null, "place": null, "man_made": "lamp", "other_tags": "\"material\"=>\"stone\"", "area": null, "centroid_x": 135.7724749, "centroid_y": 34.9674352 }, "geometry": { "type": "Point", "coordinates": [ 135.7724749, 34.9674352 ] } },
{ "type": "Feature", "properties": { "osm_id": "10775168006", "name": "史蹟　荷田東満舊宅", "barrier": null, "highway": null, "ref": null, "address": null, "is_in": null, "place": null, "man_made": null, "other_tags": "\"historic\"=>\"memorial\",\"start_date\"=>\"1922-03\"", "area": null, "centroid_x": 135.7728225, "centroid_y": 34.9669813 }, "geometry": { "type": "Point", "coordinates": [ 135.7728225, 34.9669813 ] } },
{ "type": "Feature", "properties": { "osm_id": "10775187904", "name": null, "barrier": null, "highway": null, "ref": null, "address": null, "is_in": null, "place": null, "man_made": null, "other_tags": "\"artwork_type\"=>\"stone\",\"tourism\"=>\"artwork\"", "area": null, "centroid_x": 135.7726479, "centroid_y": 34.9666758 }, "geometry": { "type": "Point", "coordinates": [ 135.77264790000001, 34.9666758 ] } },
{ "type": "Feature", "properties": { "osm_id": "10775232557", "name": "伏見稲荷大社大社　松の下屋", "barrier": null, "highway": null, "ref": null, "address": null, "is_in": null, "place": null, "man_made": null, "other_tags": "\"board_type\"=>\"history\",\"information\"=>\"board\",\"tourism\"=>\"information\"", "area": null, "centroid_x": 135.7729898, "centroid_y": 34.9667953 }, "geometry": { "type": "Point", "coordinates": [ 135.7729898, 34.9667953 ] } },
{ "type": "Feature", "properties": { "osm_id": "10964856508", "name": null, "barrier": null, "highway": null, "ref": null, "address": null, "is_in": null, "place": null, "man_made": null, "other_tags": "\"artwork_type\"=>\"statue\",\"note:en\"=>\"Guardian fox\",\"tourism\"=>\"artwork\"", "area": null, "centroid_x": 135.7725721, "centroid_y": 34.9671613 }, "geometry": { "type": "Point", "coordinates": [ 135.7725721, 34.9671613 ] } },
{ "type": "Feature", "properties": { "osm_id": "10964856509", "name": null, "barrier": null, "highway": null, "ref": null, "address": null, "is_in": null, "place": null, "man_made": null, "other_tags": "\"artwork_type\"=>\"statue\",\"note:en\"=>\"Guardian fox\",\"tourism\"=>\"artwork\"", "area": null, "centroid_x": 135.7725795, "centroid_y": 34.9670857 }, "geometry": { "type": "Point", "coordinates": [ 135.7725795, 34.9670857 ] } },
{ "type": "Feature", "properties": { "osm_id": "10964856510", "name": "伏見稲荷大社　楼門", "barrier": null, "highway": null, "ref": null, "address": null, "is_in": null, "place": null, "man_made": null, "other_tags": "\"board_type\"=>\"history\",\"information\"=>\"board\",\"material\"=>\"wood\",\"operator\"=>\"京都市\",\"tourism\"=>\"information\"", "area": null, "centroid_x": 135.7725433, "centroid_y": 34.9670758 }, "geometry": { "type": "Point", "coordinates": [ 135.7725433, 34.9670758 ] } },
{ "type": "Feature", "properties": { "osm_id": "10964864699", "name": "常夜燈", "barrier": null, "highway": null, "ref": null, "address": null, "is_in": null, "place": null, "man_made": "lamp", "other_tags": "\"material\"=>\"stone\",\"operator\"=>\"西京　鋳物師組合　信者中\",\"start_date\"=>\"1818-09\"", "area": null, "centroid_x": 135.7725982, "centroid_y": 34.9670159 }, "geometry": { "type": "Point", "coordinates": [ 135.7725982, 34.9670159 ] } },
{ "type": "Feature", "properties": { "osm_id": "10964870340", "name": "前川佐美雄　歌碑", "barrier": null, "highway": null, "ref": null, "address": null, "is_in": null, "place": null, "man_made": null, "other_tags": "\"artwork_type\"=>\"stone\",\"tourism\"=>\"artwork\"", "area": null, "centroid_x": 135.7725319, "centroid_y": 34.9670319 }, "geometry": { "type": "Point", "coordinates": [ 135.7725319, 34.9670319 ] } },
{ "type": "Feature", "properties": { "osm_id": "10964870341", "name": "御鎮座千二百五十年奉祝大祭記念の碑", "barrier": null, "highway": null, "ref": null, "address": null, "is_in": null, "place": null, "man_made": null, "other_tags": "\"historic\"=>\"memorial\",\"material\"=>\"stone\",\"memorial\"=>\"plaque\"", "area": null, "centroid_x": 135.7725607, "centroid_y": 34.9670544 }, "geometry": { "type": "Point", "coordinates": [ 135.772560700000014, 34.9670544 ] } },
{ "type": "Feature", "properties": { "osm_id": "10964871773", "name": "車いす・歩行に支障のある方用のエレベーター", "barrier": null, "highway": null, "ref": null, "address": null, "is_in": null, "place": null, "man_made": null, "other_tags": "\"board_type\"=>\"notice\",\"description\"=>\"利用可能時間　8：00～17：00\",\"information\"=>\"board\",\"tourism\"=>\"information\"", "area": null, "centroid_x": 135.7724775, "centroid_y": 34.9669852 }, "geometry": { "type": "Point", "coordinates": [ 135.7724775, 34.9669852 ] } },
{ "type": "Feature", "properties": { "osm_id": "10964871774", "name": "東丸神社", "barrier": null, "highway": null, "ref": null, "address": null, "is_in": null, "place": null, "man_made": null, "other_tags": "\"historic\"=>\"memorial\",\"material\"=>\"stone\",\"start_date\"=>\"1960-01\"", "area": null, "centroid_x": 135.772841, "centroid_y": 34.9669786 }, "geometry": { "type": "Point", "coordinates": [ 135.772841, 34.9669786 ] } },
{ "type": "Feature", "properties": { "osm_id": "11017955705", "name": "奥宮", "barrier": null, "highway": null, "ref": null, "address": null, "is_in": null, "place": null, "man_made": null, "other_tags": "\"amenity\"=>\"place_of_worship\",\"name:en\"=>\"Rear Shrine\",\"name:ja\"=>\"奥宮\",\"name:ja-Hira\"=>\"おくみや\",\"name:ja-Latn\"=>\"Okumiya\",\"name:ja_rm\"=>\"Okumiya\",\"opening_hours\"=>\"24/7\",\"religion\"=>\"shinto\"", "area": null, "centroid_x": 135.7740236, "centroid_y": 34.9672832 }, "geometry": { "type": "Point", "coordinates": [ 135.7740236, 34.9672832 ] } },
{ "type": "Feature", "properties": { "osm_id": "11740351999", "name": "熊野社", "barrier": null, "highway": null, "ref": null, "address": null, "is_in": null, "place": null, "man_made": null, "other_tags": "\"board_type\"=>\"history\",\"description\"=>\"由緒\",\"information\"=>\"board\",\"material\"=>\"wood\",\"tourism\"=>\"information\"", "area": null, "centroid_x": 135.7717694, "centroid_y": 34.9672825 }, "geometry": { "type": "Point", "coordinates": [ 135.771769400000011, 34.9672825 ] } },
{ "type": "Feature", "properties": { "osm_id": "11740352000", "name": "藤尾社", "barrier": null, "highway": null, "ref": null, "address": null, "is_in": null, "place": null, "man_made": null, "other_tags": "\"board_type\"=>\"history\",\"description\"=>\"由緒\",\"information\"=>\"board\",\"material\"=>\"wood\",\"tourism\"=>\"information\"", "area": null, "centroid_x": 135.7718127, "centroid_y": 34.9672814 }, "geometry": { "type": "Point", "coordinates": [ 135.7718127, 34.9672814 ] } },
{ "type": "Feature", "properties": { "osm_id": "11740352001", "name": "霊魂社", "barrier": null, "highway": null, "ref": null, "address": null, "is_in": null, "place": null, "man_made": null, "other_tags": "\"board_type\"=>\"history\",\"description\"=>\"由緒\",\"information\"=>\"board\",\"material\"=>\"wood\",\"tourism\"=>\"information\"", "area": null, "centroid_x": 135.7718626, "centroid_y": 34.9672803 }, "geometry": { "type": "Point", "coordinates": [ 135.7718626, 34.9672803 ] } },
{ "type": "Feature", "properties": { "osm_id": "11740378085", "name": null, "barrier": null, "highway": null, "ref": null, "address": null, "is_in": null, "place": null, "man_made": null, "other_tags": "\"emergency\"=>\"suction_point\"", "area": null, "centroid_x": 135.7729952, "centroid_y": 34.9669742 }, "geometry": { "type": "Point", "coordinates": [ 135.7729952, 34.9669742 ] } },
{ "type": "Feature", "properties": { "osm_id": "11740378086", "name": "常夜燈", "barrier": null, "highway": null, "ref": null, "address": null, "is_in": null, "place": null, "man_made": "lamp", "other_tags": "\"material\"=>\"stone\"", "area": null, "centroid_x": 135.7730482, "centroid_y": 34.9669654 }, "geometry": { "type": "Point", "coordinates": [ 135.7730482, 34.9669654 ] } },
{ "type": "Feature", "properties": { "osm_id": "11740378087", "name": null, "barrier": null, "highway": "street_lamp", "ref": null, "address": null, "is_in": null, "place": null, "man_made": null, "other_tags": "\"lamp_mount\"=>\"straight_mast\",\"lamp_type\"=>\"electric\"", "area": null, "centroid_x": 135.7730576, "centroid_y": 34.9668588 }, "geometry": { "type": "Point", "coordinates": [ 135.773057599999987, 34.9668588 ] } },
{ "type": "Feature", "properties": { "osm_id": "11740378088", "name": null, "barrier": null, "highway": null, "ref": null, "address": null, "is_in": null, "place": null, "man_made": null, "other_tags": "\"genus\"=>\"Cinnamomum\",\"leaf_cycle\"=>\"evergreen\",\"leaf_type\"=>\"broadleaved\",\"natural\"=>\"tree\",\"species\"=>\"Cinnamomum camphora\",\"species:en\"=>\"Camphorwood\",\"species:ja\"=>\"クスノキ\",\"taxon\"=>\"Cinnamomum camphora\"", "area": null, "centroid_x": 135.7730442, "centroid_y": 34.9668472 }, "geometry": { "type": "Point", "coordinates": [ 135.773044199999987, 34.9668472 ] } },
{ "type": "Feature", "properties": { "osm_id": "11740378089", "name": "なんじゃもんじゃの木", "barrier": null, "highway": null, "ref": null, "address": null, "is_in": null, "place": null, "man_made": null, "other_tags": "\"board_type\"=>\"history\",\"description\"=>\"樹木解説\",\"information\"=>\"board\",\"material\"=>\"wood\",\"tourism\"=>\"information\"", "area": null, "centroid_x": 135.7730502, "centroid_y": 34.9668874 }, "geometry": { "type": "Point", "coordinates": [ 135.7730502, 34.9668874 ] } },
{ "type": "Feature", "properties": { "osm_id": "11740378090", "name": "神供水", "barrier": null, "highway": null, "ref": null, "address": null, "is_in": null, "place": null, "man_made": null, "other_tags": "\"artwork_type\"=>\"stone\",\"tourism\"=>\"artwork\"", "area": null, "centroid_x": 135.7730495, "centroid_y": 34.9669148 }, "geometry": { "type": "Point", "coordinates": [ 135.773049500000013, 34.9669148 ] } },
{ "type": "Feature", "properties": { "osm_id": "11740378091", "name": null, "barrier": "gate", "highway": null, "ref": null, "address": null, "is_in": null, "place": null, "man_made": null, "other_tags": "\"access\"=>\"yes\",\"foot\"=>\"yes\",\"material\"=>\"wood\",\"vehicle\"=>\"no\"", "area": null, "centroid_x": 135.7718928, "centroid_y": 34.9670308 }, "geometry": { "type": "Point", "coordinates": [ 135.771892799999989, 34.9670308 ] } },
{ "type": "Feature", "properties": { "osm_id": "11774997222", "name": "竹林の静宮　神宝神社", "barrier": null, "highway": null, "ref": null, "address": null, "is_in": null, "place": null, "man_made": null, "other_tags": "\"board_type\"=>\"history\",\"description\"=>\"竹林の静宮　神宝神社　徒歩二分\",\"information\"=>\"board\",\"material\"=>\"wood\",\"tourism\"=>\"information\"", "area": null, "centroid_x": 135.7754545, "centroid_y": 34.9668761 }, "geometry": { "type": "Point", "coordinates": [ 135.7754545, 34.9668761 ] } },
{ "type": "Feature", "properties": { "osm_id": "11774997223", "name": null, "barrier": null, "highway": null, "ref": null, "address": null, "is_in": null, "place": null, "man_made": "torii", "other_tags": "\"material\"=>\"wood\",\"religion\"=>\"shinto\"", "area": null, "centroid_x": 135.7753884, "centroid_y": 34.9668548 }, "geometry": { "type": "Point", "coordinates": [ 135.7753884, 34.9668548 ] } },
{ "type": "Feature", "properties": { "osm_id": "11774997224", "name": null, "barrier": null, "highway": null, "ref": null, "address": null, "is_in": null, "place": null, "man_made": "torii", "other_tags": "\"material\"=>\"wood\",\"religion\"=>\"shinto\"", "area": null, "centroid_x": 135.77538, "centroid_y": 34.9669097 }, "geometry": { "type": "Point", "coordinates": [ 135.77538, 34.9669097 ] } },
{ "type": "Feature", "properties": { "osm_id": "11774997225", "name": null, "barrier": null, "highway": null, "ref": null, "address": null, "is_in": null, "place": null, "man_made": "torii", "other_tags": "\"material\"=>\"wood\",\"religion\"=>\"shinto\"", "area": null, "centroid_x": 135.775372, "centroid_y": 34.96691 }, "geometry": { "type": "Point", "coordinates": [ 135.775372, 34.96691 ] } },
{ "type": "Feature", "properties": { "osm_id": "11775001968", "name": null, "barrier": null, "highway": null, "ref": null, "address": null, "is_in": null, "place": null, "man_made": "torii", "other_tags": "\"material\"=>\"stone\",\"religion\"=>\"shinto\"", "area": null, "centroid_x": 135.7834196, "centroid_y": 34.9692255 }, "geometry": { "type": "Point", "coordinates": [ 135.7834196, 34.9692255 ] } },
{ "type": "Feature", "properties": { "osm_id": "11775043272", "name": "御神燈", "barrier": null, "highway": null, "ref": null, "address": null, "is_in": null, "place": null, "man_made": "lamp", "other_tags": "\"material\"=>\"stone\"", "area": null, "centroid_x": 135.775493, "centroid_y": 34.9665762 }, "geometry": { "type": "Point", "coordinates": [ 135.775493, 34.9665762 ] } },
{ "type": "Feature", "properties": { "osm_id": "11775043273", "name": "御神燈", "barrier": null, "highway": null, "ref": null, "address": null, "is_in": null, "place": null, "man_made": "lamp", "other_tags": "\"material\"=>\"stone\"", "area": null, "centroid_x": 135.7754652, "centroid_y": 34.9665741 }, "geometry": { "type": "Point", "coordinates": [ 135.775465200000014, 34.9665741 ] } },
{ "type": "Feature", "properties": { "osm_id": "11775043274", "name": null, "barrier": null, "highway": null, "ref": null, "address": null, "is_in": null, "place": null, "man_made": null, "other_tags": "\"artwork_type\"=>\"statue\",\"note:en\"=>\"Guardian fox\",\"tourism\"=>\"artwork\"", "area": null, "centroid_x": 135.7754947, "centroid_y": 34.9665844 }, "geometry": { "type": "Point", "coordinates": [ 135.7754947, 34.9665844 ] } },
{ "type": "Feature", "properties": { "osm_id": "11775043275", "name": null, "barrier": null, "highway": null, "ref": null, "address": null, "is_in": null, "place": null, "man_made": null, "other_tags": "\"artwork_type\"=>\"statue\",\"note:en\"=>\"Guardian fox\",\"tourism\"=>\"artwork\"", "area": null, "centroid_x": 135.7754632, "centroid_y": 34.9665821 }, "geometry": { "type": "Point", "coordinates": [ 135.7754632, 34.9665821 ] } },
{ "type": "Feature", "properties": { "osm_id": "11775043276", "name": "お山参詣道", "barrier": null, "highway": null, "ref": null, "address": null, "is_in": null, "place": null, "man_made": null, "other_tags": "\"hiking\"=>\"yes\",\"information\"=>\"guidepost\",\"tourism\"=>\"information\"", "area": null, "centroid_x": 135.7754239, "centroid_y": 34.9665395 }, "geometry": { "type": "Point", "coordinates": [ 135.7754239, 34.9665395 ] } },
{ "type": "Feature", "properties": { "osm_id": "11775043277", "name": null, "barrier": null, "highway": null, "ref": null, "address": null, "is_in": null, "place": null, "man_made": null, "other_tags": "\"emergency\"=>\"fire_hydrant\",\"fire_hydrant:position\"=>\"sidewalk\",\"fire_hydrant:type\"=>\"wall\"", "area": null, "centroid_x": 135.7754343, "centroid_y": 34.966545 }, "geometry": { "type": "Point", "coordinates": [ 135.7754343, 34.966545 ] } },
{ "type": "Feature", "properties": { "osm_id": "11775043282", "name": null, "barrier": null, "highway": null, "ref": null, "address": null, "is_in": null, "place": null, "man_made": "water_tap", "other_tags": "\"drinking_water\"=>\"no\"", "area": null, "centroid_x": 135.7754541, "centroid_y": 34.9665412 }, "geometry": { "type": "Point", "coordinates": [ 135.7754541, 34.9665412 ] } },
{ "type": "Feature", "properties": { "osm_id": "11775080798", "name": "稲荷山　復元記念之碑", "barrier": null, "highway": null, "ref": null, "address": null, "is_in": null, "place": null, "man_made": null, "other_tags": "\"historic\"=>\"memorial\",\"material\"=>\"stone\",\"memorial\"=>\"plaque\",\"start_date\"=>\"1963-02-08\"", "area": null, "centroid_x": 135.7748969, "centroid_y": 34.9677498 }, "geometry": { "type": "Point", "coordinates": [ 135.774896899999987, 34.9677498 ] } },
{ "type": "Feature", "properties": { "osm_id": "11775080799", "name": "お山参詣道／御本社へ二丁", "barrier": null, "highway": null, "ref": null, "address": null, "is_in": null, "place": null, "man_made": null, "other_tags": "\"hiking\"=>\"yes\",\"information\"=>\"guidepost\",\"tourism\"=>\"information\"", "area": null, "centroid_x": 135.7756268, "centroid_y": 34.9679251 }, "geometry": { "type": "Point", "coordinates": [ 135.7756268, 34.9679251 ] } },
{ "type": "Feature", "properties": { "osm_id": "11775080800", "name": "お山参詣道／神苑", "barrier": null, "highway": null, "ref": null, "address": null, "is_in": null, "place": null, "man_made": null, "other_tags": "\"hiking\"=>\"yes\",\"information\"=>\"guidepost\",\"tourism\"=>\"information\"", "area": null, "centroid_x": 135.77624, "centroid_y": 34.9679468 }, "geometry": { "type": "Point", "coordinates": [ 135.77624, 34.9679468 ] } },
{ "type": "Feature", "properties": { "osm_id": "11775080801", "name": null, "barrier": null, "highway": null, "ref": null, "address": null, "is_in": null, "place": null, "man_made": "lamp", "other_tags": "\"material\"=>\"stone\"", "area": null, "centroid_x": 135.7756362, "centroid_y": 34.9679296 }, "geometry": { "type": "Point", "coordinates": [ 135.7756362, 34.9679296 ] } },
{ "type": "Feature", "properties": { "osm_id": "11775080802", "name": null, "barrier": null, "highway": null, "ref": null, "address": null, "is_in": null, "place": null, "man_made": "lamp", "other_tags": "\"material\"=>\"stone\"", "area": null, "centroid_x": 135.7756097, "centroid_y": 34.9679237 }, "geometry": { "type": "Point", "coordinates": [ 135.7756097, 34.9679237 ] } },
{ "type": "Feature", "properties": { "osm_id": "11775086060", "name": null, "barrier": null, "highway": null, "ref": null, "address": null, "is_in": null, "place": null, "man_made": "torii", "other_tags": "\"material\"=>\"stone\",\"religion\"=>\"shinto\"", "area": null, "centroid_x": 135.7839024, "centroid_y": 34.9693716 }, "geometry": { "type": "Point", "coordinates": [ 135.783902399999988, 34.9693716 ] } },
{ "type": "Feature", "properties": { "osm_id": "11775086061", "name": null, "barrier": null, "highway": null, "ref": null, "address": null, "is_in": null, "place": null, "man_made": null, "other_tags": "\"board_type\"=>\"history\",\"description\"=>\"祈祷殿　由緒\",\"information\"=>\"board\",\"material\"=>\"wood\",\"tourism\"=>\"information\"", "area": null, "centroid_x": 135.7839386, "centroid_y": 34.969509 }, "geometry": { "type": "Point", "coordinates": [ 135.7839386, 34.969509 ] } },
{ "type": "Feature", "properties": { "osm_id": "11775086062", "name": null, "barrier": null, "highway": "street_lamp", "ref": null, "address": null, "is_in": null, "place": null, "man_made": null, "other_tags": "\"lamp_mount\"=>\"straight_mast\",\"lamp_type\"=>\"electric\"", "area": null, "centroid_x": 135.7835876, "centroid_y": 34.969453 }, "geometry": { "type": "Point", "coordinates": [ 135.7835876, 34.969453 ] } },
{ "type": "Feature", "properties": { "osm_id": "11775086063", "name": "稲荷山案内図", "barrier": null, "highway": null, "ref": null, "address": null, "is_in": null, "place": null, "man_made": null, "other_tags": "\"hiking\"=>\"yes\",\"information\"=>\"map\",\"map_size\"=>\"site\",\"map_type\"=>\"scheme\",\"tourism\"=>\"information\"", "area": null, "centroid_x": 135.7835785, "centroid_y": 34.9694329 }, "geometry": { "type": "Point", "coordinates": [ 135.7835785, 34.9694329 ] } },
{ "type": "Feature", "properties": { "osm_id": "11775086064", "name": "御膳谷御塚配置図", "barrier": null, "highway": null, "ref": null, "address": null, "is_in": null, "place": null, "man_made": null, "other_tags": "\"hiking\"=>\"yes\",\"information\"=>\"map\",\"map_size\"=>\"site\",\"map_type\"=>\"scheme\",\"tourism\"=>\"information\"", "area": null, "centroid_x": 135.7835872, "centroid_y": 34.9694464 }, "geometry": { "type": "Point", "coordinates": [ 135.7835872, 34.9694464 ] } },
{ "type": "Feature", "properties": { "osm_id": "11775086065", "name": null, "barrier": null, "highway": null, "ref": null, "address": null, "is_in": null, "place": null, "man_made": null, "other_tags": "\"artwork_type\"=>\"statue\",\"note:en\"=>\"Guardian dog\",\"tourism\"=>\"artwork\"", "area": null, "centroid_x": 135.7836067, "centroid_y": 34.9694593 }, "geometry": { "type": "Point", "coordinates": [ 135.7836067, 34.9694593 ] } },
{ "type": "Feature", "properties": { "osm_id": "11775086066", "name": null, "barrier": null, "highway": null, "ref": null, "address": null, "is_in": null, "place": null, "man_made": null, "other_tags": "\"artwork_type\"=>\"statue\",\"note:en\"=>\"Guardian dog\",\"tourism\"=>\"artwork\"", "area": null, "centroid_x": 135.7836241, "centroid_y": 34.9694854 }, "geometry": { "type": "Point", "coordinates": [ 135.7836241, 34.9694854 ] } },
{ "type": "Feature", "properties": { "osm_id": "11775097569", "name": null, "barrier": null, "highway": null, "ref": null, "address": null, "is_in": null, "place": null, "man_made": "torii", "other_tags": "\"material\"=>\"wood\",\"religion\"=>\"shinto\"", "area": null, "centroid_x": 135.7834089, "centroid_y": 34.9692332 }, "geometry": { "type": "Point", "coordinates": [ 135.783408900000012, 34.9692332 ] } },
{ "type": "Feature", "properties": { "osm_id": "11775097570", "name": null, "barrier": null, "highway": null, "ref": null, "address": null, "is_in": null, "place": null, "man_made": "water_tap", "other_tags": "\"drinking_water\"=>\"no\"", "area": null, "centroid_x": 135.7833787, "centroid_y": 34.9692057 }, "geometry": { "type": "Point", "coordinates": [ 135.783378699999986, 34.9692057 ] } },
{ "type": "Feature", "properties": { "osm_id": "11778113841", "name": null, "barrier": null, "highway": null, "ref": null, "address": null, "is_in": null, "place": null, "man_made": null, "other_tags": "\"emergency\"=>\"fire_hydrant\",\"fire_hydrant:position\"=>\"sidewalk\",\"fire_hydrant:type\"=>\"wall\"", "area": null, "centroid_x": 135.7729627, "centroid_y": 34.9668047 }, "geometry": { "type": "Point", "coordinates": [ 135.7729627, 34.9668047 ] } },
{ "type": "Feature", "properties": { "osm_id": "11778113842", "name": "重要文化財　伏見稲荷大社　本殿・お茶屋", "barrier": null, "highway": null, "ref": null, "address": null, "is_in": null, "place": null, "man_made": null, "other_tags": "\"board_type\"=>\"history\",\"information\"=>\"board\",\"material\"=>\"metal\",\"operator\"=>\"HITACHI\",\"tourism\"=>\"information\"", "area": null, "centroid_x": 135.7729771, "centroid_y": 34.9668099 }, "geometry": { "type": "Point", "coordinates": [ 135.7729771, 34.9668099 ] } },
{ "type": "Feature", "properties": { "osm_id": "11778113843", "name": null, "barrier": null, "highway": null, "ref": null, "address": null, "is_in": null, "place": null, "man_made": null, "other_tags": "\"amenity\"=>\"vending_machine\",\"vending\"=>\"drinks\"", "area": null, "centroid_x": 135.7727612, "centroid_y": 34.9674077 }, "geometry": { "type": "Point", "coordinates": [ 135.7727612, 34.9674077 ] } },
{ "type": "Feature", "properties": { "osm_id": "11778113844", "name": "塩路軒", "barrier": null, "highway": null, "ref": null, "address": null, "is_in": null, "place": null, "man_made": null, "other_tags": "\"shop\"=>\"gift\"", "area": null, "centroid_x": 135.7727743, "centroid_y": 34.9674619 }, "geometry": { "type": "Point", "coordinates": [ 135.7727743, 34.9674619 ] } },
{ "type": "Feature", "properties": { "osm_id": "11778113845", "name": "しののめどう", "barrier": null, "highway": null, "ref": null, "address": null, "is_in": null, "place": null, "man_made": null, "other_tags": "\"shop\"=>\"gift\"", "area": null, "centroid_x": 135.7726938, "centroid_y": 34.9674646 }, "geometry": { "type": "Point", "coordinates": [ 135.772693800000013, 34.9674646 ] } },
{ "type": "Feature", "properties": { "osm_id": "11778113846", "name": "御朱印受付所", "barrier": null, "highway": null, "ref": null, "address": null, "is_in": null, "place": null, "man_made": null, "other_tags": "\"shop\"=>\"religion\"", "area": null, "centroid_x": 135.7732245, "centroid_y": 34.9673682 }, "geometry": { "type": "Point", "coordinates": [ 135.7732245, 34.9673682 ] } },
{ "type": "Feature", "properties": { "osm_id": "11778213202", "name": "伏見稲荷大社", "barrier": null, "highway": null, "ref": null, "address": null, "is_in": null, "place": null, "man_made": null, "other_tags": "\"board_type\"=>\"history\",\"description\"=>\"歴史\",\"information\"=>\"board\",\"material\"=>\"wood\",\"operator\"=>\"京都市\",\"tourism\"=>\"information\"", "area": null, "centroid_x": 135.7729905, "centroid_y": 34.9672445 }, "geometry": { "type": "Point", "coordinates": [ 135.7729905, 34.9672445 ] } },
{ "type": "Feature", "properties": { "osm_id": "11778213203", "name": "稲荷講", "barrier": null, "highway": null, "ref": null, "address": null, "is_in": null, "place": null, "man_made": "lamp", "other_tags": "\"material\"=>\"stone\",\"operator\"=>\"羽倉攝津守\",\"start_date\"=>\"1799-04\"", "area": null, "centroid_x": 135.7730244, "centroid_y": 34.9670657 }, "geometry": { "type": "Point", "coordinates": [ 135.7730244, 34.9670657 ] } },
{ "type": "Feature", "properties": { "osm_id": "11778213204", "name": "稲荷講", "barrier": null, "highway": null, "ref": null, "address": null, "is_in": null, "place": null, "man_made": "lamp", "other_tags": "\"material\"=>\"stone\",\"operator\"=>\"森三河權守\",\"start_date\"=>\"1799\"", "area": null, "centroid_x": 135.7730053, "centroid_y": 34.9672473 }, "geometry": { "type": "Point", "coordinates": [ 135.7730053, 34.9672473 ] } },
{ "type": "Feature", "properties": { "osm_id": "11778218614", "name": null, "barrier": null, "highway": null, "ref": null, "address": null, "is_in": null, "place": null, "man_made": "water_tap", "other_tags": "\"drinking_water\"=>\"no\"", "area": null, "centroid_x": 135.7733613, "centroid_y": 34.9675742 }, "geometry": { "type": "Point", "coordinates": [ 135.7733613, 34.9675742 ] } },
{ "type": "Feature", "properties": { "osm_id": "11778218615", "name": null, "barrier": null, "highway": null, "ref": null, "address": null, "is_in": null, "place": null, "man_made": null, "other_tags": "\"natural\"=>\"stone\"", "area": null, "centroid_x": 135.7733788, "centroid_y": 34.967577 }, "geometry": { "type": "Point", "coordinates": [ 135.773378799999989, 34.967577 ] } },
{ "type": "Feature", "properties": { "osm_id": "11778218616", "name": null, "barrier": null, "highway": null, "ref": null, "address": null, "is_in": null, "place": null, "man_made": null, "other_tags": "\"natural\"=>\"stone\"", "area": null, "centroid_x": 135.7734404, "centroid_y": 34.967505 }, "geometry": { "type": "Point", "coordinates": [ 135.7734404, 34.967505 ] } },
{ "type": "Feature", "properties": { "osm_id": "11778238062", "name": null, "barrier": null, "highway": "street_lamp", "ref": null, "address": null, "is_in": null, "place": null, "man_made": null, "other_tags": "\"lamp_mount\"=>\"straight_mast\",\"lamp_type\"=>\"electric\"", "area": null, "centroid_x": 135.7737965, "centroid_y": 34.9672775 }, "geometry": { "type": "Point", "coordinates": [ 135.7737965, 34.9672775 ] } },
{ "type": "Feature", "properties": { "osm_id": "11778238063", "name": null, "barrier": null, "highway": null, "ref": null, "address": null, "is_in": null, "place": null, "man_made": null, "other_tags": "\"artwork_type\"=>\"statue\",\"note:en\"=>\"Guardian fox\",\"tourism\"=>\"artwork\"", "area": null, "centroid_x": 135.7737825, "centroid_y": 34.9673184 }, "geometry": { "type": "Point", "coordinates": [ 135.77378250000001, 34.9673184 ] } },
{ "type": "Feature", "properties": { "osm_id": "11778238064", "name": null, "barrier": null, "highway": null, "ref": null, "address": null, "is_in": null, "place": null, "man_made": null, "other_tags": "\"artwork_type\"=>\"statue\",\"note:en\"=>\"Guardian fox\",\"tourism\"=>\"artwork\"", "area": null, "centroid_x": 135.7737858, "centroid_y": 34.9672793 }, "geometry": { "type": "Point", "coordinates": [ 135.773785800000013, 34.9672793 ] } },
{ "type": "Feature", "properties": { "osm_id": "11778238065", "name": "献燈", "barrier": null, "highway": null, "ref": null, "address": null, "is_in": null, "place": null, "man_made": "lamp", "other_tags": "\"material\"=>\"stone\"", "area": null, "centroid_x": 135.7737439, "centroid_y": 34.9671951 }, "geometry": { "type": "Point", "coordinates": [ 135.7737439, 34.9671951 ] } },
{ "type": "Feature", "properties": { "osm_id": "11778252170", "name": "玉山稲荷社", "barrier": null, "highway": null, "ref": null, "address": null, "is_in": null, "place": null, "man_made": null, "other_tags": "\"board_type\"=>\"history\",\"description\"=>\"歴史\",\"information\"=>\"board\",\"material\"=>\"wood\",\"tourism\"=>\"information\"", "area": null, "centroid_x": 135.7737744, "centroid_y": 34.967441 }, "geometry": { "type": "Point", "coordinates": [ 135.7737744, 34.967441 ] } },
{ "type": "Feature", "properties": { "osm_id": "11778252171", "name": null, "barrier": null, "highway": null, "ref": null, "address": null, "is_in": null, "place": null, "man_made": "lamp", "other_tags": "\"material\"=>\"wood\"", "area": null, "centroid_x": 135.7737695, "centroid_y": 34.9674268 }, "geometry": { "type": "Point", "coordinates": [ 135.773769499999986, 34.9674268 ] } },
{ "type": "Feature", "properties": { "osm_id": "11778252172", "name": null, "barrier": null, "highway": null, "ref": null, "address": null, "is_in": null, "place": null, "man_made": "lamp", "other_tags": "\"material\"=>\"wood\"", "area": null, "centroid_x": 135.773769, "centroid_y": 34.9674643 }, "geometry": { "type": "Point", "coordinates": [ 135.773769, 34.9674643 ] } },
{ "type": "Feature", "properties": { "osm_id": "11778252173", "name": null, "barrier": null, "highway": null, "ref": null, "address": null, "is_in": null, "place": null, "man_made": "lamp", "other_tags": "\"material\"=>\"stone\"", "area": null, "centroid_x": 135.7737735, "centroid_y": 34.9674582 }, "geometry": { "type": "Point", "coordinates": [ 135.7737735, 34.9674582 ] } },
{ "type": "Feature", "properties": { "osm_id": "11778252174", "name": null, "barrier": null, "highway": null, "ref": null, "address": null, "is_in": null, "place": null, "man_made": "lamp", "other_tags": "\"material\"=>\"stone\"", "area": null, "centroid_x": 135.7737756, "centroid_y": 34.9674332 }, "geometry": { "type": "Point", "coordinates": [ 135.7737756, 34.9674332 ] } },
{ "type": "Feature", "properties": { "osm_id": "11778252175", "name": null, "barrier": null, "highway": null, "ref": null, "address": null, "is_in": null, "place": null, "man_made": "lamp", "other_tags": "\"material\"=>\"stone\"", "area": null, "centroid_x": 135.7737803, "centroid_y": 34.9674277 }, "geometry": { "type": "Point", "coordinates": [ 135.7737803, 34.9674277 ] } },
{ "type": "Feature", "properties": { "osm_id": "11778252176", "name": null, "barrier": null, "highway": null, "ref": null, "address": null, "is_in": null, "place": null, "man_made": "lamp", "other_tags": "\"material\"=>\"stone\"", "area": null, "centroid_x": 135.7737774, "centroid_y": 34.967463 }, "geometry": { "type": "Point", "coordinates": [ 135.7737774, 34.967463 ] } },
{ "type": "Feature", "properties": { "osm_id": "11778252177", "name": "権殿", "barrier": null, "highway": null, "ref": null, "address": null, "is_in": null, "place": null, "man_made": null, "other_tags": "\"board_type\"=>\"history\",\"description\"=>\"歴史\",\"information\"=>\"board\",\"material\"=>\"wood\",\"tourism\"=>\"information\"", "area": null, "centroid_x": 135.7733989, "centroid_y": 34.9673792 }, "geometry": { "type": "Point", "coordinates": [ 135.773398899999989, 34.9673792 ] } },