{
"type": "FeatureCollection",
"name": "map-points",
"crs": { "type": "name", "properties": { "name": "urn:ogc:def:crs:OGC:1.3:CRS84" } },
"features": [
{ "type": "Feature", "properties": { "osm_id": "252251503", "name": "佐紀町", "barrier": null, "highway": "traffic_signals", "ref": null, "address": null, "is_in": null, "place": null, "man_made": null, "other_tags": "\"name:en\"=>\"Sakicho\",\"name:ja\"=>\"佐紀町\"", "area": null, "centroid_x": 135.7956773, "centroid_y": 34.6943232 }, "geometry": { "type": "Point", "coordinates": [ 135.7956773, 34.6943232 ] } },
{ "type": "Feature", "properties": { "osm_id": "670441307", "name": "二条大路南五丁目", "barrier": null, "highway": null, "ref": null, "address": null, "is_in": null, "place": "neighbourhood", "man_made": null, "other_tags": "\"name:en\"=>\"Nijoji-minami 5-chome\",\"name:ja\"=>\"二条大路南五丁目\",\"name:ja-Hira\"=>\"にじょうおおじみなみ5ちょうめ\"", "area": null, "centroid_x": 135.7892906, "centroid_y": 34.6867036 }, "geometry": { "type": "Point", "coordinates": [ 135.789290599999987, 34.6867036 ] } },
{ "type": "Feature", "properties": { "osm_id": "737368161", "name": null, "barrier": null, "highway": null, "ref": null, "address": null, "is_in": null, "place": null, "man_made": null, "other_tags": "\"railway\"=>\"crossing\"", "area": null, "centroid_x": 135.7998439, "centroid_y": 34.6871167 }, "geometry": { "type": "Point", "coordinates": [ 135.799843900000013, 34.6871167 ] } },
{ "type": "Feature", "properties": { "osm_id": "737368179", "name": null, "barrier": null, "highway": null, "ref": null, "address": null, "is_in": null, "place": null, "man_made": null, "other_tags": "\"crossing:barrier\"=>\"double_half\",\"railway\"=>\"level_crossing\"", "area": null, "centroid_x": 135.7936587, "centroid_y": 34.6882967 }, "geometry": { "type": "Point", "coordinates": [ 135.7936587, 34.6882967 ] } },
{ "type": "Feature", "properties": { "osm_id": "1477472437", "name": null, "barrier": null, "highway": "traffic_signals", "ref": null, "address": null, "is_in": null, "place": null, "man_made": null, "other_tags": "\"crossing_ref\"=>\"pelican\"", "area": null, "centroid_x": 135.7981867, "centroid_y": 34.6942242 }, "geometry": { "type": "Point", "coordinates": [ 135.7981867, 34.6942242 ] } },
{ "type": "Feature", "properties": { "osm_id": "2462939520", "name": "二条大路南三丁目", "barrier": null, "highway": null, "ref": null, "address": null, "is_in": null, "place": "neighbourhood", "man_made": null, "other_tags": "\"name:en\"=>\"Nijoji-minami 3-chome\",\"name:ja\"=>\"二条大路南三丁目\",\"name:ja-Hira\"=>\"にじょうおおじみなみ3ちょうめ\"", "area": null, "centroid_x": 135.7958768, "centroid_y": 34.6857422 }, "geometry": { "type": "Point", "coordinates": [ 135.7958768, 34.6857422 ] } },
{ "type": "Feature", "properties": { "osm_id": "2462939530", "name": "二条大路南四丁目", "barrier": null, "highway": null, "ref": null, "address": null, "is_in": null, "place": "neighbourhood", "man_made": null, "other_tags": "\"name:en\"=>\"Nijoji-minami 4-chome\",\"name:ja\"=>\"二条大路南四丁目\",\"name:ja-Hira\"=>\"にじょうおおじみなみ4ちょうめ\"", "area": null, "centroid_x": 135.7924436, "centroid_y": 34.685407 }, "geometry": { "type": "Point", "coordinates": [ 135.792443600000013, 34.685407 ] } },
{ "type": "Feature", "properties": { "osm_id": "2649663139", "name": "二条町 (Nijō-chō)", "barrier": null, "highway": "bus_stop", "ref": null, "address": null, "is_in": null, "place": null, "man_made": null, "other_tags": "\"bench\"=>\"yes\",\"bin\"=>\"no\",\"bus\"=>\"yes\",\"name:en\"=>\"Nijo-cho\",\"name:ja_kana\"=>\"にじょうちょう\",\"name:ja_rm\"=>\"Nijō-chō\",\"operator\"=>\"Nara Kotsu Bus Lines Co., Ltd.\",\"public_transport\"=>\"platform\",\"shelter\"=>\"yes\",\"tactile_paving\"=>\"no\"", "area": null, "centroid_x": 135.7902269, "centroid_y": 34.6940329 }, "geometry": { "type": "Point", "coordinates": [ 135.7902269, 34.6940329 ] } },
{ "type": "Feature", "properties": { "osm_id": "2649663150", "name": "佐紀町 (Saki-chō)", "barrier": null, "highway": "bus_stop", "ref": null, "address": null, "is_in": null, "place": null, "man_made": null, "other_tags": "\"bench\"=>\"yes\",\"name:en\"=>\"Saki-cho\",\"name:ja_kana\"=>\"さきちょう\",\"name:ja_rm\"=>\"Saki-chō\",\"operator\"=>\"Nara Kotsu Bus Lines Co., Ltd.\"", "area": null, "centroid_x": 135.7939778, "centroid_y": 34.6942572 }, "geometry": { "type": "Point", "coordinates": [ 135.7939778, 34.6942572 ] } },
{ "type": "Feature", "properties": { "osm_id": "2649663155", "name": "佐紀町 (Saki-chō)", "barrier": null, "highway": "bus_stop", "ref": null, "address": null, "is_in": null, "place": null, "man_made": null, "other_tags": "\"bus\"=>\"yes\",\"name:en\"=>\"Saki-cho\",\"name:ja_kana\"=>\"さきちょう\",\"name:ja_rm\"=>\"Saki-chō\",\"operator\"=>\"Nara Kotsu Bus Lines Co., Ltd.\",\"public_transport\"=>\"platform\"", "area": null, "centroid_x": 135.7939653, "centroid_y": 34.6943756 }, "geometry": { "type": "Point", "coordinates": [ 135.7939653, 34.6943756 ] } },
{ "type": "Feature", "properties": { "osm_id": "2649663166", "name": "佐紀駐在所 (Saki Residential Police Box)", "barrier": null, "highway": "bus_stop", "ref": null, "address": null, "is_in": null, "place": null, "man_made": null, "other_tags": "\"bus\"=>\"yes\",\"name:en\"=>\"Saki Residential Police Box\",\"name:ja_kana\"=>\"さきちゅうざいしょ\",\"name:ja_rm\"=>\"Saki Chūzaisho\",\"operator\"=>\"Nara Kotsu Bus Lines Co., Ltd.\",\"public_transport\"=>\"platform\"", "area": null, "centroid_x": 135.7956509, "centroid_y": 34.6949098 }, "geometry": { "type": "Point", "coordinates": [ 135.7956509, 34.6949098 ] } },
{ "type": "Feature", "properties": { "osm_id": "2649663171", "name": "佐紀駐在所 (Saki Residential Police Box)", "barrier": null, "highway": "bus_stop", "ref": null, "address": null, "is_in": null, "place": null, "man_made": null, "other_tags": "\"bus\"=>\"yes\",\"name:en\"=>\"Saki Residential Police Box\",\"name:ja_kana\"=>\"さきちゅうざいしょ\",\"name:ja_rm\"=>\"Saki Chūzaisho\",\"operator\"=>\"Nara Kotsu Bus Lines Co., Ltd.\",\"public_transport\"=>\"platform\"", "area": null, "centroid_x": 135.7957153, "centroid_y": 34.6949675 }, "geometry": { "type": "Point", "coordinates": [ 135.795715300000012, 34.6949675 ] } },
{ "type": "Feature", "properties": { "osm_id": "2649663182", "name": "平城宮跡 (Heijō Palace Site)", "barrier": null, "highway": "bus_stop", "ref": null, "address": null, "is_in": null, "place": null, "man_made": null, "other_tags": "\"bus\"=>\"yes\",\"name:en\"=>\"Heijo Palace Site\",\"name:ja_kana\"=>\"へいじょうきゅうせき\",\"name:ja_rm\"=>\"Heijō Kyūseki\",\"operator\"=>\"Nara Kotsu Bus Lines Co., Ltd.\",\"public_transport\"=>\"platform\"", "area": null, "centroid_x": 135.7992274, "centroid_y": 34.6941019 }, "geometry": { "type": "Point", "coordinates": [ 135.7992274, 34.6941019 ] } },
{ "type": "Feature", "properties": { "osm_id": "2651595408", "name": "通行止め", "barrier": null, "highway": null, "ref": null, "address": null, "is_in": null, "place": null, "man_made": null, "other_tags": "\"junction\"=>\"yes\"", "area": null, "centroid_x": 135.7982495, "centroid_y": 34.6903848 }, "geometry": { "type": "Point", "coordinates": [ 135.7982495, 34.6903848 ] } },
{ "type": "Feature", "properties": { "osm_id": "2651595712", "name": "宇奈多理坐高御魂神社", "barrier": null, "highway": null, "ref": null, "address": null, "is_in": null, "place": null, "man_made": null, "other_tags": "\"amenity\"=>\"place_of_worship\",\"name:en\"=>\"Unatari Niimasu Takamusubi Shrine\",\"name:ja-Hira\"=>\"うなたりにいますたかみむすびじんじゃ\",\"religion\"=>\"shinto\",\"wheelchair\"=>\"no\"", "area": null, "centroid_x": 135.8015609, "centroid_y": 34.6900316 }, "geometry": { "type": "Point", "coordinates": [ 135.8015609, 34.6900316 ] } },
{ "type": "Feature", "properties": { "osm_id": "3003943716", "name": null, "barrier": null, "highway": null, "ref": null, "address": null, "is_in": null, "place": null, "man_made": null, "other_tags": "\"railway\"=>\"level_crossing\"", "area": null, "centroid_x": 135.7962182, "centroid_y": 34.687715 }, "geometry": { "type": "Point", "coordinates": [ 135.7962182, 34.687715 ] } },
{ "type": "Feature", "properties": { "osm_id": "3004598739", "name": "二条町二丁目", "barrier": null, "highway": "bus_stop", "ref": null, "address": null, "is_in": null, "place": null, "man_made": null, "other_tags": "\"bus\"=>\"yes\",\"name:en\"=>\"Nijo-cho 2-chome\",\"name:ja-Hira\"=>\"にじょうちょうにちょうめ\",\"name:ja-Latn\"=>\"Nijō-chō 2-chōme\",\"operator\"=>\"Nara Kotsu Bus Lines Co., Ltd.\",\"public_transport\"=>\"platform\"", "area": null, "centroid_x": 135.7887651, "centroid_y": 34.6917069 }, "geometry": { "type": "Point", "coordinates": [ 135.7887651, 34.6917069 ] } },
{ "type": "Feature", "properties": { "osm_id": "3816616815", "name": "造酒司井戸", "barrier": null, "highway": null, "ref": null, "address": null, "is_in": null, "place": null, "man_made": "water_well", "other_tags": "\"historic\"=>\"archaeological_site\"", "area": null, "centroid_x": 135.8002694, "centroid_y": 34.6933881 }, "geometry": { "type": "Point", "coordinates": [ 135.8002694, 34.6933881 ] } },
{ "type": "Feature", "properties": { "osm_id": "3816617199", "name": "推定宮内省", "barrier": null, "highway": null, "ref": null, "address": null, "is_in": null, "place": null, "man_made": null, "other_tags": "\"historic\"=>\"archaeological_site\",\"name:en\"=>\"Office of Imperial Household\"", "area": null, "centroid_x": 135.79841, "centroid_y": 34.6932049 }, "geometry": { "type": "Point", "coordinates": [ 135.79841, 34.6932049 ] } },
{ "type": "Feature", "properties": { "osm_id": "3818297172", "name": null, "barrier": null, "highway": null, "ref": null, "address": null, "is_in": null, "place": null, "man_made": null, "other_tags": null, "area": null, "centroid_x": 135.7930666, "centroid_y": 34.6942222 }, "geometry": { "type": "Point", "coordinates": [ 135.7930666, 34.6942222 ] } },
{ "type": "Feature", "properties": { "osm_id": "3818354965", "name": "第一次大極殿復原事業情報館", "barrier": null, "highway": null, "ref": null, "address": null, "is_in": null, "place": null, "man_made": null, "other_tags": "\"fee\"=>\"no\",\"tourism\"=>\"museum\",\"wheelchair\"=>\"limited\"", "area": null, "centroid_x": 135.7928055, "centroid_y": 34.6922179 }, "geometry": { "type": "Point", "coordinates": [ 135.792805499999986, 34.6922179 ] } },
{ "type": "Feature", "properties": { "osm_id": "3818355003", "name": "休憩所", "barrier": null, "highway": null, "ref": null, "address": null, "is_in": null, "place": null, "man_made": null, "other_tags": null, "area": null, "centroid_x": 135.7927984, "centroid_y": 34.6893797 }, "geometry": { "type": "Point", "coordinates": [ 135.7927984, 34.6893797 ] } },
{ "type": "Feature", "properties": { "osm_id": "3827859618", "name": "式部省", "barrier": null, "highway": null, "ref": null, "address": null, "is_in": null, "place": null, "man_made": null, "other_tags": "\"historic\"=>\"yes\"", "area": null, "centroid_x": 135.7980535, "centroid_y": 34.687188 }, "geometry": { "type": "Point", "coordinates": [ 135.7980535, 34.687188 ] } },
{ "type": "Feature", "properties": { "osm_id": "3833744187", "name": "平城宮跡資料館入口", "barrier": null, "highway": null, "ref": null, "address": null, "is_in": null, "place": null, "man_made": null, "other_tags": "\"entrance\"=>\"yes\"", "area": null, "centroid_x": 135.7898251, "centroid_y": 34.6940105 }, "geometry": { "type": "Point", "coordinates": [ 135.7898251, 34.6940105 ] } },
{ "type": "Feature", "properties": { "osm_id": "3833803761", "name": null, "barrier": null, "highway": null, "ref": null, "address": null, "is_in": null, "place": null, "man_made": null, "other_tags": "\"amenity\"=>\"toilets\"", "area": null, "centroid_x": 135.8010802, "centroid_y": 34.690004 }, "geometry": { "type": "Point", "coordinates": [ 135.8010802, 34.690004 ] } },
{ "type": "Feature", "properties": { "osm_id": "3833803762", "name": null, "barrier": null, "highway": null, "ref": null, "address": null, "is_in": null, "place": null, "man_made": null, "other_tags": "\"amenity\"=>\"toilets\"", "area": null, "centroid_x": 135.7995448, "centroid_y": 34.6939956 }, "geometry": { "type": "Point", "coordinates": [ 135.7995448, 34.6939956 ] } },
{ "type": "Feature", "properties": { "osm_id": "3833816026", "name": "平城宮跡 (Heijō Palace Site)", "barrier": null, "highway": "bus_stop", "ref": null, "address": null, "is_in": null, "place": null, "man_made": null, "other_tags": "\"bench\"=>\"yes\",\"bus\"=>\"yes\",\"name:en\"=>\"Heijo Palace Site\",\"name:ja_kana\"=>\"へいじょうきゅうせき\",\"name:ja_rm\"=>\"Heijō Kyūseki\",\"operator\"=>\"Nara Kotsu Bus Lines Co., Ltd.\",\"public_transport\"=>\"platform\"", "area": null, "centroid_x": 135.7980819, "centroid_y": 34.6943529 }, "geometry": { "type": "Point", "coordinates": [ 135.7980819, 34.6943529 ] } },
{ "type": "Feature", "properties": { "osm_id": "3860573492", "name": null, "barrier": "gate", "highway": null, "ref": null, "address": null, "is_in": null, "place": null, "man_made": null, "other_tags": null, "area": null, "centroid_x": 135.7930665, "centroid_y": 34.6941553 }, "geometry": { "type": "Point", "coordinates": [ 135.7930665, 34.6941553 ] } },
{ "type": "Feature", "properties": { "osm_id": "4260400458", "name": null, "barrier": null, "highway": null, "ref": null, "address": null, "is_in": null, "place": null, "man_made": null, "other_tags": "\"natural\"=>\"tree\"", "area": null, "centroid_x": 135.7946725, "centroid_y": 34.6863688 }, "geometry": { "type": "Point", "coordinates": [ 135.7946725, 34.6863688 ] } },
{ "type": "Feature", "properties": { "osm_id": "4260400459", "name": null, "barrier": null, "highway": null, "ref": null, "address": null, "is_in": null, "place": null, "man_made": null, "other_tags": "\"natural\"=>\"tree\"", "area": null, "centroid_x": 135.7946548, "centroid_y": 34.6862986 }, "geometry": { "type": "Point", "coordinates": [ 135.794654799999989, 34.6862986 ] } },
{ "type": "Feature", "properties": { "osm_id": "4260400460", "name": null, "barrier": null, "highway": null, "ref": null, "address": null, "is_in": null, "place": null, "man_made": null, "other_tags": "\"natural\"=>\"tree\"", "area": null, "centroid_x": 135.7946636, "centroid_y": 34.6862454 }, "geometry": { "type": "Point", "coordinates": [ 135.7946636, 34.6862454 ] } },
{ "type": "Feature", "properties": { "osm_id": "4260400461", "name": null, "barrier": null, "highway": null, "ref": null, "address": null, "is_in": null, "place": null, "man_made": null, "other_tags": "\"natural\"=>\"tree\"", "area": null, "centroid_x": 135.7946577, "centroid_y": 34.6861777 }, "geometry": { "type": "Point", "coordinates": [ 135.794657699999988, 34.6861777 ] } },
{ "type": "Feature", "properties": { "osm_id": "4260400462", "name": null, "barrier": null, "highway": null, "ref": null, "address": null, "is_in": null, "place": null, "man_made": null, "other_tags": "\"natural\"=>\"tree\"", "area": null, "centroid_x": 135.7948225, "centroid_y": 34.6862019 }, "geometry": { "type": "Point", "coordinates": [ 135.7948225, 34.6862019 ] } },
{ "type": "Feature", "properties": { "osm_id": "4260400463", "name": null, "barrier": null, "highway": null, "ref": null, "address": null, "is_in": null, "place": null, "man_made": null, "other_tags": "\"natural\"=>\"tree\"", "area": null, "centroid_x": 135.7946636, "centroid_y": 34.6860979 }, "geometry": { "type": "Point", "coordinates": [ 135.7946636, 34.6860979 ] } },
{ "type": "Feature", "properties": { "osm_id": "4260400464", "name": null, "barrier": null, "highway": null, "ref": null, "address": null, "is_in": null, "place": null, "man_made": null, "other_tags": "\"natural\"=>\"tree\"", "area": null, "centroid_x": 135.7946577, "centroid_y": 34.6860446 }, "geometry": { "type": "Point", "coordinates": [ 135.794657699999988, 34.6860446 ] } },
{ "type": "Feature", "properties": { "osm_id": "4260400465", "name": null, "barrier": null, "highway": null, "ref": null, "address": null, "is_in": null, "place": null, "man_made": null, "other_tags": "\"natural\"=>\"tree\"", "area": null, "centroid_x": 135.7948343, "centroid_y": 34.6860591 }, "geometry": { "type": "Point", "coordinates": [ 135.7948343, 34.6860591 ] } },
{ "type": "Feature", "properties": { "osm_id": "4260400480", "name": null, "barrier": null, "highway": null, "ref": null, "address": null, "is_in": null, "place": null, "man_made": null, "other_tags": "\"natural\"=>\"tree\"", "area": null, "centroid_x": 135.79136, "centroid_y": 34.6931326 }, "geometry": { "type": "Point", "coordinates": [ 135.79136, 34.6931326 ] } },
{ "type": "Feature", "properties": { "osm_id": "4260400481", "name": null, "barrier": null, "highway": null, "ref": null, "address": null, "is_in": null, "place": null, "man_made": null, "other_tags": "\"natural\"=>\"tree\"", "area": null, "centroid_x": 135.7913258, "centroid_y": 34.6932875 }, "geometry": { "type": "Point", "coordinates": [ 135.79132580000001, 34.6932875 ] } },
{ "type": "Feature", "properties": { "osm_id": "4260400482", "name": null, "barrier": null, "highway": null, "ref": null, "address": null, "is_in": null, "place": null, "man_made": null, "other_tags": "\"natural\"=>\"tree\"", "area": null, "centroid_x": 135.7913943, "centroid_y": 34.6933739 }, "geometry": { "type": "Point", "coordinates": [ 135.7913943, 34.6933739 ] } },
{ "type": "Feature", "properties": { "osm_id": "4260400483", "name": null, "barrier": null, "highway": null, "ref": null, "address": null, "is_in": null, "place": null, "man_made": null, "other_tags": "\"natural\"=>\"tree\"", "area": null, "centroid_x": 135.7899319, "centroid_y": 34.6935991 }, "geometry": { "type": "Point", "coordinates": [ 135.7899319, 34.6935991 ] } },
{ "type": "Feature", "properties": { "osm_id": "4260400484", "name": null, "barrier": null, "highway": null, "ref": null, "address": null, "is_in": null, "place": null, "man_made": null, "other_tags": "\"natural\"=>\"tree\"", "area": null, "centroid_x": 135.7906509, "centroid_y": 34.6936313 }, "geometry": { "type": "Point", "coordinates": [ 135.7906509, 34.6936313 ] } },
{ "type": "Feature", "properties": { "osm_id": "4260400485", "name": null, "barrier": null, "highway": null, "ref": null, "address": null, "is_in": null, "place": null, "man_made": null, "other_tags": "\"natural\"=>\"tree\"", "area": null, "centroid_x": 135.790509, "centroid_y": 34.6938102 }, "geometry": { "type": "Point", "coordinates": [ 135.790509, 34.6938102 ] } },
{ "type": "Feature", "properties": { "osm_id": "4260400486", "name": null, "barrier": null, "highway": null, "ref": null, "address": null, "is_in": null, "place": null, "man_made": null, "other_tags": "\"natural\"=>\"tree\"", "area": null, "centroid_x": 135.7902816, "centroid_y": 34.6936031 }, "geometry": { "type": "Point", "coordinates": [ 135.790281599999986, 34.6936031 ] } },
{ "type": "Feature", "properties": { "osm_id": "4260400487", "name": null, "barrier": null, "highway": null, "ref": null, "address": null, "is_in": null, "place": null, "man_made": null, "other_tags": "\"natural\"=>\"tree\"", "area": null, "centroid_x": 135.7916158, "centroid_y": 34.6937544 }, "geometry": { "type": "Point", "coordinates": [ 135.791615799999988, 34.6937544 ] } },
{ "type": "Feature", "properties": { "osm_id": "4260400488", "name": null, "barrier": null, "highway": null, "ref": null, "address": null, "is_in": null, "place": null, "man_made": null, "other_tags": "\"natural\"=>\"tree\"", "area": null, "centroid_x": 135.7922202, "centroid_y": 34.6937586 }, "geometry": { "type": "Point", "coordinates": [ 135.7922202, 34.6937586 ] } },
{ "type": "Feature", "properties": { "osm_id": "4260400689", "name": null, "barrier": null, "highway": null, "ref": null, "address": null, "is_in": null, "place": null, "man_made": null, "other_tags": "\"natural\"=>\"tree\"", "area": null, "centroid_x": 135.7924968, "centroid_y": 34.6938892 }, "geometry": { "type": "Point", "coordinates": [ 135.7924968, 34.6938892 ] } },
{ "type": "Feature", "properties": { "osm_id": "4260400690", "name": null, "barrier": null, "highway": null, "ref": null, "address": null, "is_in": null, "place": null, "man_made": null, "other_tags": "\"natural\"=>\"tree\"", "area": null, "centroid_x": 135.7920511, "centroid_y": 34.6914507 }, "geometry": { "type": "Point", "coordinates": [ 135.7920511, 34.6914507 ] } },
{ "type": "Feature", "properties": { "osm_id": "4452352785", "name": null, "barrier": null, "highway": null, "ref": null, "address": null, "is_in": null, "place": null, "man_made": null, "other_tags": "\"railway\"=>\"crossing\"", "area": null, "centroid_x": 135.7998453, "centroid_y": 34.6871531 }, "geometry": { "type": "Point", "coordinates": [ 135.799845299999987, 34.6871531 ] } },
{ "type": "Feature", "properties": { "osm_id": "4452352786", "name": null, "barrier": null, "highway": null, "ref": null, "address": null, "is_in": null, "place": null, "man_made": null, "other_tags": "\"railway\"=>\"level_crossing\"", "area": null, "centroid_x": 135.7962083, "centroid_y": 34.6877531 }, "geometry": { "type": "Point", "coordinates": [ 135.796208299999989, 34.6877531 ] } },
{ "type": "Feature", "properties": { "osm_id": "4452353491", "name": null, "barrier": null, "highway": null, "ref": null, "address": null, "is_in": null, "place": null, "man_made": null, "other_tags": "\"crossing:barrier\"=>\"double_half\",\"railway\"=>\"level_crossing\"", "area": null, "centroid_x": 135.7936888, "centroid_y": 34.6883356 }, "geometry": { "type": "Point", "coordinates": [ 135.793688800000012, 34.6883356 ] } },
{ "type": "Feature", "properties": { "osm_id": "4485094623", "name": null, "barrier": null, "highway": null, "ref": null, "address": null, "is_in": null, "place": null, "man_made": "water_well", "other_tags": null, "area": null, "centroid_x": 135.7980399, "centroid_y": 34.693581 }, "geometry": { "type": "Point", "coordinates": [ 135.7980399, 34.693581 ] } },
{ "type": "Feature", "properties": { "osm_id": "4485094630", "name": "内裏と井戸", "barrier": null, "highway": null, "ref": null, "address": null, "is_in": null, "place": null, "man_made": null, "other_tags": "\"information\"=>\"board\",\"tourism\"=>\"information\"", "area": null, "centroid_x": 135.7980158, "centroid_y": 34.693506 }, "geometry": { "type": "Point", "coordinates": [ 135.7980158, 34.693506 ] } },
{ "type": "Feature", "properties": { "osm_id": "4485094631", "name": "宮内省の復原建物", "barrier": null, "highway": null, "ref": null, "address": null, "is_in": null, "place": null, "man_made": null, "other_tags": "\"information\"=>\"board\",\"tourism\"=>\"information\"", "area": null, "centroid_x": 135.7983792, "centroid_y": 34.6934663 }, "geometry": { "type": "Point", "coordinates": [ 135.7983792, 34.6934663 ] } },
{ "type": "Feature", "properties": { "osm_id": "4485094632", "name": "平城宮内裏", "barrier": null, "highway": null, "ref": null, "address": null, "is_in": null, "place": null, "man_made": null, "other_tags": "\"information\"=>\"board\",\"tourism\"=>\"information\"", "area": null, "centroid_x": 135.7971641, "centroid_y": 34.6934475 }, "geometry": { "type": "Point", "coordinates": [ 135.7971641, 34.6934475 ] } },
{ "type": "Feature", "properties": { "osm_id": "4485094633", "name": "役人の道具", "barrier": null, "highway": null, "ref": null, "address": null, "is_in": null, "place": null, "man_made": null, "other_tags": "\"information\"=>\"board\",\"tourism\"=>\"information\"", "area": null, "centroid_x": 135.7983533, "centroid_y": 34.6932164 }, "geometry": { "type": "Point", "coordinates": [ 135.7983533, 34.6932164 ] } },
{ "type": "Feature", "properties": { "osm_id": "4485094634", "name": "役所での仕事", "barrier": null, "highway": null, "ref": null, "address": null, "is_in": null, "place": null, "man_made": null, "other_tags": "\"information\"=>\"board\",\"tourism\"=>\"information\"", "area": null, "centroid_x": 135.7983506, "centroid_y": 34.6932848 }, "geometry": { "type": "Point", "coordinates": [ 135.7983506, 34.6932848 ] } },
{ "type": "Feature", "properties": { "osm_id": "5654119272", "name": "トイレ", "barrier": null, "highway": null, "ref": null, "address": null, "is_in": null, "place": null, "man_made": null, "other_tags": "\"amenity\"=>\"toilets\",\"check_date\"=>\"2025-04-20\",\"fee\"=>\"no\",\"wheelchair\"=>\"limited\"", "area": null, "centroid_x": 135.7928583, "centroid_y": 34.6917859 }, "geometry": { "type": "Point", "coordinates": [ 135.7928583, 34.6917859 ] } },
{ "type": "Feature", "properties": { "osm_id": "5654119556", "name": "平城宮跡", "barrier": null, "highway": null, "ref": null, "address": null, "is_in": null, "place": null, "man_made": null, "other_tags": "\"archaeological_site\"=>\"city\",\"boundary\"=>\"historic\",\"heritage\"=>\"1\",\"heritage:operator\"=>\"whc\",\"historic\"=>\"archaeological_site\",\"name:en\"=>\"Heijō Palace\",\"name:fr\"=>\"Site du palais impérial de Heijō\",\"name:ja\"=>\"平城宮跡\",\"name:ja-Hira\"=>\"へいじょうきゅうせき\",\"name:ja-Latn\"=>\"Heijoukyuuseki\",\"ref:whc\"=>\"870-007\",\"tourism\"=>\"attraction\",\"whc:criteria\"=>\"(ii),(iii),(iv),(vi)\",\"whc:inscription_date\"=>\"1998\",\"wikidata\"=>\"Q211585\",\"wikimedia_commons\"=>\"Category:Heijō Palace\",\"wikipedia\"=>\"en:Heijō Palace\"", "area": null, "centroid_x": 135.7958516, "centroid_y": 34.6905895 }, "geometry": { "type": "Point", "coordinates": [ 135.7958516, 34.6905895 ] } },
{ "type": "Feature", "properties": { "osm_id": "5654321872", "name": null, "barrier": null, "highway": null, "ref": null, "address": null, "is_in": null, "place": null, "man_made": null, "other_tags": "\"amenity\"=>\"toilets\",\"fee\"=>\"no\",\"wheelchair\"=>\"yes\"", "area": null, "centroid_x": 135.7954466, "centroid_y": 34.6939791 }, "geometry": { "type": "Point", "coordinates": [ 135.7954466, 34.6939791 ] } },
{ "type": "Feature", "properties": { "osm_id": "5654321880", "name": null, "barrier": null, "highway": null, "ref": null, "address": null, "is_in": null, "place": null, "man_made": null, "other_tags": "\"railway\"=>\"crossing\"", "area": null, "centroid_x": 135.7961574, "centroid_y": 34.6877268 }, "geometry": { "type": "Point", "coordinates": [ 135.7961574, 34.6877268 ] } },
{ "type": "Feature", "properties": { "osm_id": "5654321881", "name": null, "barrier": null, "highway": null, "ref": null, "address": null, "is_in": null, "place": null, "man_made": null, "other_tags": "\"railway\"=>\"crossing\"", "area": null, "centroid_x": 135.7961493, "centroid_y": 34.6877648 }, "geometry": { "type": "Point", "coordinates": [ 135.7961493, 34.6877648 ] } },
{ "type": "Feature", "properties": { "osm_id": "5797234646", "name": "復元遣唐使船", "barrier": null, "highway": null, "ref": null, "address": null, "is_in": null, "place": null, "man_made": null, "other_tags": "\"operator\"=>\"平城宮跡歴史公園\",\"tourism\"=>\"attraction\"", "area": null, "centroid_x": 135.7931011, "centroid_y": 34.6849323 }, "geometry": { "type": "Point", "coordinates": [ 135.7931011, 34.6849323 ] } },
{ "type": "Feature", "properties": { "osm_id": "9027429736", "name": "朱雀門ひろば", "barrier": null, "highway": "bus_stop", "ref": "B1", "address": null, "is_in": null, "place": null, "man_made": null, "other_tags": "\"bus\"=>\"yes\",\"network\"=>\"ぐるっとバス\",\"operator\"=>\"奈良交通\",\"public_transport\"=>\"platform\"", "area": null, "centroid_x": 135.7924758, "centroid_y": 34.685474 }, "geometry": { "type": "Point", "coordinates": [ 135.7924758, 34.685474 ] } },
{ "type": "Feature", "properties": { "osm_id": "9129176213", "name": "平城宮跡歴史公園 天平みはらし館前", "barrier": null, "highway": null, "ref": null, "address": null, "is_in": null, "place": null, "man_made": null, "other_tags": "\"addr:province\"=>\"奈良県\",\"amenity\"=>\"bicycle_rental\",\"authentication:app\"=>\"yes\",\"brand\"=>\"HELLO CYCLING\",\"brand:ja\"=>\"ハローサイクリング\",\"brand:wikidata\"=>\"Q91231927\",\"capacity\"=>\"10\",\"contact:website\"=>\"https://www.hellocycling.jp\",\"fee\"=>\"yes\",\"gbfs:station_id\"=>\"12443\",\"gbfs:system_id\"=>\"hellocycling\",\"name:ja\"=>\"平城宮跡歴史公園 天平みはらし館前\",\"network\"=>\"HELLO CYCLING\",\"network:ja\"=>\"ハローサイクリング\",\"network:wikidata\"=>\"Q91231927\"", "area": null, "centroid_x": 135.7923366, "centroid_y": 34.6860881 }, "geometry": { "type": "Point", "coordinates": [ 135.7923366, 34.6860881 ] } },
{ "type": "Feature", "properties": { "osm_id": "9129216721", "name": null, "barrier": null, "highway": null, "ref": null, "address": null, "is_in": null, "place": null, "man_made": null, "other_tags": "\"amenity\"=>\"bicycle_parking\"", "area": null, "centroid_x": 135.7949437, "centroid_y": 34.6856564 }, "geometry": { "type": "Point", "coordinates": [ 135.7949437, 34.6856564 ] } },
{ "type": "Feature", "properties": { "osm_id": "9129216730", "name": null, "barrier": null, "highway": null, "ref": null, "address": null, "is_in": null, "place": null, "man_made": null, "other_tags": "\"amenity\"=>\"bicycle_parking\"", "area": null, "centroid_x": 135.7936314, "centroid_y": 34.6851199 }, "geometry": { "type": "Point", "coordinates": [ 135.79363140000001, 34.6851199 ] } },
{ "type": "Feature", "properties": { "osm_id": "10281533736", "name": null, "barrier": null, "highway": null, "ref": null, "address": null, "is_in": null, "place": null, "man_made": null, "other_tags": "\"natural\"=>\"tree\"", "area": null, "centroid_x": 135.8010354, "centroid_y": 34.6896809 }, "geometry": { "type": "Point", "coordinates": [ 135.801035399999989, 34.6896809 ] } },
{ "type": "Feature", "properties": { "osm_id": "11133304998", "name": "コカ・コーラ", "barrier": null, "highway": null, "ref": null, "address": null, "is_in": null, "place": null, "man_made": null, "other_tags": "\"amenity\"=>\"vending_machine\",\"brand\"=>\"コカ・コーラ\",\"brand:en\"=>\"Coca-Cola\",\"brand:ja\"=>\"コカ・コーラ\",\"brand:wikidata\"=>\"Q2813\",\"check_date\"=>\"2023-08-21\",\"drink:cola\"=>\"yes\",\"name:en\"=>\"Coca-Cola\",\"name:ja\"=>\"コカ・コーラ\",\"vending\"=>\"drinks\"", "area": null, "centroid_x": 135.7958261, "centroid_y": 34.6909348 }, "geometry": { "type": "Point", "coordinates": [ 135.7958261, 34.6909348 ] } },
{ "type": "Feature", "properties": { "osm_id": "11433397728", "name": "平城宮跡歴史公園内天平みはらし館前", "barrier": null, "highway": null, "ref": "1", "address": null, "is_in": null, "place": null, "man_made": null, "other_tags": "\"amenity\"=>\"bicycle_rental\",\"authentication:app\"=>\"yes\",\"brand\"=>\"Docomo Bike Share\",\"brand:ja\"=>\"ドコモ・バイクシェア\",\"brand:website\"=>\"https://docomo-cycle.jp/\",\"brand:wikidata\"=>\"Q55533296\",\"capacity\"=>\"22\",\"fee\"=>\"yes\",\"gbfs:name\"=>\"01.平城宮跡歴史公園内天平みはらし館前\",\"gbfs:station_id\"=>\"75002\",\"gbfs:system_id\"=>\"docomo-cycle\",\"name:en\"=>\"Nara Palace Site Historical Park, Tempyo-Miharashi-kan\",\"name:ja\"=>\"平城宮跡歴史公園内天平みはらし館前\"", "area": null, "centroid_x": 135.792409, "centroid_y": 34.686078 }, "geometry": { "type": "Point", "coordinates": [ 135.792409, 34.686078 ] } },
{ "type": "Feature", "properties": { "osm_id": "11433397741", "name": "メンテナンスセンター（平城宮跡）", "barrier": null, "highway": null, "ref": "99", "address": null, "is_in": null, "place": null, "man_made": null, "other_tags": "\"amenity\"=>\"bicycle_rental\",\"authentication:app\"=>\"yes\",\"brand\"=>\"Docomo Bike Share\",\"brand:ja\"=>\"ドコモ・バイクシェア\",\"brand:website\"=>\"https://docomo-cycle.jp/\",\"brand:wikidata\"=>\"Q55533296\",\"capacity\"=>\"46\",\"fee\"=>\"yes\",\"gbfs:name\"=>\"99.メンテナンスセンター（平城宮跡）\",\"gbfs:station_id\"=>\"75042\",\"gbfs:system_id\"=>\"docomo-cycle\",\"name:en\"=>\"Maintenance Center\",\"name:ja\"=>\"メンテナンスセンター（平城宮跡）\"", "area": null, "centroid_x": 135.792671, "centroid_y": 34.686354 }, "geometry": { "type": "Point", "coordinates": [ 135.792671, 34.686354 ] } },
{ "type": "Feature", "properties": { "osm_id": "11958025295", "name": "特別史跡　平城宮跡", "barrier": null, "highway": null, "ref": null, "address": null, "is_in": null, "place": null, "man_made": null, "other_tags": "\"information\"=>\"map\",\"map_size\"=>\"site\",\"map_type\"=>\"scheme\",\"tourism\"=>\"information\"", "area": null, "centroid_x": 135.7899494, "centroid_y": 34.6940006 }, "geometry": { "type": "Point", "coordinates": [ 135.789949400000012, 34.6940006 ] } },
{ "type": "Feature", "properties": { "osm_id": "11958025296", "name": "平城宮跡資料館", "barrier": null, "highway": null, "ref": null, "address": null, "is_in": null, "place": null, "man_made": null, "other_tags": "\"board_type\"=>\"notice\",\"information\"=>\"board\",\"operator\"=>\"奈良文化財研究所\",\"tourism\"=>\"information\"", "area": null, "centroid_x": 135.7897523, "centroid_y": 34.6939846 }, "geometry": { "type": "Point", "coordinates": [ 135.7897523, 34.6939846 ] } },
{ "type": "Feature", "properties": { "osm_id": "11958095519", "name": "平城宮跡", "barrier": null, "highway": null, "ref": null, "address": null, "is_in": null, "place": null, "man_made": null, "other_tags": "\"information\"=>\"map\",\"map_type\"=>\"scheme\",\"tourism\"=>\"information\"", "area": null, "centroid_x": 135.7997013, "centroid_y": 34.694069 }, "geometry": { "type": "Point", "coordinates": [ 135.7997013, 34.694069 ] } },
{ "type": "Feature", "properties": { "osm_id": "11958095520", "name": "特別史跡　平城宮跡", "barrier": null, "highway": null, "ref": null, "address": null, "is_in": null, "place": null, "man_made": null, "other_tags": "\"board_type\"=>\"history\",\"description\"=>\"昭和27年5月29日 特別史跡指定　　大正11年10月12日 史跡指定\",\"information\"=>\"board\",\"tourism\"=>\"information\"", "area": null, "centroid_x": 135.7997442, "centroid_y": 34.6940767 }, "geometry": { "type": "Point", "coordinates": [ 135.7997442, 34.6940767 ] } },
{ "type": "Feature", "properties": { "osm_id": "11958095521", "name": "広域避難地", "barrier": null, "highway": null, "ref": null, "address": null, "is_in": null, "place": null, "man_made": null, "other_tags": "\"board_type\"=>\"notice\",\"information\"=>\"board\",\"operator\"=>\"奈良市\",\"tourism\"=>\"information\"", "area": null, "centroid_x": 135.799592, "centroid_y": 34.6940728 }, "geometry": { "type": "Point", "coordinates": [ 135.799592, 34.6940728 ] } },
{ "type": "Feature", "properties": { "osm_id": "11958095522", "name": "特別史跡　平城宮跡", "barrier": null, "highway": null, "ref": null, "address": null, "is_in": null, "place": null, "man_made": null, "other_tags": "\"board_type\"=>\"history\",\"description\"=>\"イラストと復元図\",\"information\"=>\"board\",\"tourism\"=>\"information\"", "area": null, "centroid_x": 135.7985043, "centroid_y": 34.6940662 }, "geometry": { "type": "Point", "coordinates": [ 135.7985043, 34.6940662 ] } },
{ "type": "Feature", "properties": { "osm_id": "11958095523", "name": "特別史跡　平城宮跡", "barrier": null, "highway": null, "ref": null, "address": null, "is_in": null, "place": null, "man_made": null, "other_tags": "\"board_type\"=>\"history\",\"description\"=>\"昭和27年5月29日 特別史跡指定　　大正11年10月12日 史跡指定\",\"information\"=>\"board\",\"tourism\"=>\"information\"", "area": null, "centroid_x": 135.7982495, "centroid_y": 34.6939361 }, "geometry": { "type": "Point", "coordinates": [ 135.7982495, 34.6939361 ] } },
{ "type": "Feature", "properties": { "osm_id": "11958095524", "name": "平城宮跡", "barrier": null, "highway": null, "ref": null, "address": null, "is_in": null, "place": null, "man_made": null, "other_tags": "\"information\"=>\"map\",\"map_type\"=>\"scheme\",\"tourism\"=>\"information\"", "area": null, "centroid_x": 135.7981208, "centroid_y": 34.6941776 }, "geometry": { "type": "Point", "coordinates": [ 135.7981208, 34.6941776 ] } },
{ "type": "Feature", "properties": { "osm_id": "12151294854", "name": null, "barrier": null, "highway": null, "ref": null, "address": null, "is_in": null, "place": null, "man_made": null, "other_tags": "\"access\"=>\"customers\",\"amenity\"=>\"toilets\",\"female\"=>\"yes\",\"male\"=>\"yes\",\"unisex\"=>\"no\",\"wheelchair\"=>\"designated\"", "area": null, "centroid_x": 135.7922575, "centroid_y": 34.6862701 }, "geometry": { "type": "Point", "coordinates": [ 135.7922575, 34.6862701 ] } },
{ "type": "Feature", "properties": { "osm_id": "12151294855", "name": "展望デッキ", "barrier": null, "highway": null, "ref": null, "address": null, "is_in": null, "place": null, "man_made": null, "other_tags": "\"level\"=>\"1\",\"tourism\"=>\"viewpoint\"", "area": null, "centroid_x": 135.7924399, "centroid_y": 34.6863605 }, "geometry": { "type": "Point", "coordinates": [ 135.7924399, 34.6863605 ] } },
{ "type": "Feature", "properties": { "osm_id": "12151294856", "name": "IRACA", "barrier": null, "highway": null, "ref": null, "address": null, "is_in": null, "place": null, "man_made": null, "other_tags": "\"amenity\"=>\"restaurant\"", "area": null, "centroid_x": 135.7935248, "centroid_y": 34.6853106 }, "geometry": { "type": "Point", "coordinates": [ 135.7935248, 34.6853106 ] } },
{ "type": "Feature", "properties": { "osm_id": "12151294857", "name": null, "barrier": null, "highway": null, "ref": null, "address": null, "is_in": null, "place": null, "man_made": null, "other_tags": "\"amenity\"=>\"toilets\",\"female\"=>\"yes\",\"male\"=>\"yes\",\"wheelchair\"=>\"designated\"", "area": null, "centroid_x": 135.7935262, "centroid_y": 34.6851518 }, "geometry": { "type": "Point", "coordinates": [ 135.7935262, 34.6851518 ] } },
{ "type": "Feature", "properties": { "osm_id": "12151294858", "name": null, "barrier": null, "highway": null, "ref": null, "address": null, "is_in": null, "place": null, "man_made": null, "other_tags": "\"emergency\"=>\"defibrillator\",\"indoor\"=>\"yes\"", "area": null, "centroid_x": 135.7935745, "centroid_y": 34.6861664 }, "geometry": { "type": "Point", "coordinates": [ 135.7935745, 34.6861664 ] } },
{ "type": "Feature", "properties": { "osm_id": "12151294859", "name": "天平みはらし館", "barrier": null, "highway": null, "ref": null, "address": null, "is_in": null, "place": null, "man_made": null, "other_tags": "\"information\"=>\"map\",\"map_size\"=>\"site\",\"map_type\"=>\"scheme\",\"name:en\"=>\"Tempyo Miharashii-kan\",\"tourism\"=>\"information\"", "area": null, "centroid_x": 135.7927765, "centroid_y": 34.6863825 }, "geometry": { "type": "Point", "coordinates": [ 135.7927765, 34.6863825 ] } },
{ "type": "Feature", "properties": { "osm_id": "12151294860", "name": "総合案内", "barrier": null, "highway": null, "ref": null, "address": null, "is_in": null, "place": null, "man_made": null, "other_tags": "\"information\"=>\"map\",\"map_size\"=>\"site\",\"map_type\"=>\"scheme\",\"tourism\"=>\"information\"", "area": null, "centroid_x": 135.792924, "centroid_y": 34.6861818 }, "geometry": { "type": "Point", "coordinates": [ 135.792924, 34.6861818 ] } },
{ "type": "Feature", "properties": { "osm_id": "12151294861", "name": null, "barrier": null, "highway": null, "ref": null, "address": null, "is_in": null, "place": null, "man_made": null, "other_tags": "\"amenity\"=>\"bench\",\"backrest\"=>\"no\",\"seats\"=>\"3\"", "area": null, "centroid_x": 135.7936019, "centroid_y": 34.6863075 }, "geometry": { "type": "Point", "coordinates": [ 135.7936019, 34.6863075 ] } },
{ "type": "Feature", "properties": { "osm_id": "12151294862", "name": null, "barrier": null, "highway": null, "ref": null, "address": null, "is_in": null, "place": null, "man_made": null, "other_tags": "\"amenity\"=>\"toilets\",\"female\"=>\"yes\",\"male\"=>\"yes\",\"wheelchair\"=>\"designated\"", "area": null, "centroid_x": 135.7934229, "centroid_y": 34.6862513 }, "geometry": { "type": "Point", "coordinates": [ 135.7934229, 34.6862513 ] } },
{ "type": "Feature", "properties": { "osm_id": "12151294863", "name": null, "barrier": null, "highway": null, "ref": null, "address": null, "is_in": null, "place": null, "man_made": null, "other_tags": "\"information\"=>\"office\",\"tourism\"=>\"information\"", "area": null, "centroid_x": 135.7934873, "centroid_y": 34.6861995 }, "geometry": { "type": "Point", "coordinates": [ 135.79348730000001, 34.6861995 ] } },
{ "type": "Feature", "properties": { "osm_id": "12151294864", "name": null, "barrier": null, "highway": null, "ref": null, "address": null, "is_in": null, "place": null, "man_made": null, "other_tags": "\"amenity\"=>\"taxi\"", "area": null, "centroid_x": 135.793262, "centroid_y": 34.6860241 }, "geometry": { "type": "Point", "coordinates": [ 135.793262, 34.6860241 ] } },
{ "type": "Feature", "properties": { "osm_id": "12151294865", "name": "天平つどい館", "barrier": null, "highway": null, "ref": null, "address": null, "is_in": null, "place": null, "man_made": null, "other_tags": "\"information\"=>\"map\",\"map_size\"=>\"site\",\"map_type\"=>\"scheme\",\"name:en\"=>\"Tempyo Tsudoi-kan\",\"tourism\"=>\"information\"", "area": null, "centroid_x": 135.7935389, "centroid_y": 34.6861504 }, "geometry": { "type": "Point", "coordinates": [ 135.793538899999987, 34.6861504 ] } },
{ "type": "Feature", "properties": { "osm_id": "12151294866", "name": "朱雀門ひろば案内マップ", "barrier": null, "highway": null, "ref": null, "address": null, "is_in": null, "place": null, "man_made": null, "other_tags": "\"information\"=>\"map\",\"map_size\"=>\"site\",\"map_type\"=>\"scheme\",\"name:en\"=>\"Guide Map of Suzaku-mon Hiroba Square\",\"tourism\"=>\"information\"", "area": null, "centroid_x": 135.7935171, "centroid_y": 34.6858289 }, "geometry": { "type": "Point", "coordinates": [ 135.7935171, 34.6858289 ] } },
{ "type": "Feature", "properties": { "osm_id": "12151294867", "name": "平城宮跡歴史公園案内マップ", "barrier": null, "highway": null, "ref": null, "address": null, "is_in": null, "place": null, "man_made": null, "other_tags": "\"information\"=>\"map\",\"map_size\"=>\"site\",\"map_type\"=>\"scheme\",\"name:en\"=>\"Guide Map of Nara Palace Site Historical Park\",\"tourism\"=>\"information\"", "area": null, "centroid_x": 135.7935181, "centroid_y": 34.6857253 }, "geometry": { "type": "Point", "coordinates": [ 135.7935181, 34.6857253 ] } },
{ "type": "Feature", "properties": { "osm_id": "12151294868", "name": null, "barrier": null, "highway": null, "ref": null, "address": null, "is_in": null, "place": null, "man_made": null, "other_tags": "\"amenity\"=>\"bench\",\"backrest\"=>\"no\",\"material\"=>\"wood\",\"seats\"=>\"3\"", "area": null, "centroid_x": 135.7934745, "centroid_y": 34.6854353 }, "geometry": { "type": "Point", "coordinates": [ 135.7934745, 34.6854353 ] } },
{ "type": "Feature", "properties": { "osm_id": "12151294869", "name": null, "barrier": null, "highway": null, "ref": null, "address": null, "is_in": null, "place": null, "man_made": null, "other_tags": "\"amenity\"=>\"bench\",\"backrest\"=>\"no\",\"material\"=>\"wood\",\"seats\"=>\"3\"", "area": null, "centroid_x": 135.7934336, "centroid_y": 34.6854347 }, "geometry": { "type": "Point", "coordinates": [ 135.793433599999986, 34.6854347 ] } },
{ "type": "Feature", "properties": { "osm_id": "12151294870", "name": null, "barrier": null, "highway": null, "ref": null, "address": null, "is_in": null, "place": null, "man_made": null, "other_tags": "\"leaf_cycle\"=>\"evergreen\",\"leaf_type\"=>\"broadleaved\",\"natural\"=>\"tree\"", "area": null, "centroid_x": 135.7931976, "centroid_y": 34.6852544 }, "geometry": { "type": "Point", "coordinates": [ 135.793197600000013, 34.6852544 ] } },
{ "type": "Feature", "properties": { "osm_id": "12151294871", "name": null, "barrier": null, "highway": null, "ref": null, "address": null, "is_in": null, "place": null, "man_made": null, "other_tags": "\"amenity\"=>\"bench\",\"backrest\"=>\"no\",\"seats\"=>\"3\"", "area": null, "centroid_x": 135.7929093, "centroid_y": 34.6852776 }, "geometry": { "type": "Point", "coordinates": [ 135.7929093, 34.6852776 ] } },
{ "type": "Feature", "properties": { "osm_id": "12151294872", "name": null, "barrier": null, "highway": null, "ref": null, "address": null, "is_in": null, "place": null, "man_made": null, "other_tags": "\"amenity\"=>\"bench\",\"backrest\"=>\"no\",\"seats\"=>\"3\"", "area": null, "centroid_x": 135.7929093, "centroid_y": 34.6853007 }, "geometry": { "type": "Point", "coordinates": [ 135.7929093, 34.6853007 ] } },
{ "type": "Feature", "properties": { "osm_id": "12151294873", "name": "天平みつき館", "barrier": null, "highway": null, "ref": null, "address": null, "is_in": null, "place": null, "man_made": null, "other_tags": "\"information\"=>\"map\",\"map_size\"=>\"site\",\"map_type\"=>\"scheme\",\"name:en\"=>\"Tempyo Mitsuki-kan\",\"tourism\"=>\"information\"", "area": null, "centroid_x": 135.7928891, "centroid_y": 34.6854154 }, "geometry": { "type": "Point", "coordinates": [ 135.7928891, 34.6854154 ] } },
{ "type": "Feature", "properties": { "osm_id": "12151294874", "name": "天平うまし館", "barrier": null, "highway": null, "ref": null, "address": null, "is_in": null, "place": null, "man_made": null, "other_tags": "\"information\"=>\"map\",\"map_size\"=>\"site\",\"map_type\"=>\"scheme\",\"name:en\"=>\"Tempyo Umashi-kan\",\"tourism\"=>\"information\"", "area": null, "centroid_x": 135.7932606, "centroid_y": 34.685422 }, "geometry": { "type": "Point", "coordinates": [ 135.7932606, 34.685422 ] } },
{ "type": "Feature", "properties": { "osm_id": "12151294875", "name": null, "barrier": null, "highway": null, "ref": null, "address": null, "is_in": null, "place": null, "man_made": null, "other_tags": "\"amenity\"=>\"bench\",\"backrest\"=>\"no\",\"material\"=>\"wood\",\"seats\"=>\"3\"", "area": null, "centroid_x": 135.7931091, "centroid_y": 34.6854 }, "geometry": { "type": "Point", "coordinates": [ 135.7931091, 34.6854 ] } },
{ "type": "Feature", "properties": { "osm_id": "12151294876", "name": null, "barrier": null, "highway": null, "ref": null, "address": null, "is_in": null, "place": null, "man_made": null, "other_tags": "\"amenity\"=>\"bench\",\"backrest\"=>\"no\",\"material\"=>\"wood\",\"seats\"=>\"3\"", "area": null, "centroid_x": 135.793262, "centroid_y": 34.6853978 }, "geometry": { "type": "Point", "coordinates": [ 135.793262, 34.6853978 ] } },
{ "type": "Feature", "properties": { "osm_id": "12151294877", "name": null, "barrier": null, "highway": null, "ref": null, "address": null, "is_in": null, "place": null, "man_made": null, "other_tags": "\"amenity\"=>\"bench\",\"backrest\"=>\"no\",\"material\"=>\"wood\",\"seats\"=>\"3\"", "area": null, "centroid_x": 135.793144, "centroid_y": 34.685304 }, "geometry": { "type": "Point", "coordinates": [ 135.793144, 34.685304 ] } },
{ "type": "Feature", "properties": { "osm_id": "12151294878", "name": null, "barrier": null, "highway": null, "ref": null, "address": null, "is_in": null, "place": null, "man_made": null, "other_tags": "\"amenity\"=>\"vending_machine\",\"vending\"=>\"drinks\"", "area": null, "centroid_x": 135.7933123, "centroid_y": 34.6851662 }, "geometry": { "type": "Point", "coordinates": [ 135.7933123, 34.6851662 ] } },
{ "type": "Feature", "properties": { "osm_id": "12151294879", "name": null, "barrier": null, "highway": null, "ref": null, "address": null, "is_in": null, "place": null, "man_made": null, "other_tags": "\"amenity\"=>\"vending_machine\",\"vending\"=>\"drinks\"", "area": null, "centroid_x": 135.7933116, "centroid_y": 34.685178 }, "geometry": { "type": "Point", "coordinates": [ 135.79331160000001, 34.685178 ] } },
{ "type": "Feature", "properties": { "osm_id": "12151294880", "name": null, "barrier": null, "highway": null, "ref": null, "address": null, "is_in": null, "place": null, "man_made": null, "other_tags": "\"access\"=>\"customers\",\"amenity\"=>\"toilets\",\"female\"=>\"yes\",\"male\"=>\"yes\",\"wheelchair\"=>\"designated\"", "area": null, "centroid_x": 135.7927197, "centroid_y": 34.6852923 }, "geometry": { "type": "Point", "coordinates": [ 135.7927197, 34.6852923 ] } },
{ "type": "Feature", "properties": { "osm_id": "12151294881", "name": "COSTA", "barrier": null, "highway": null, "ref": null, "address": null, "is_in": null, "place": null, "man_made": null, "other_tags": "\"amenity\"=>\"cafe\"", "area": null, "centroid_x": 135.7933949, "centroid_y": 34.6853087 }, "geometry": { "type": "Point", "coordinates": [ 135.79339490000001, 34.6853087 ] } },
{ "type": "Feature", "properties": { "osm_id": "12151294882", "name": null, "barrier": null, "highway": null, "ref": null, "address": null, "is_in": null, "place": null, "man_made": null, "other_tags": "\"shop\"=>\"gift\"", "area": null, "centroid_x": 135.793402, "centroid_y": 34.6850663 }, "geometry": { "type": "Point", "coordinates": [ 135.793402, 34.6850663 ] } },
{ "type": "Feature", "properties": { "osm_id": "12770007714", "name": null, "barrier": null, "highway": null, "ref": null, "address": null, "is_in": null, "place": null, "man_made": null, "other_tags": "\"amenity\"=>\"bicycle_parking\",\"bicycle_parking\"=>\"floor\",\"covered\"=>\"yes\"", "area": null, "centroid_x": 135.7929267, "centroid_y": 34.6918413 }, "geometry": { "type": "Point", "coordinates": [ 135.79292670000001, 34.6918413 ] } }
]
}
