{
"type": "FeatureCollection",
"name": "map-points",
"crs": { "type": "name", "properties": { "name": "urn:ogc:def:crs:OGC:1.3:CRS84" } },
"features": [
{ "type": "Feature", "properties": { "osm_id": "252251503", "name": null, "barrier": null, "highway": "traffic_signals", "ref": null, "address": null, "is_in": null, "place": null, "man_made": null, "other_tags": null }, "geometry": { "type": "Point", "coordinates": [ 135.7956773, 34.6943232 ] } },
{ "type": "Feature", "properties": { "osm_id": "335841201", "name": null, "barrier": null, "highway": null, "ref": null, "address": null, "is_in": null, "place": null, "man_made": null, "other_tags": "\"crossing:barrier\"=>\"yes\",\"crossing:bell\"=>\"yes\",\"crossing:light\"=>\"yes\",\"KSJ2:LIN\"=>\"奈良線\",\"note:ja\"=>\"国土数値情報（鉄道データ）平成19年　国土交通省\",\"railway\"=>\"level_crossing\",\"source_ref\"=>\"http://nlftp.mlit.go.jp/ksj/jpgis/datalist/KsjTmplt-N02-v1_1.html\"" }, "geometry": { "type": "Point", "coordinates": [ 135.7886877, 34.6906984 ] } },
{ "type": "Feature", "properties": { "osm_id": "670441226", "name": "二条町", "barrier": null, "highway": "traffic_signals", "ref": null, "address": null, "is_in": null, "place": null, "man_made": null, "other_tags": "\"name:en\"=>\"Nijocho\"" }, "geometry": { "type": "Point", "coordinates": [ 135.7885962, 34.6939594 ] } },
{ "type": "Feature", "properties": { "osm_id": "670441307", "name": "二条大路南五丁目", "barrier": null, "highway": null, "ref": null, "address": null, "is_in": null, "place": "neighbourhood", "man_made": null, "other_tags": "\"name:en\"=>\"Nijoji-minami 5-chome\",\"name:ja\"=>\"二条大路南五丁目\",\"name:ja-Hira\"=>\"にじょうおおじみなみ5ちょうめ\"" }, "geometry": { "type": "Point", "coordinates": [ 135.789290599999987, 34.6867036 ] } },
{ "type": "Feature", "properties": { "osm_id": "722600536", "name": "二条大路南3丁目", "barrier": null, "highway": "traffic_signals", "ref": null, "address": null, "is_in": null, "place": null, "man_made": null, "other_tags": "\"name:en\"=>\"Nijooji minami 3\"" }, "geometry": { "type": "Point", "coordinates": [ 135.7970009, 34.6843585 ] } },
{ "type": "Feature", "properties": { "osm_id": "737368161", "name": null, "barrier": null, "highway": null, "ref": null, "address": null, "is_in": null, "place": null, "man_made": null, "other_tags": "\"railway\"=>\"crossing\"" }, "geometry": { "type": "Point", "coordinates": [ 135.799843900000013, 34.6871167 ] } },
{ "type": "Feature", "properties": { "osm_id": "737368179", "name": null, "barrier": null, "highway": null, "ref": null, "address": null, "is_in": null, "place": null, "man_made": null, "other_tags": "\"railway\"=>\"level_crossing\"" }, "geometry": { "type": "Point", "coordinates": [ 135.7936587, 34.6882967 ] } },
{ "type": "Feature", "properties": { "osm_id": "738585076", "name": "二条大路南4丁目西", "barrier": null, "highway": "traffic_signals", "ref": null, "address": null, "is_in": null, "place": null, "man_made": null, "other_tags": "\"name:en\"=>\"Nijoojiminami 4 West\"" }, "geometry": { "type": "Point", "coordinates": [ 135.7915026, 34.684475 ] } },
{ "type": "Feature", "properties": { "osm_id": "762235524", "name": null, "barrier": null, "highway": "traffic_signals", "ref": null, "address": null, "is_in": null, "place": null, "man_made": null, "other_tags": null }, "geometry": { "type": "Point", "coordinates": [ 135.7886883, 34.6905602 ] } },
{ "type": "Feature", "properties": { "osm_id": "1423067869", "name": "奈良文化財研究所", "barrier": null, "highway": null, "ref": null, "address": null, "is_in": null, "place": null, "man_made": null, "other_tags": "\"building\"=>\"construction\",\"note:ja\"=>\"国土数値情報（公共施設データ）平成19年　国土交通省\",\"source_ref\"=>\"http://nlftp.mlit.go.jp/ksj/jpgis/datalist/KsjTmplt-P02-v2_0.html\",\"wikidata\"=>\"Q3297691\",\"wikimedia_commons\"=>\"Category:Nara National Research Institute for Cultural Properties\",\"wikipedia\"=>\"ja:奈良文化財研究所\"" }, "geometry": { "type": "Point", "coordinates": [ 135.788226900000012, 34.69172 ] } },
{ "type": "Feature", "properties": { "osm_id": "1477472437", "name": null, "barrier": null, "highway": "traffic_signals", "ref": null, "address": null, "is_in": null, "place": null, "man_made": null, "other_tags": "\"crossing_ref\"=>\"pelican\"" }, "geometry": { "type": "Point", "coordinates": [ 135.7981867, 34.6942242 ] } },
{ "type": "Feature", "properties": { "osm_id": "1483765637", "name": "Hanaso", "barrier": null, "highway": null, "ref": null, "address": null, "is_in": null, "place": null, "man_made": null, "other_tags": "\"amenity\"=>\"restaurant\",\"cuisine\"=>\"fish\",\"name:ja\"=>\"花惣\"" }, "geometry": { "type": "Point", "coordinates": [ 135.791216600000013, 34.6847077 ] } },
{ "type": "Feature", "properties": { "osm_id": "1483765671", "name": "丸源", "barrier": null, "highway": null, "ref": null, "address": null, "is_in": null, "place": null, "man_made": null, "other_tags": "\"amenity\"=>\"restaurant\",\"cuisine\"=>\"ramen\"" }, "geometry": { "type": "Point", "coordinates": [ 135.79167, 34.684614 ] } },
{ "type": "Feature", "properties": { "osm_id": "1490108313", "name": "二条大路南１丁目", "barrier": null, "highway": "traffic_signals", "ref": null, "address": null, "is_in": null, "place": null, "man_made": null, "other_tags": "\"name:en\"=>\"Nijooji S. 1\"" }, "geometry": { "type": "Point", "coordinates": [ 135.8001223, 34.6844364 ] } },
{ "type": "Feature", "properties": { "osm_id": "1490108345", "name": "二条大路南１丁目", "barrier": null, "highway": "traffic_signals", "ref": null, "address": null, "is_in": null, "place": null, "man_made": null, "other_tags": "\"name:en\"=>\"Nijooji S. 1\"" }, "geometry": { "type": "Point", "coordinates": [ 135.800484, 34.6844412 ] } },
{ "type": "Feature", "properties": { "osm_id": "1490108355", "name": "朱雀門前", "barrier": null, "highway": "traffic_signals", "ref": null, "address": null, "is_in": null, "place": null, "man_made": null, "other_tags": "\"crossing\"=>\"traffic_signals\",\"name:en\"=>\"Suzaku Gate\",\"traffic_signals\"=>\"signal\"" }, "geometry": { "type": "Point", "coordinates": [ 135.7941073, 34.6844219 ] } },
{ "type": "Feature", "properties": { "osm_id": "1491307448", "name": "Okonomiyaki Kinta", "barrier": null, "highway": null, "ref": null, "address": null, "is_in": null, "place": null, "man_made": null, "other_tags": "\"amenity\"=>\"restaurant\"" }, "geometry": { "type": "Point", "coordinates": [ 135.7920839, 34.6846808 ] } },
{ "type": "Feature", "properties": { "osm_id": "2430963552", "name": "二条町一丁目", "barrier": null, "highway": null, "ref": null, "address": null, "is_in": null, "place": "neighbourhood", "man_made": null, "other_tags": "\"name:en\"=>\"Nijocho 1-chome\",\"name:ja\"=>\"二条町一丁目\",\"name:ja-Hira\"=>\"にじょうちょう1ちょうめ\"" }, "geometry": { "type": "Point", "coordinates": [ 135.78821640000001, 34.694414 ] } },
{ "type": "Feature", "properties": { "osm_id": "2462939520", "name": "二条大路南三丁目", "barrier": null, "highway": null, "ref": null, "address": null, "is_in": null, "place": "neighbourhood", "man_made": null, "other_tags": "\"name:en\"=>\"Nijoji-minami 3-chome\",\"name:ja\"=>\"二条大路南三丁目\",\"name:ja-Hira\"=>\"にじょうおおじみなみ3ちょうめ\"" }, "geometry": { "type": "Point", "coordinates": [ 135.7958768, 34.6857422 ] } },
{ "type": "Feature", "properties": { "osm_id": "2462939530", "name": "二条大路南四丁目", "barrier": null, "highway": null, "ref": null, "address": null, "is_in": null, "place": "neighbourhood", "man_made": null, "other_tags": "\"name:en\"=>\"Nijoji-minami 4-chome\",\"name:ja\"=>\"二条大路南四丁目\",\"name:ja-Hira\"=>\"にじょうおおじみなみ4ちょうめ\"" }, "geometry": { "type": "Point", "coordinates": [ 135.792443600000013, 34.685407 ] } },
{ "type": "Feature", "properties": { "osm_id": "2462939531", "name": "二条大路南二丁目", "barrier": null, "highway": null, "ref": null, "address": null, "is_in": null, "place": "neighbourhood", "man_made": null, "other_tags": "\"name:en\"=>\"Nijoji-minami 2-chome\",\"name:ja\"=>\"二条大路南二丁目\",\"name:ja-Hira\"=>\"にじょうおおじみなみ2ちょうめ\"" }, "geometry": { "type": "Point", "coordinates": [ 135.798655599999989, 34.6851776 ] } },
{ "type": "Feature", "properties": { "osm_id": "2575836153", "name": "平城天皇陵", "barrier": null, "highway": null, "ref": null, "address": null, "is_in": null, "place": null, "man_made": null, "other_tags": "\"historic\"=>\"archaeological_site\",\"name:en\"=>\"Tomb of Emperor Heijo\",\"wikidata\"=>\"Q11480471\",\"wikipedia\"=>\"ja:市庭古墳\"" }, "geometry": { "type": "Point", "coordinates": [ 135.797147599999988, 34.6964372 ] } },
{ "type": "Feature", "properties": { "osm_id": "2575836174", "name": "歓喜寺", "barrier": null, "highway": null, "ref": null, "address": null, "is_in": null, "place": null, "man_made": null, "other_tags": "\"amenity\"=>\"place_of_worship\",\"religion\"=>\"buddhist\"" }, "geometry": { "type": "Point", "coordinates": [ 135.7887526, 34.6949528 ] } },
{ "type": "Feature", "properties": { "osm_id": "2626765302", "name": "二条大路南二丁目", "barrier": null, "highway": null, "ref": null, "address": null, "is_in": null, "place": null, "man_made": null, "other_tags": "\"bus\"=>\"yes\",\"name:en\"=>\"Nijo-oji Minami 2-chome\",\"name:ja\"=>\"二条大路南二丁目\",\"name:ja-Hira\"=>\"にじょうおおじみなみにちょうめ\",\"name:ja-Latn\"=>\"Nijō-ōji Minami 2-chōme\",\"operator\"=>\"Nara Kotsu Bus Lines Co., Ltd.\",\"public_transport\"=>\"platform\",\"was:highway\"=>\"bus_stop\"" }, "geometry": { "type": "Point", "coordinates": [ 135.7976234, 34.6843956 ] } },
{ "type": "Feature", "properties": { "osm_id": "2626765311", "name": "二条大路南一丁目", "barrier": null, "highway": "bus_stop", "ref": null, "address": null, "is_in": null, "place": null, "man_made": null, "other_tags": "\"bus\"=>\"yes\",\"name:en\"=>\"Nijo-oji Minami 1-chome\",\"name:ja\"=>\"二条大路南一丁目\",\"name:ja_kana\"=>\"にじょうおおじいっちょうめ\",\"name:ja_rm\"=>\"Nijō-ōji Minami 1-chōme\",\"operator\"=>\"Nara Kotsu Bus Lines Co., Ltd.\",\"public_transport\"=>\"platform\"" }, "geometry": { "type": "Point", "coordinates": [ 135.7994151, 34.68425 ] } },
{ "type": "Feature", "properties": { "osm_id": "2626765375", "name": "朱雀門ひろば前", "barrier": null, "highway": "bus_stop", "ref": null, "address": null, "is_in": null, "place": null, "man_made": null, "other_tags": "\"bus\"=>\"yes\",\"operator\"=>\"奈良交通\",\"operator:en\"=>\"Nara Kotsu Bus Lines Co., Ltd.\",\"public_transport\"=>\"platform\"" }, "geometry": { "type": "Point", "coordinates": [ 135.793259400000011, 34.684336 ] } },
{ "type": "Feature", "properties": { "osm_id": "2626765388", "name": "朱雀門ひろば前", "barrier": null, "highway": "bus_stop", "ref": null, "address": null, "is_in": null, "place": null, "man_made": null, "other_tags": "\"bus\"=>\"yes\",\"operator\"=>\"奈良交通\",\"operator:en\"=>\"Nara Kotsu Bus Lines Co., Ltd.\",\"public_transport\"=>\"platform\"" }, "geometry": { "type": "Point", "coordinates": [ 135.7936537, 34.6844904 ] } },
{ "type": "Feature", "properties": { "osm_id": "2626765412", "name": "二条大路南二丁目", "barrier": null, "highway": "bus_stop", "ref": null, "address": null, "is_in": null, "place": null, "man_made": null, "other_tags": "\"bus\"=>\"yes\",\"name:en\"=>\"Nijo-oji Minami 2-chome\",\"name:ja\"=>\"二条大路南二丁目\",\"name:ja-Hira\"=>\"にじょうおおじみなみにちょうめ\",\"name:ja-Latn\"=>\"Nijō-ōji Minami 2-chōme\",\"operator\"=>\"Nara Kotsu Bus Lines Co., Ltd.\",\"public_transport\"=>\"platform\"" }, "geometry": { "type": "Point", "coordinates": [ 135.7965022, 34.6842169 ] } },
{ "type": "Feature", "properties": { "osm_id": "2626765446", "name": "二条大路南一丁目 (Nijō-ōji Minami 1-chōme)", "barrier": null, "highway": "bus_stop", "ref": null, "address": null, "is_in": null, "place": null, "man_made": null, "other_tags": "\"bus\"=>\"yes\",\"name:en\"=>\"Nijo-oji Minami 1-chome\",\"name:ja_kana\"=>\"にじょうおおじいっちょうめ\",\"name:ja_rm\"=>\"Nijō-ōji Minami 1-chōme\",\"operator\"=>\"Nara Kotsu Bus Lines Co., Ltd.\",\"public_transport\"=>\"platform\"" }, "geometry": { "type": "Point", "coordinates": [ 135.80118, 34.6867291 ] } },
{ "type": "Feature", "properties": { "osm_id": "2639447045", "name": "二条大路南3丁目", "barrier": null, "highway": "traffic_signals", "ref": null, "address": null, "is_in": null, "place": null, "man_made": null, "other_tags": "\"name:en\"=>\"Nijooji minami 3\"" }, "geometry": { "type": "Point", "coordinates": [ 135.797001099999989, 34.6842716 ] } },
{ "type": "Feature", "properties": { "osm_id": "2639447086", "name": "二条大路南１丁目", "barrier": null, "highway": "traffic_signals", "ref": null, "address": null, "is_in": null, "place": null, "man_made": null, "other_tags": "\"name:en\"=>\"Nijooji S. 1\",\"traffic_signals\"=>\"signal\"" }, "geometry": { "type": "Point", "coordinates": [ 135.8001274, 34.6843247 ] } },
{ "type": "Feature", "properties": { "osm_id": "2639447098", "name": "朱雀門前", "barrier": null, "highway": "traffic_signals", "ref": null, "address": null, "is_in": null, "place": null, "man_made": null, "other_tags": "\"crossing\"=>\"traffic_signals\",\"name:en\"=>\"Suzaku Gate\",\"traffic_signals\"=>\"signal\"" }, "geometry": { "type": "Point", "coordinates": [ 135.794103, 34.6843369 ] } },
{ "type": "Feature", "properties": { "osm_id": "2639447103", "name": "二条大路南１丁目", "barrier": null, "highway": "traffic_signals", "ref": null, "address": null, "is_in": null, "place": null, "man_made": null, "other_tags": "\"name:en\"=>\"Nijooji S. 1\"" }, "geometry": { "type": "Point", "coordinates": [ 135.800486, 34.684319 ] } },
{ "type": "Feature", "properties": { "osm_id": "2639447159", "name": "二条大路南4丁目西", "barrier": null, "highway": "traffic_signals", "ref": null, "address": null, "is_in": null, "place": null, "man_made": null, "other_tags": "\"name:en\"=>\"Nijoojiminami 4 West\"" }, "geometry": { "type": "Point", "coordinates": [ 135.7915108, 34.6843872 ] } },
{ "type": "Feature", "properties": { "osm_id": "2640757137", "name": "二条町 (Nijō-chō)", "barrier": null, "highway": "bus_stop", "ref": null, "address": null, "is_in": null, "place": null, "man_made": null, "other_tags": "\"bus\"=>\"yes\",\"name:en\"=>\"Nijo-cho\",\"name:ja_kana\"=>\"にじょうちょう\",\"name:ja_rm\"=>\"Nijō-chō\",\"operator\"=>\"Nara Kotsu Bus Lines Co., Ltd.\",\"public_transport\"=>\"platform\"" }, "geometry": { "type": "Point", "coordinates": [ 135.7888862, 34.6940484 ] } },
{ "type": "Feature", "properties": { "osm_id": "2649663139", "name": "二条町 (Nijō-chō)", "barrier": null, "highway": "bus_stop", "ref": null, "address": null, "is_in": null, "place": null, "man_made": null, "other_tags": "\"bench\"=>\"yes\",\"bus\"=>\"yes\",\"name:en\"=>\"Nijo-cho\",\"name:ja_kana\"=>\"にじょうちょう\",\"name:ja_rm\"=>\"Nijō-chō\",\"operator\"=>\"Nara Kotsu Bus Lines Co., Ltd.\",\"public_transport\"=>\"platform\"" }, "geometry": { "type": "Point", "coordinates": [ 135.7902269, 34.6940329 ] } },
{ "type": "Feature", "properties": { "osm_id": "2649663150", "name": "佐紀町 (Saki-chō)", "barrier": null, "highway": "bus_stop", "ref": null, "address": null, "is_in": null, "place": null, "man_made": null, "other_tags": "\"bench\"=>\"yes\",\"name:en\"=>\"Saki-cho\",\"name:ja_kana\"=>\"さきちょう\",\"name:ja_rm\"=>\"Saki-chō\",\"operator\"=>\"Nara Kotsu Bus Lines Co., Ltd.\"" }, "geometry": { "type": "Point", "coordinates": [ 135.7939778, 34.6942572 ] } },
{ "type": "Feature", "properties": { "osm_id": "2649663155", "name": "佐紀町 (Saki-chō)", "barrier": null, "highway": "bus_stop", "ref": null, "address": null, "is_in": null, "place": null, "man_made": null, "other_tags": "\"bus\"=>\"yes\",\"name:en\"=>\"Saki-cho\",\"name:ja_kana\"=>\"さきちょう\",\"name:ja_rm\"=>\"Saki-chō\",\"operator\"=>\"Nara Kotsu Bus Lines Co., Ltd.\",\"public_transport\"=>\"platform\"" }, "geometry": { "type": "Point", "coordinates": [ 135.7939653, 34.6943756 ] } },
{ "type": "Feature", "properties": { "osm_id": "2649663166", "name": "佐紀駐在所 (Saki Residential Police Box)", "barrier": null, "highway": "bus_stop", "ref": null, "address": null, "is_in": null, "place": null, "man_made": null, "other_tags": "\"bus\"=>\"yes\",\"name:en\"=>\"Saki Residential Police Box\",\"name:ja_kana\"=>\"さきちゅうざいしょ\",\"name:ja_rm\"=>\"Saki Chūzaisho\",\"operator\"=>\"Nara Kotsu Bus Lines Co., Ltd.\",\"public_transport\"=>\"platform\"" }, "geometry": { "type": "Point", "coordinates": [ 135.7956509, 34.6949098 ] } },
{ "type": "Feature", "properties": { "osm_id": "2649663171", "name": "佐紀駐在所 (Saki Residential Police Box)", "barrier": null, "highway": "bus_stop", "ref": null, "address": null, "is_in": null, "place": null, "man_made": null, "other_tags": "\"bus\"=>\"yes\",\"name:en\"=>\"Saki Residential Police Box\",\"name:ja_kana\"=>\"さきちゅうざいしょ\",\"name:ja_rm\"=>\"Saki Chūzaisho\",\"operator\"=>\"Nara Kotsu Bus Lines Co., Ltd.\",\"public_transport\"=>\"platform\"" }, "geometry": { "type": "Point", "coordinates": [ 135.795715300000012, 34.6949675 ] } },
{ "type": "Feature", "properties": { "osm_id": "2649663182", "name": "平城宮跡 (Heijō Palace Site)", "barrier": null, "highway": "bus_stop", "ref": null, "address": null, "is_in": null, "place": null, "man_made": null, "other_tags": "\"bus\"=>\"yes\",\"name:en\"=>\"Heijo Palace Site\",\"name:ja_kana\"=>\"へいじょうきゅうせき\",\"name:ja_rm\"=>\"Heijō Kyūseki\",\"operator\"=>\"Nara Kotsu Bus Lines Co., Ltd.\",\"public_transport\"=>\"platform\"" }, "geometry": { "type": "Point", "coordinates": [ 135.7992274, 34.6941019 ] } },
{ "type": "Feature", "properties": { "osm_id": "2651595408", "name": "通行止め", "barrier": null, "highway": null, "ref": null, "address": null, "is_in": null, "place": null, "man_made": null, "other_tags": "\"junction\"=>\"yes\"" }, "geometry": { "type": "Point", "coordinates": [ 135.7982495, 34.6903848 ] } },
{ "type": "Feature", "properties": { "osm_id": "2651595712", "name": "宇奈多理坐高御魂神社", "barrier": null, "highway": null, "ref": null, "address": null, "is_in": null, "place": null, "man_made": null, "other_tags": "\"amenity\"=>\"place_of_worship\",\"name:en\"=>\"Unatari Niimasu Takamusubi Shrine\",\"name:ja-Hira\"=>\"うなたりにいますたかみむすびじんじゃ\",\"religion\"=>\"shinto\"" }, "geometry": { "type": "Point", "coordinates": [ 135.8015609, 34.6900316 ] } },
{ "type": "Feature", "properties": { "osm_id": "2651595717", "name": "極楽寺", "barrier": null, "highway": null, "ref": null, "address": null, "is_in": null, "place": null, "man_made": null, "other_tags": "\"amenity\"=>\"place_of_worship\",\"name:en\"=>\"Gokuraku-ji Temple\",\"religion\"=>\"buddhist\"" }, "geometry": { "type": "Point", "coordinates": [ 135.8033792, 34.6914872 ] } },
{ "type": "Feature", "properties": { "osm_id": "3003943716", "name": null, "barrier": null, "highway": null, "ref": null, "address": null, "is_in": null, "place": null, "man_made": null, "other_tags": "\"railway\"=>\"level_crossing\"" }, "geometry": { "type": "Point", "coordinates": [ 135.7962182, 34.687715 ] } },
{ "type": "Feature", "properties": { "osm_id": "3004598738", "name": "二条町二丁目", "barrier": null, "highway": "bus_stop", "ref": null, "address": null, "is_in": null, "place": null, "man_made": null, "other_tags": "\"bus\"=>\"yes\",\"name:en\"=>\"Nijo-cho 2-chome\",\"name:ja-Hira\"=>\"にじょうちょうにちょうめ\",\"name:ja-Latn\"=>\"Nijō-chō 2-chōme\",\"operator\"=>\"Nara Kotsu Bus Lines Co., Ltd.\",\"public_transport\"=>\"platform\"" }, "geometry": { "type": "Point", "coordinates": [ 135.7886187, 34.6914811 ] } },
{ "type": "Feature", "properties": { "osm_id": "3004598739", "name": "二条町二丁目", "barrier": null, "highway": "bus_stop", "ref": null, "address": null, "is_in": null, "place": null, "man_made": null, "other_tags": "\"bus\"=>\"yes\",\"name:en\"=>\"Nijo-cho 2-chome\",\"name:ja-Hira\"=>\"にじょうちょうにちょうめ\",\"name:ja-Latn\"=>\"Nijō-chō 2-chōme\",\"operator\"=>\"Nara Kotsu Bus Lines Co., Ltd.\",\"public_transport\"=>\"platform\"" }, "geometry": { "type": "Point", "coordinates": [ 135.7887651, 34.6917069 ] } },
{ "type": "Feature", "properties": { "osm_id": "3004598740", "name": "簡保センター (Kampo Center)", "barrier": null, "highway": "bus_stop", "ref": null, "address": null, "is_in": null, "place": null, "man_made": null, "other_tags": "\"bus\"=>\"yes\",\"name:en\"=>\"Kampo Center\",\"name:ja_kana\"=>\"かんぽせんたー\",\"name:ja_rm\"=>\"Kampo Sentā\",\"operator\"=>\"Nara Kotsu Bus Lines Co., Ltd.\",\"public_transport\"=>\"platform\"" }, "geometry": { "type": "Point", "coordinates": [ 135.788645699999989, 34.6886943 ] } },
{ "type": "Feature", "properties": { "osm_id": "3004598741", "name": "簡保センター (Kampo Center)", "barrier": null, "highway": "bus_stop", "ref": null, "address": null, "is_in": null, "place": null, "man_made": null, "other_tags": "\"bus\"=>\"yes\",\"name:en\"=>\"Kampo Center\",\"name:ja_kana\"=>\"かんぽせんたー\",\"name:ja_rm\"=>\"Kampo Sentā\",\"operator\"=>\"Nara Kotsu Bus Lines Co., Ltd.\",\"public_transport\"=>\"platform\"" }, "geometry": { "type": "Point", "coordinates": [ 135.788751100000013, 34.68892 ] } },
{ "type": "Feature", "properties": { "osm_id": "3083785961", "name": "ガリバー", "barrier": null, "highway": null, "ref": null, "address": null, "is_in": null, "place": null, "man_made": null, "other_tags": "\"branch\"=>\"奈良三条大路店\",\"brand\"=>\"ガリバー\",\"brand:en\"=>\"Gulliver\",\"brand:ja\"=>\"ガリバー\",\"brand:wikidata\"=>\"Q11296264\",\"brand:wikipedia\"=>\"ja:IDOM\",\"name:en\"=>\"Gulliver\",\"name:ja\"=>\"ガリバー\",\"opening_hours\"=>\"10:00-20:00\",\"shop\"=>\"car\"" }, "geometry": { "type": "Point", "coordinates": [ 135.797159, 34.68409 ] } },
{ "type": "Feature", "properties": { "osm_id": "3488030655", "name": null, "barrier": null, "highway": null, "ref": null, "address": null, "is_in": null, "place": null, "man_made": null, "other_tags": "\"historic\"=>\"wayside_shrine\",\"religion\"=>\"shinto\"" }, "geometry": { "type": "Point", "coordinates": [ 135.7921288, 34.6955152 ] } },
{ "type": "Feature", "properties": { "osm_id": "3488030683", "name": null, "barrier": null, "highway": null, "ref": null, "address": null, "is_in": null, "place": null, "man_made": null, "other_tags": "\"historic\"=>\"wayside_shrine\",\"religion\"=>\"shinto\"" }, "geometry": { "type": "Point", "coordinates": [ 135.7926637, 34.6956384 ] } },
{ "type": "Feature", "properties": { "osm_id": "3816616815", "name": "造酒司井戸", "barrier": null, "highway": null, "ref": null, "address": null, "is_in": null, "place": null, "man_made": "water_well", "other_tags": "\"historic\"=>\"archaeological_site\"" }, "geometry": { "type": "Point", "coordinates": [ 135.8002694, 34.6933881 ] } },
{ "type": "Feature", "properties": { "osm_id": "3816617199", "name": "推定宮内省", "barrier": null, "highway": null, "ref": null, "address": null, "is_in": null, "place": null, "man_made": null, "other_tags": "\"historic\"=>\"archaeological_site\",\"name:en\"=>\"Office of Imperial Household\"" }, "geometry": { "type": "Point", "coordinates": [ 135.79841, 34.6932049 ] } },
{ "type": "Feature", "properties": { "osm_id": "3818297172", "name": null, "barrier": null, "highway": null, "ref": null, "address": null, "is_in": null, "place": null, "man_made": null, "other_tags": null }, "geometry": { "type": "Point", "coordinates": [ 135.7930666, 34.6942222 ] } },
{ "type": "Feature", "properties": { "osm_id": "3818354965", "name": "第一次大極殿復原事業情報館", "barrier": null, "highway": null, "ref": null, "address": null, "is_in": null, "place": null, "man_made": null, "other_tags": "\"tourism\"=>\"museum\"" }, "geometry": { "type": "Point", "coordinates": [ 135.792805499999986, 34.6922179 ] } },
{ "type": "Feature", "properties": { "osm_id": "3818355003", "name": "休憩所", "barrier": null, "highway": null, "ref": null, "address": null, "is_in": null, "place": null, "man_made": null, "other_tags": null }, "geometry": { "type": "Point", "coordinates": [ 135.7927984, 34.6893797 ] } },
{ "type": "Feature", "properties": { "osm_id": "3827859618", "name": "式部省", "barrier": null, "highway": null, "ref": null, "address": null, "is_in": null, "place": null, "man_made": null, "other_tags": "\"historic\"=>\"yes\"" }, "geometry": { "type": "Point", "coordinates": [ 135.7980535, 34.687188 ] } },
{ "type": "Feature", "properties": { "osm_id": "3833744187", "name": "平城宮跡資料館入口", "barrier": null, "highway": null, "ref": null, "address": null, "is_in": null, "place": null, "man_made": null, "other_tags": "\"entrance\"=>\"yes\"" }, "geometry": { "type": "Point", "coordinates": [ 135.7898251, 34.6940105 ] } },
{ "type": "Feature", "properties": { "osm_id": "3833803761", "name": null, "barrier": null, "highway": null, "ref": null, "address": null, "is_in": null, "place": null, "man_made": null, "other_tags": "\"amenity\"=>\"toilets\"" }, "geometry": { "type": "Point", "coordinates": [ 135.8010802, 34.690004 ] } },
{ "type": "Feature", "properties": { "osm_id": "3833803762", "name": null, "barrier": null, "highway": null, "ref": null, "address": null, "is_in": null, "place": null, "man_made": null, "other_tags": "\"amenity\"=>\"toilets\"" }, "geometry": { "type": "Point", "coordinates": [ 135.7995448, 34.6939956 ] } },
{ "type": "Feature", "properties": { "osm_id": "3833816026", "name": "平城宮跡 (Heijō Palace Site)", "barrier": null, "highway": "bus_stop", "ref": null, "address": null, "is_in": null, "place": null, "man_made": null, "other_tags": "\"bench\"=>\"yes\",\"bus\"=>\"yes\",\"name:en\"=>\"Heijo Palace Site\",\"name:ja_kana\"=>\"へいじょうきゅうせき\",\"name:ja_rm\"=>\"Heijō Kyūseki\",\"operator\"=>\"Nara Kotsu Bus Lines Co., Ltd.\",\"public_transport\"=>\"platform\"" }, "geometry": { "type": "Point", "coordinates": [ 135.7980819, 34.6943529 ] } },
{ "type": "Feature", "properties": { "osm_id": "3860573492", "name": null, "barrier": "gate", "highway": null, "ref": null, "address": null, "is_in": null, "place": null, "man_made": null, "other_tags": null }, "geometry": { "type": "Point", "coordinates": [ 135.7930665, 34.6941553 ] } },
{ "type": "Feature", "properties": { "osm_id": "4260400458", "name": null, "barrier": null, "highway": null, "ref": null, "address": null, "is_in": null, "place": null, "man_made": null, "other_tags": "\"natural\"=>\"tree\"" }, "geometry": { "type": "Point", "coordinates": [ 135.7946725, 34.6863688 ] } },
{ "type": "Feature", "properties": { "osm_id": "4260400459", "name": null, "barrier": null, "highway": null, "ref": null, "address": null, "is_in": null, "place": null, "man_made": null, "other_tags": "\"natural\"=>\"tree\"" }, "geometry": { "type": "Point", "coordinates": [ 135.794654799999989, 34.6862986 ] } },
{ "type": "Feature", "properties": { "osm_id": "4260400460", "name": null, "barrier": null, "highway": null, "ref": null, "address": null, "is_in": null, "place": null, "man_made": null, "other_tags": "\"natural\"=>\"tree\"" }, "geometry": { "type": "Point", "coordinates": [ 135.7946636, 34.6862454 ] } },
{ "type": "Feature", "properties": { "osm_id": "4260400461", "name": null, "barrier": null, "highway": null, "ref": null, "address": null, "is_in": null, "place": null, "man_made": null, "other_tags": "\"natural\"=>\"tree\"" }, "geometry": { "type": "Point", "coordinates": [ 135.794657699999988, 34.6861777 ] } },
{ "type": "Feature", "properties": { "osm_id": "4260400462", "name": null, "barrier": null, "highway": null, "ref": null, "address": null, "is_in": null, "place": null, "man_made": null, "other_tags": "\"natural\"=>\"tree\"" }, "geometry": { "type": "Point", "coordinates": [ 135.7948225, 34.6862019 ] } },
{ "type": "Feature", "properties": { "osm_id": "4260400463", "name": null, "barrier": null, "highway": null, "ref": null, "address": null, "is_in": null, "place": null, "man_made": null, "other_tags": "\"natural\"=>\"tree\"" }, "geometry": { "type": "Point", "coordinates": [ 135.7946636, 34.6860979 ] } },
{ "type": "Feature", "properties": { "osm_id": "4260400464", "name": null, "barrier": null, "highway": null, "ref": null, "address": null, "is_in": null, "place": null, "man_made": null, "other_tags": "\"natural\"=>\"tree\"" }, "geometry": { "type": "Point", "coordinates": [ 135.794657699999988, 34.6860446 ] } },
{ "type": "Feature", "properties": { "osm_id": "4260400465", "name": null, "barrier": null, "highway": null, "ref": null, "address": null, "is_in": null, "place": null, "man_made": null, "other_tags": "\"natural\"=>\"tree\"" }, "geometry": { "type": "Point", "coordinates": [ 135.7948343, 34.6860591 ] } },
{ "type": "Feature", "properties": { "osm_id": "4260400480", "name": null, "barrier": null, "highway": null, "ref": null, "address": null, "is_in": null, "place": null, "man_made": null, "other_tags": "\"natural\"=>\"tree\"" }, "geometry": { "type": "Point", "coordinates": [ 135.79136, 34.6931326 ] } },
{ "type": "Feature", "properties": { "osm_id": "4260400481", "name": null, "barrier": null, "highway": null, "ref": null, "address": null, "is_in": null, "place": null, "man_made": null, "other_tags": "\"natural\"=>\"tree\"" }, "geometry": { "type": "Point", "coordinates": [ 135.79132580000001, 34.6932875 ] } },
{ "type": "Feature", "properties": { "osm_id": "4260400482", "name": null, "barrier": null, "highway": null, "ref": null, "address": null, "is_in": null, "place": null, "man_made": null, "other_tags": "\"natural\"=>\"tree\"" }, "geometry": { "type": "Point", "coordinates": [ 135.7913943, 34.6933739 ] } },
{ "type": "Feature", "properties": { "osm_id": "4260400483", "name": null, "barrier": null, "highway": null, "ref": null, "address": null, "is_in": null, "place": null, "man_made": null, "other_tags": "\"natural\"=>\"tree\"" }, "geometry": { "type": "Point", "coordinates": [ 135.7899319, 34.6935991 ] } },
{ "type": "Feature", "properties": { "osm_id": "4260400484", "name": null, "barrier": null, "highway": null, "ref": null, "address": null, "is_in": null, "place": null, "man_made": null, "other_tags": "\"natural\"=>\"tree\"" }, "geometry": { "type": "Point", "coordinates": [ 135.7906509, 34.6936313 ] } },
{ "type": "Feature", "properties": { "osm_id": "4260400485", "name": null, "barrier": null, "highway": null, "ref": null, "address": null, "is_in": null, "place": null, "man_made": null, "other_tags": "\"natural\"=>\"tree\"" }, "geometry": { "type": "Point", "coordinates": [ 135.790509, 34.6938102 ] } },
{ "type": "Feature", "properties": { "osm_id": "4260400486", "name": null, "barrier": null, "highway": null, "ref": null, "address": null, "is_in": null, "place": null, "man_made": null, "other_tags": "\"natural\"=>\"tree\"" }, "geometry": { "type": "Point", "coordinates": [ 135.790281599999986, 34.6936031 ] } },
{ "type": "Feature", "properties": { "osm_id": "4260400487", "name": null, "barrier": null, "highway": null, "ref": null, "address": null, "is_in": null, "place": null, "man_made": null, "other_tags": "\"natural\"=>\"tree\"" }, "geometry": { "type": "Point", "coordinates": [ 135.791615799999988, 34.6937544 ] } },
{ "type": "Feature", "properties": { "osm_id": "4260400488", "name": null, "barrier": null, "highway": null, "ref": null, "address": null, "is_in": null, "place": null, "man_made": null, "other_tags": "\"natural\"=>\"tree\"" }, "geometry": { "type": "Point", "coordinates": [ 135.7922202, 34.6937586 ] } },
{ "type": "Feature", "properties": { "osm_id": "4260400689", "name": null, "barrier": null, "highway": null, "ref": null, "address": null, "is_in": null, "place": null, "man_made": null, "other_tags": "\"natural\"=>\"tree\"" }, "geometry": { "type": "Point", "coordinates": [ 135.7924968, 34.6938892 ] } },
{ "type": "Feature", "properties": { "osm_id": "4260400690", "name": null, "barrier": null, "highway": null, "ref": null, "address": null, "is_in": null, "place": null, "man_made": null, "other_tags": "\"natural\"=>\"tree\"" }, "geometry": { "type": "Point", "coordinates": [ 135.7920511, 34.6914507 ] } },
{ "type": "Feature", "properties": { "osm_id": "4452228740", "name": null, "barrier": null, "highway": null, "ref": null, "address": null, "is_in": null, "place": null, "man_made": null, "other_tags": "\"crossing:barrier\"=>\"double_half\",\"railway\"=>\"level_crossing\"" }, "geometry": { "type": "Point", "coordinates": [ 135.788687900000014, 34.6907303 ] } },
{ "type": "Feature", "properties": { "osm_id": "4452352785", "name": null, "barrier": null, "highway": null, "ref": null, "address": null, "is_in": null, "place": null, "man_made": null, "other_tags": "\"railway\"=>\"crossing\"" }, "geometry": { "type": "Point", "coordinates": [ 135.799845299999987, 34.6871531 ] } },
{ "type": "Feature", "properties": { "osm_id": "4452352786", "name": null, "barrier": null, "highway": null, "ref": null, "address": null, "is_in": null, "place": null, "man_made": null, "other_tags": "\"railway\"=>\"level_crossing\"" }, "geometry": { "type": "Point", "coordinates": [ 135.796208299999989, 34.6877531 ] } },
{ "type": "Feature", "properties": { "osm_id": "4452353491", "name": null, "barrier": null, "highway": null, "ref": null, "address": null, "is_in": null, "place": null, "man_made": null, "other_tags": "\"railway\"=>\"level_crossing\"" }, "geometry": { "type": "Point", "coordinates": [ 135.793688800000012, 34.6883356 ] } },
{ "type": "Feature", "properties": { "osm_id": "4485094623", "name": null, "barrier": null, "highway": null, "ref": null, "address": null, "is_in": null, "place": null, "man_made": "water_well", "other_tags": null }, "geometry": { "type": "Point", "coordinates": [ 135.7980399, 34.693581 ] } },
{ "type": "Feature", "properties": { "osm_id": "4485094630", "name": "内裏と井戸", "barrier": null, "highway": null, "ref": null, "address": null, "is_in": null, "place": null, "man_made": null, "other_tags": "\"information\"=>\"board\",\"tourism\"=>\"information\"" }, "geometry": { "type": "Point", "coordinates": [ 135.7980158, 34.693506 ] } },
{ "type": "Feature", "properties": { "osm_id": "4485094631", "name": "宮内省の復原建物", "barrier": null, "highway": null, "ref": null, "address": null, "is_in": null, "place": null, "man_made": null, "other_tags": "\"information\"=>\"board\",\"tourism\"=>\"information\"" }, "geometry": { "type": "Point", "coordinates": [ 135.7983792, 34.6934663 ] } },
{ "type": "Feature", "properties": { "osm_id": "4485094632", "name": "平城宮内裏", "barrier": null, "highway": null, "ref": null, "address": null, "is_in": null, "place": null, "man_made": null, "other_tags": "\"information\"=>\"board\",\"tourism\"=>\"information\"" }, "geometry": { "type": "Point", "coordinates": [ 135.7971641, 34.6934475 ] } },
{ "type": "Feature", "properties": { "osm_id": "4485094633", "name": "役人の道具", "barrier": null, "highway": null, "ref": null, "address": null, "is_in": null, "place": null, "man_made": null, "other_tags": "\"information\"=>\"board\",\"tourism\"=>\"information\"" }, "geometry": { "type": "Point", "coordinates": [ 135.7983533, 34.6932164 ] } },
{ "type": "Feature", "properties": { "osm_id": "4485094634", "name": "役所での仕事", "barrier": null, "highway": null, "ref": null, "address": null, "is_in": null, "place": null, "man_made": null, "other_tags": "\"information\"=>\"board\",\"tourism\"=>\"information\"" }, "geometry": { "type": "Point", "coordinates": [ 135.7983506, 34.6932848 ] } },
{ "type": "Feature", "properties": { "osm_id": "5034108132", "name": "蛸庵", "barrier": null, "highway": null, "ref": null, "address": null, "is_in": null, "place": null, "man_made": null, "other_tags": "\"amenity\"=>\"restaurant\"" }, "geometry": { "type": "Point", "coordinates": [ 135.795126399999987, 34.6845533 ] } },
{ "type": "Feature", "properties": { "osm_id": "5034108178", "name": null, "barrier": null, "highway": null, "ref": null, "address": null, "is_in": null, "place": null, "man_made": null, "other_tags": "\"amenity\"=>\"parking_entrance\",\"parking\"=>\"surface\"" }, "geometry": { "type": "Point", "coordinates": [ 135.799856299999988, 34.6857887 ] } },
{ "type": "Feature", "properties": { "osm_id": "5034157598", "name": null, "barrier": null, "highway": null, "ref": null, "address": null, "is_in": null, "place": null, "man_made": null, "other_tags": "\"access\"=>\"customers\",\"amenity\"=>\"parking\",\"parking\"=>\"surface\"" }, "geometry": { "type": "Point", "coordinates": [ 135.799077, 34.6847015 ] } },
{ "type": "Feature", "properties": { "osm_id": "5034157599", "name": null, "barrier": null, "highway": null, "ref": null, "address": null, "is_in": null, "place": null, "man_made": null, "other_tags": "\"access\"=>\"customers\",\"amenity\"=>\"bicycle_parking\"" }, "geometry": { "type": "Point", "coordinates": [ 135.7989771, 34.6845988 ] } },
{ "type": "Feature", "properties": { "osm_id": "5063512056", "name": null, "barrier": "kerb", "highway": null, "ref": null, "address": null, "is_in": null, "place": null, "man_made": null, "other_tags": null }, "geometry": { "type": "Point", "coordinates": [ 135.799981699999989, 34.6844953 ] } },
{ "type": "Feature", "properties": { "osm_id": "5063512059", "name": null, "barrier": "kerb", "highway": null, "ref": null, "address": null, "is_in": null, "place": null, "man_made": null, "other_tags": null }, "geometry": { "type": "Point", "coordinates": [ 135.8000649, 34.6842416 ] } },
{ "type": "Feature", "properties": { "osm_id": "5063512062", "name": null, "barrier": "kerb", "highway": null, "ref": null, "address": null, "is_in": null, "place": null, "man_made": null, "other_tags": null }, "geometry": { "type": "Point", "coordinates": [ 135.8005396, 34.6845151 ] } },
{ "type": "Feature", "properties": { "osm_id": "5063512065", "name": null, "barrier": "kerb", "highway": null, "ref": null, "address": null, "is_in": null, "place": null, "man_made": null, "other_tags": null }, "geometry": { "type": "Point", "coordinates": [ 135.800027300000011, 34.6845107 ] } },
{ "type": "Feature", "properties": { "osm_id": "5063512069", "name": null, "barrier": "kerb", "highway": null, "ref": null, "address": null, "is_in": null, "place": null, "man_made": null, "other_tags": null }, "geometry": { "type": "Point", "coordinates": [ 135.800510800000012, 34.6842477 ] } },
{ "type": "Feature", "properties": { "osm_id": "5063512070", "name": null, "barrier": "kerb", "highway": null, "ref": null, "address": null, "is_in": null, "place": null, "man_made": null, "other_tags": null }, "geometry": { "type": "Point", "coordinates": [ 135.8006948, 34.6843099 ] } },
{ "type": "Feature", "properties": { "osm_id": "5063512071", "name": null, "barrier": "kerb", "highway": null, "ref": null, "address": null, "is_in": null, "place": null, "man_made": null, "other_tags": null }, "geometry": { "type": "Point", "coordinates": [ 135.8006973, 34.6844863 ] } },
{ "type": "Feature", "properties": { "osm_id": "5063512072", "name": null, "barrier": "kerb", "highway": null, "ref": null, "address": null, "is_in": null, "place": null, "man_made": null, "other_tags": null }, "geometry": { "type": "Point", "coordinates": [ 135.7999753, 34.6842865 ] } },
{ "type": "Feature", "properties": { "osm_id": "5654119272", "name": "トイレ", "barrier": null, "highway": null, "ref": null, "address": null, "is_in": null, "place": null, "man_made": null, "other_tags": "\"amenity\"=>\"toilets\",\"wheelchair\"=>\"limited\"" }, "geometry": { "type": "Point", "coordinates": [ 135.7928583, 34.6917859 ] } },
{ "type": "Feature", "properties": { "osm_id": "5654119556", "name": "平城宮跡", "barrier": null, "highway": null, "ref": null, "address": null, "is_in": null, "place": null, "man_made": null, "other_tags": "\"archaeological_site\"=>\"city\",\"boundary\"=>\"historic\",\"heritage\"=>\"1\",\"heritage:operator\"=>\"whc\",\"historic\"=>\"archaeological_site\",\"name:en\"=>\"Heijō Palace\",\"name:fr\"=>\"Site du palais impérial de Heijō\",\"name:ja\"=>\"平城宮跡\",\"name:ja-Hira\"=>\"へいじょうきゅうせき\",\"name:ja-Latn\"=>\"Heijoukyuuseki\",\"ref:whc\"=>\"870-007\",\"tourism\"=>\"attraction\",\"whc:criteria\"=>\"(ii),(iii),(iv),(vi)\",\"whc:inscription_date\"=>\"1998\",\"wikidata\"=>\"Q211585\",\"wikimedia_commons\"=>\"Category:Heijō Palace\",\"wikipedia\"=>\"en:Heijō Palace\"" }, "geometry": { "type": "Point", "coordinates": [ 135.7958516, 34.6905895 ] } },
{ "type": "Feature", "properties": { "osm_id": "5654321872", "name": null, "barrier": null, "highway": null, "ref": null, "address": null, "is_in": null, "place": null, "man_made": null, "other_tags": "\"amenity\"=>\"toilets\",\"fee\"=>\"no\",\"wheelchair\"=>\"yes\"" }, "geometry": { "type": "Point", "coordinates": [ 135.7954466, 34.6939791 ] } },
{ "type": "Feature", "properties": { "osm_id": "5654321880", "name": null, "barrier": null, "highway": null, "ref": null, "address": null, "is_in": null, "place": null, "man_made": null, "other_tags": "\"railway\"=>\"crossing\"" }, "geometry": { "type": "Point", "coordinates": [ 135.7961574, 34.6877268 ] } },
{ "type": "Feature", "properties": { "osm_id": "5654321881", "name": null, "barrier": null, "highway": null, "ref": null, "address": null, "is_in": null, "place": null, "man_made": null, "other_tags": "\"railway\"=>\"crossing\"" }, "geometry": { "type": "Point", "coordinates": [ 135.7961493, 34.6877648 ] } },
{ "type": "Feature", "properties": { "osm_id": "5797234646", "name": "復元遣唐使船", "barrier": null, "highway": null, "ref": null, "address": null, "is_in": null, "place": null, "man_made": null, "other_tags": "\"operator\"=>\"平城宮跡歴史公園\",\"tourism\"=>\"attraction\"" }, "geometry": { "type": "Point", "coordinates": [ 135.7931011, 34.6849323 ] } },
{ "type": "Feature", "properties": { "osm_id": "6553238822", "name": null, "barrier": null, "highway": "crossing", "ref": null, "address": null, "is_in": null, "place": null, "man_made": null, "other_tags": null }, "geometry": { "type": "Point", "coordinates": [ 135.7935348, 34.684512 ] } },
{ "type": "Feature", "properties": { "osm_id": "7125210981", "name": "洋麺屋五右衛門", "barrier": null, "highway": null, "ref": null, "address": null, "is_in": null, "place": null, "man_made": null, "other_tags": "\"amenity\"=>\"restaurant\",\"brand\"=>\"洋麺屋五右衛門\",\"cuisine\"=>\"italian\",\"name:en\"=>\"Yomen-ya Goemon\",\"name:ja\"=>\"洋麺屋五右衛門\",\"name:ja-Hira\"=>\"ようめんやごえもん\",\"name:ja-Latn\"=>\"Yōmen-ya Goemon\",\"opening_hours\"=>\"Mo-Fr 11:30-21:30; Sa,Su,PH 11:00-22:00\",\"operator\"=>\"日本レストランシステム\",\"phone\"=>\"+81-742-30-3010\",\"website\"=>\"http://www.yomenya-goemon.com/shop/kinki.html#nara\"" }, "geometry": { "type": "Point", "coordinates": [ 135.799822, 34.6845637 ] } },
{ "type": "Feature", "properties": { "osm_id": "7125210982", "name": "くら寿司", "barrier": null, "highway": null, "ref": null, "address": null, "is_in": null, "place": null, "man_made": null, "other_tags": "\"alt_name:en\"=>\"Kurazushi\",\"amenity\"=>\"fast_food\",\"branch\"=>\"大宮店\",\"brand\"=>\"くら寿司\",\"brand:en\"=>\"Kura Sushi\",\"brand:ja\"=>\"くら寿司\",\"brand:wikidata\"=>\"Q6445491\",\"brand:wikipedia\"=>\"ja:くら寿司\",\"cuisine\"=>\"sushi\",\"name:en\"=>\"Kura Sushi\",\"name:ja\"=>\"くら寿司\",\"name:ja_kana\"=>\"くらずし\",\"name:ja-Latn\"=>\"Kura-zushi\",\"name:ja_rm\"=>\"Kura-zushi\",\"official_name\"=>\"無添くら寿司\",\"official_name:en\"=>\"Muten Kura Sushi\",\"official_name:ja\"=>\"無添くら寿司\",\"operator\"=>\"くらコーポレーション\",\"takeaway\"=>\"yes\"" }, "geometry": { "type": "Point", "coordinates": [ 135.7992601, 34.684631 ] } },
{ "type": "Feature", "properties": { "osm_id": "7125210983", "name": "ふとん タナカ", "barrier": null, "highway": null, "ref": null, "address": null, "is_in": null, "place": null, "man_made": null, "other_tags": "\"shop\"=>\"bed\"" }, "geometry": { "type": "Point", "coordinates": [ 135.79708930000001, 34.685028 ] } },
{ "type": "Feature", "properties": { "osm_id": "7125210984", "name": "洋服の青山", "barrier": null, "highway": null, "ref": null, "address": null, "is_in": null, "place": null, "man_made": null, "other_tags": "\"check_date\"=>\"2023-08-21\",\"shop\"=>\"clothes\"" }, "geometry": { "type": "Point", "coordinates": [ 135.7977223, 34.6847854 ] } },
{ "type": "Feature", "properties": { "osm_id": "7125221985", "name": "ザ めしや", "barrier": null, "highway": null, "ref": null, "address": null, "is_in": null, "place": null, "man_made": null, "other_tags": "\"amenity\"=>\"restaurant\"" }, "geometry": { "type": "Point", "coordinates": [ 135.797191199999986, 34.6845163 ] } },
{ "type": "Feature", "properties": { "osm_id": "7125221986", "name": null, "barrier": null, "highway": null, "ref": null, "address": null, "is_in": null, "place": null, "man_made": null, "other_tags": "\"amenity\"=>\"restaurant\",\"cuisine\"=>\"takoyaki\"" }, "geometry": { "type": "Point", "coordinates": [ 135.7978833, 34.6844678 ] } },
{ "type": "Feature", "properties": { "osm_id": "7125221987", "name": "人形の久宝堂", "barrier": null, "highway": null, "ref": null, "address": null, "is_in": null, "place": null, "man_made": null, "other_tags": "\"shop\"=>\"gift\"" }, "geometry": { "type": "Point", "coordinates": [ 135.798441200000013, 34.684609 ] } },
{ "type": "Feature", "properties": { "osm_id": "7125221989", "name": null, "barrier": null, "highway": null, "ref": null, "address": null, "is_in": null, "place": null, "man_made": null, "other_tags": "\"shop\"=>\"hairdresser\"" }, "geometry": { "type": "Point", "coordinates": [ 135.799487199999987, 34.6846134 ] } },
{ "type": "Feature", "properties": { "osm_id": "7125221990", "name": "D-CUBE", "barrier": null, "highway": null, "ref": null, "address": null, "is_in": null, "place": null, "man_made": null, "other_tags": "\"tourism\"=>\"hotel\"" }, "geometry": { "type": "Point", "coordinates": [ 135.7998413, 34.6849133 ] } },
{ "type": "Feature", "properties": { "osm_id": "7125221991", "name": "LYNX", "barrier": null, "highway": null, "ref": null, "address": null, "is_in": null, "place": null, "man_made": null, "other_tags": "\"tourism\"=>\"motel\"" }, "geometry": { "type": "Point", "coordinates": [ 135.799675, 34.6850721 ] } },
{ "type": "Feature", "properties": { "osm_id": "7125221992", "name": null, "barrier": null, "highway": null, "ref": null, "address": null, "is_in": null, "place": null, "man_made": null, "other_tags": "\"shop\"=>\"massage\"" }, "geometry": { "type": "Point", "coordinates": [ 135.800790799999987, 34.6846884 ] } },
{ "type": "Feature", "properties": { "osm_id": "7125221993", "name": "にぎり 長次郎", "barrier": null, "highway": null, "ref": null, "address": null, "is_in": null, "place": null, "man_made": null, "other_tags": "\"amenity\"=>\"restaurant\",\"cuisine\"=>\"sushi\"" }, "geometry": { "type": "Point", "coordinates": [ 135.801005300000014, 34.684684 ] } },
{ "type": "Feature", "properties": { "osm_id": "9027429735", "name": "朱雀門ひろば前", "barrier": null, "highway": "bus_stop", "ref": "B18", "address": null, "is_in": null, "place": null, "man_made": null, "other_tags": "\"bus\"=>\"yes\",\"network\"=>\"ぐるっとバス\",\"operator\"=>\"奈良交通\",\"public_transport\"=>\"platform\"" }, "geometry": { "type": "Point", "coordinates": [ 135.7932398, 34.6843363 ] } },
{ "type": "Feature", "properties": { "osm_id": "9027429736", "name": "朱雀門ひろば", "barrier": null, "highway": "bus_stop", "ref": "B1", "address": null, "is_in": null, "place": null, "man_made": null, "other_tags": "\"bus\"=>\"yes\",\"network\"=>\"ぐるっとバス\",\"operator\"=>\"奈良交通\",\"public_transport\"=>\"platform\"" }, "geometry": { "type": "Point", "coordinates": [ 135.7924758, 34.685474 ] } },
{ "type": "Feature", "properties": { "osm_id": "9129176213", "name": "平城宮跡歴史公園 天平みはらし館前", "barrier": null, "highway": null, "ref": null, "address": null, "is_in": null, "place": null, "man_made": null, "other_tags": "\"addr:province\"=>\"奈良県\",\"amenity\"=>\"bicycle_rental\",\"authentication:app\"=>\"yes\",\"brand\"=>\"HELLO CYCLING\",\"brand:ja\"=>\"ハローサイクリング\",\"brand:wikidata\"=>\"Q91231927\",\"capacity\"=>\"10\",\"contact:website\"=>\"https://www.hellocycling.jp\",\"fee\"=>\"yes\",\"gbfs:station_id\"=>\"12443\",\"gbfs:system_id\"=>\"hellocycling\",\"network\"=>\"HELLO CYCLING\",\"network:ja\"=>\"ハローサイクリング\",\"network:wikidata\"=>\"Q91231927\"" }, "geometry": { "type": "Point", "coordinates": [ 135.7923366, 34.6860881 ] } },
{ "type": "Feature", "properties": { "osm_id": "9129216721", "name": null, "barrier": null, "highway": null, "ref": null, "address": null, "is_in": null, "place": null, "man_made": null, "other_tags": "\"amenity\"=>\"bicycle_parking\"" }, "geometry": { "type": "Point", "coordinates": [ 135.7949437, 34.6856564 ] } },
{ "type": "Feature", "properties": { "osm_id": "9129216730", "name": null, "barrier": null, "highway": null, "ref": null, "address": null, "is_in": null, "place": null, "man_made": null, "other_tags": "\"amenity\"=>\"bicycle_parking\"" }, "geometry": { "type": "Point", "coordinates": [ 135.79363140000001, 34.6851199 ] } },
{ "type": "Feature", "properties": { "osm_id": "10281533736", "name": null, "barrier": null, "highway": null, "ref": null, "address": null, "is_in": null, "place": null, "man_made": null, "other_tags": "\"natural\"=>\"tree\"" }, "geometry": { "type": "Point", "coordinates": [ 135.801035399999989, 34.6896809 ] } },
{ "type": "Feature", "properties": { "osm_id": "11011716506", "name": null, "barrier": null, "highway": null, "ref": null, "address": null, "is_in": null, "place": null, "man_made": null, "other_tags": "\"name:en\"=>\"Cauda\",\"opening_hours\"=>\"Tu-Su 10:00-22:00\",\"shop\"=>\"coffee\"" }, "geometry": { "type": "Point", "coordinates": [ 135.7885073, 34.6902625 ] } },
{ "type": "Feature", "properties": { "osm_id": "11133304998", "name": "コカ・コーラ", "barrier": null, "highway": null, "ref": null, "address": null, "is_in": null, "place": null, "man_made": null, "other_tags": "\"amenity\"=>\"vending_machine\",\"brand\"=>\"コカ・コーラ\",\"brand:en\"=>\"Coca-Cola\",\"brand:ja\"=>\"コカ・コーラ\",\"brand:wikidata\"=>\"Q2813\",\"check_date\"=>\"2023-08-21\",\"drink:cola\"=>\"yes\",\"name:en\"=>\"Coca-Cola\",\"name:ja\"=>\"コカ・コーラ\",\"vending\"=>\"drinks\"" }, "geometry": { "type": "Point", "coordinates": [ 135.7958261, 34.6909348 ] } },
{ "type": "Feature", "properties": { "osm_id": "11176045286", "name": "平城宮跡前 駐車場", "barrier": null, "highway": null, "ref": null, "address": null, "is_in": null, "place": null, "man_made": null, "other_tags": "\"addr:province\"=>\"奈良県\",\"amenity\"=>\"bicycle_rental\",\"authentication:app\"=>\"yes\",\"brand\"=>\"HELLO CYCLING\",\"brand:ja\"=>\"ハローサイクリング\",\"brand:wikidata\"=>\"Q91231927\",\"capacity\"=>\"5\",\"contact:website\"=>\"https://www.hellocycling.jp\",\"fee\"=>\"yes\",\"gbfs:station_id\"=>\"12444\",\"gbfs:system_id\"=>\"hellocycling\",\"network\"=>\"HELLO CYCLING\",\"network:ja\"=>\"ハローサイクリング\",\"network:wikidata\"=>\"Q91231927\"" }, "geometry": { "type": "Point", "coordinates": [ 135.793668, 34.684271 ] } },
{ "type": "Feature", "properties": { "osm_id": "11433397721", "name": "平城宮跡前駐車場", "barrier": null, "highway": null, "ref": "40", "address": null, "is_in": null, "place": null, "man_made": null, "other_tags": "\"amenity\"=>\"bicycle_rental\",\"authentication:app\"=>\"yes\",\"brand\"=>\"Docomo Bike Share\",\"brand:ja\"=>\"ドコモ・バイクシェア\",\"brand:website\"=>\"https://docomo-cycle.jp/\",\"brand:wikidata\"=>\"Q55533296\",\"capacity\"=>\"9\",\"fee\"=>\"yes\",\"gbfs:name\"=>\"40.平城宮跡前駐車場\",\"gbfs:station_id\"=>\"374\",\"gbfs:system_id\"=>\"docomo-cycle\",\"name:ja\"=>\"平城宮跡前駐車場\"" }, "geometry": { "type": "Point", "coordinates": [ 135.793637, 34.684273 ] } },
{ "type": "Feature", "properties": { "osm_id": "11433397728", "name": "平城宮跡歴史公園内天平みはらし館前", "barrier": null, "highway": null, "ref": "1", "address": null, "is_in": null, "place": null, "man_made": null, "other_tags": "\"amenity\"=>\"bicycle_rental\",\"authentication:app\"=>\"yes\",\"brand\"=>\"Docomo Bike Share\",\"brand:ja\"=>\"ドコモ・バイクシェア\",\"brand:website\"=>\"https://docomo-cycle.jp/\",\"brand:wikidata\"=>\"Q55533296\",\"capacity\"=>\"22\",\"fee\"=>\"yes\",\"gbfs:name\"=>\"01.平城宮跡歴史公園内天平みはらし館前\",\"gbfs:station_id\"=>\"75002\",\"gbfs:system_id\"=>\"docomo-cycle\",\"name:ja\"=>\"平城宮跡歴史公園内天平みはらし館前\"" }, "geometry": { "type": "Point", "coordinates": [ 135.792409, 34.686078 ] } },
{ "type": "Feature", "properties": { "osm_id": "11433397741", "name": "メンテナンスセンター（平城宮跡）", "barrier": null, "highway": null, "ref": "99", "address": null, "is_in": null, "place": null, "man_made": null, "other_tags": "\"amenity\"=>\"bicycle_rental\",\"authentication:app\"=>\"yes\",\"brand\"=>\"Docomo Bike Share\",\"brand:ja\"=>\"ドコモ・バイクシェア\",\"brand:website\"=>\"https://docomo-cycle.jp/\",\"brand:wikidata\"=>\"Q55533296\",\"capacity\"=>\"45\",\"fee\"=>\"yes\",\"gbfs:name\"=>\"99.メンテナンスセンター（平城宮跡）\",\"gbfs:station_id\"=>\"75042\",\"gbfs:system_id\"=>\"docomo-cycle\",\"name:ja\"=>\"メンテナンスセンター（平城宮跡）\"" }, "geometry": { "type": "Point", "coordinates": [ 135.792671, 34.686354 ] } },
{ "type": "Feature", "properties": { "osm_id": "11954894901", "name": "法華寺340ｍ　　海龍王寺480ｍ", "barrier": null, "highway": null, "ref": null, "address": null, "is_in": null, "place": null, "man_made": null, "other_tags": "\"information\"=>\"guidepost\",\"tourism\"=>\"information\"" }, "geometry": { "type": "Point", "coordinates": [ 135.80266850000001, 34.6939471 ] } },
{ "type": "Feature", "properties": { "osm_id": "11958025295", "name": "特別史跡　平城宮跡", "barrier": null, "highway": null, "ref": null, "address": null, "is_in": null, "place": null, "man_made": null, "other_tags": "\"information\"=>\"map\",\"map_size\"=>\"site\",\"map_type\"=>\"scheme\",\"tourism\"=>\"information\"" }, "geometry": { "type": "Point", "coordinates": [ 135.789949400000012, 34.6940006 ] } },
{ "type": "Feature", "properties": { "osm_id": "11958025296", "name": "平城宮跡資料館", "barrier": null, "highway": null, "ref": null, "address": null, "is_in": null, "place": null, "man_made": null, "other_tags": "\"board_type\"=>\"notice\",\"information\"=>\"board\",\"operator\"=>\"奈良文化財研究所\",\"tourism\"=>\"information\"" }, "geometry": { "type": "Point", "coordinates": [ 135.7897523, 34.6939846 ] } },
{ "type": "Feature", "properties": { "osm_id": "11958039965", "name": "日本西方三十二番札所", "barrier": null, "highway": null, "ref": null, "address": null, "is_in": null, "place": null, "man_made": null, "other_tags": "\"historic\"=>\"memorial\",\"material\"=>\"stone\",\"memorial\"=>\"stele\"" }, "geometry": { "type": "Point", "coordinates": [ 135.789376800000014, 34.6940585 ] } },
{ "type": "Feature", "properties": { "osm_id": "11958039966", "name": "西大寺道", "barrier": null, "highway": null, "ref": null, "address": null, "is_in": null, "place": null, "man_made": null, "other_tags": "\"historic\"=>\"memorial\",\"material\"=>\"stone\",\"memorial\"=>\"stele\",\"start_date\"=>\"1699-06-01\"" }, "geometry": { "type": "Point", "coordinates": [ 135.788666, 34.6939618 ] } },
{ "type": "Feature", "properties": { "osm_id": "11958039967", "name": null, "barrier": null, "highway": null, "ref": null, "address": null, "is_in": null, "place": null, "man_made": "water_well", "other_tags": "\"pump\"=>\"no\"" }, "geometry": { "type": "Point", "coordinates": [ 135.7886861, 34.6939551 ] } },
{ "type": "Feature", "properties": { "osm_id": "11958069185", "name": "アトム電器　平城京店", "barrier": null, "highway": null, "ref": null, "address": null, "is_in": null, "place": null, "man_made": null, "other_tags": "\"shop\"=>\"electronics\"" }, "geometry": { "type": "Point", "coordinates": [ 135.797001, 34.69517 ] } },
{ "type": "Feature", "properties": { "osm_id": "11958095519", "name": "平城宮跡", "barrier": null, "highway": null, "ref": null, "address": null, "is_in": null, "place": null, "man_made": null, "other_tags": "\"information\"=>\"map\",\"map_type\"=>\"scheme\",\"tourism\"=>\"information\"" }, "geometry": { "type": "Point", "coordinates": [ 135.7997013, 34.694069 ] } },
{ "type": "Feature", "properties": { "osm_id": "11958095520", "name": "特別史跡　平城宮跡", "barrier": null, "highway": null, "ref": null, "address": null, "is_in": null, "place": null, "man_made": null, "other_tags": "\"board_type\"=>\"history\",\"description\"=>\"昭和27年5月29日 特別史跡指定　　大正11年10月12日 史跡指定\",\"information\"=>\"board\",\"tourism\"=>\"information\"" }, "geometry": { "type": "Point", "coordinates": [ 135.7997442, 34.6940767 ] } },
{ "type": "Feature", "properties": { "osm_id": "11958095521", "name": "広域避難地", "barrier": null, "highway": null, "ref": null, "address": null, "is_in": null, "place": null, "man_made": null, "other_tags": "\"board_type\"=>\"notice\",\"information\"=>\"board\",\"operator\"=>\"奈良市\",\"tourism\"=>\"information\"" }, "geometry": { "type": "Point", "coordinates": [ 135.799592, 34.6940728 ] } },
{ "type": "Feature", "properties": { "osm_id": "11958095522", "name": "特別史跡　平城宮跡", "barrier": null, "highway": null, "ref": null, "address": null, "is_in": null, "place": null, "man_made": null, "other_tags": "\"board_type\"=>\"history\",\"description\"=>\"イラストと復元図\",\"information\"=>\"board\",\"tourism\"=>\"information\"" }, "geometry": { "type": "Point", "coordinates": [ 135.7985043, 34.6940662 ] } },
{ "type": "Feature", "properties": { "osm_id": "11958095523", "name": "特別史跡　平城宮跡", "barrier": null, "highway": null, "ref": null, "address": null, "is_in": null, "place": null, "man_made": null, "other_tags": "\"board_type\"=>\"history\",\"description\"=>\"昭和27年5月29日 特別史跡指定　　大正11年10月12日 史跡指定\",\"information\"=>\"board\",\"tourism\"=>\"information\"" }, "geometry": { "type": "Point", "coordinates": [ 135.7982495, 34.6939361 ] } },
{ "type": "Feature", "properties": { "osm_id": "11958095524", "name": "平城宮跡", "barrier": null, "highway": null, "ref": null, "address": null, "is_in": null, "place": null, "man_made": null, "other_tags": "\"information\"=>\"map\",\"map_type\"=>\"scheme\",\"tourism\"=>\"information\"" }, "geometry": { "type": "Point", "coordinates": [ 135.7981208, 34.6941776 ] } },
{ "type": "Feature", "properties": { "osm_id": "12151294854", "name": null, "barrier": null, "highway": null, "ref": null, "address": null, "is_in": null, "place": null, "man_made": null, "other_tags": "\"access\"=>\"customers\",\"amenity\"=>\"toilets\",\"female\"=>\"yes\",\"male\"=>\"yes\",\"unisex\"=>\"no\",\"wheelchair\"=>\"designated\"" }, "geometry": { "type": "Point", "coordinates": [ 135.7922575, 34.6862701 ] } },
{ "type": "Feature", "properties": { "osm_id": "12151294855", "name": "展望デッキ", "barrier": null, "highway": null, "ref": null, "address": null, "is_in": null, "place": null, "man_made": null, "other_tags": "\"level\"=>\"1\",\"tourism\"=>\"viewpoint\"" }, "geometry": { "type": "Point", "coordinates": [ 135.7924399, 34.6863605 ] } },
{ "type": "Feature", "properties": { "osm_id": "12151294856", "name": "IRACA", "barrier": null, "highway": null, "ref": null, "address": null, "is_in": null, "place": null, "man_made": null, "other_tags": "\"amenity\"=>\"restaurant\"" }, "geometry": { "type": "Point", "coordinates": [ 135.7935248, 34.6853106 ] } },
{ "type": "Feature", "properties": { "osm_id": "12151294857", "name": null, "barrier": null, "highway": null, "ref": null, "address": null, "is_in": null, "place": null, "man_made": null, "other_tags": "\"amenity\"=>\"toilets\",\"female\"=>\"yes\",\"male\"=>\"yes\",\"wheelchair\"=>\"designated\"" }, "geometry": { "type": "Point", "coordinates": [ 135.7935262, 34.6851518 ] } },
{ "type": "Feature", "properties": { "osm_id": "12151294858", "name": null, "barrier": null, "highway": null, "ref": null, "address": null, "is_in": null, "place": null, "man_made": null, "other_tags": "\"emergency\"=>\"defibrillator\",\"indoor\"=>\"yes\"" }, "geometry": { "type": "Point", "coordinates": [ 135.7935745, 34.6861664 ] } },
{ "type": "Feature", "properties": { "osm_id": "12151294859", "name": "天平みはらし館", "barrier": null, "highway": null, "ref": null, "address": null, "is_in": null, "place": null, "man_made": null, "other_tags": "\"information\"=>\"map\",\"map_size\"=>\"site\",\"map_type\"=>\"scheme\",\"name:en\"=>\"Tempyo Miharashii-kan\",\"tourism\"=>\"information\"" }, "geometry": { "type": "Point", "coordinates": [ 135.7927765, 34.6863825 ] } },
{ "type": "Feature", "properties": { "osm_id": "12151294860", "name": "総合案内", "barrier": null, "highway": null, "ref": null, "address": null, "is_in": null, "place": null, "man_made": null, "other_tags": "\"information\"=>\"map\",\"map_size\"=>\"site\",\"map_type\"=>\"scheme\",\"tourism\"=>\"information\"" }, "geometry": { "type": "Point", "coordinates": [ 135.792924, 34.6861818 ] } },
{ "type": "Feature", "properties": { "osm_id": "12151294861", "name": null, "barrier": null, "highway": null, "ref": null, "address": null, "is_in": null, "place": null, "man_made": null, "other_tags": "\"amenity\"=>\"bench\",\"backrest\"=>\"no\",\"seats\"=>\"3\"" }, "geometry": { "type": "Point", "coordinates": [ 135.7936019, 34.6863075 ] } },
{ "type": "Feature", "properties": { "osm_id": "12151294862", "name": null, "barrier": null, "highway": null, "ref": null, "address": null, "is_in": null, "place": null, "man_made": null, "other_tags": "\"amenity\"=>\"toilets\",\"female\"=>\"yes\",\"male\"=>\"yes\",\"wheelchair\"=>\"designated\"" }, "geometry": { "type": "Point", "coordinates": [ 135.7934229, 34.6862513 ] } },
{ "type": "Feature", "properties": { "osm_id": "12151294863", "name": null, "barrier": null, "highway": null, "ref": null, "address": null, "is_in": null, "place": null, "man_made": null, "other_tags": "\"information\"=>\"office\",\"tourism\"=>\"information\"" }, "geometry": { "type": "Point", "coordinates": [ 135.79348730000001, 34.6861995 ] } },
{ "type": "Feature", "properties": { "osm_id": "12151294864", "name": null, "barrier": null, "highway": null, "ref": null, "address": null, "is_in": null, "place": null, "man_made": null, "other_tags": "\"amenity\"=>\"taxi\"" }, "geometry": { "type": "Point", "coordinates": [ 135.793262, 34.6860241 ] } },
{ "type": "Feature", "properties": { "osm_id": "12151294865", "name": "天平つどい館", "barrier": null, "highway": null, "ref": null, "address": null, "is_in": null, "place": null, "man_made": null, "other_tags": "\"information\"=>\"map\",\"map_size\"=>\"site\",\"map_type\"=>\"scheme\",\"name:en\"=>\"Tempyo Tsudoi-kan\",\"tourism\"=>\"information\"" }, "geometry": { "type": "Point", "coordinates": [ 135.793538899999987, 34.6861504 ] } },
{ "type": "Feature", "properties": { "osm_id": "12151294866", "name": "朱雀門ひろば案内マップ", "barrier": null, "highway": null, "ref": null, "address": null, "is_in": null, "place": null, "man_made": null, "other_tags": "\"information\"=>\"map\",\"map_size\"=>\"site\",\"map_type\"=>\"scheme\",\"name:en\"=>\"Guide Map of Suzaku-mon Hiroba Square\",\"tourism\"=>\"information\"" }, "geometry": { "type": "Point", "coordinates": [ 135.7935171, 34.6858289 ] } },
{ "type": "Feature", "properties": { "osm_id": "12151294867", "name": "平城宮跡歴史公園案内マップ", "barrier": null, "highway": null, "ref": null, "address": null, "is_in": null, "place": null, "man_made": null, "other_tags": "\"information\"=>\"map\",\"map_size\"=>\"site\",\"map_type\"=>\"scheme\",\"name:en\"=>\"Guide Map of Nara Palace Site Historical Park\",\"tourism\"=>\"information\"" }, "geometry": { "type": "Point", "coordinates": [ 135.7935181, 34.6857253 ] } },
{ "type": "Feature", "properties": { "osm_id": "12151294868", "name": null, "barrier": null, "highway": null, "ref": null, "address": null, "is_in": null, "place": null, "man_made": null, "other_tags": "\"amenity\"=>\"bench\",\"backrest\"=>\"no\",\"material\"=>\"wood\",\"seats\"=>\"3\"" }, "geometry": { "type": "Point", "coordinates": [ 135.7934745, 34.6854353 ] } },
{ "type": "Feature", "properties": { "osm_id": "12151294869", "name": null, "barrier": null, "highway": null, "ref": null, "address": null, "is_in": null, "place": null, "man_made": null, "other_tags": "\"amenity\"=>\"bench\",\"backrest\"=>\"no\",\"material\"=>\"wood\",\"seats\"=>\"3\"" }, "geometry": { "type": "Point", "coordinates": [ 135.793433599999986, 34.6854347 ] } },
{ "type": "Feature", "properties": { "osm_id": "12151294870", "name": null, "barrier": null, "highway": null, "ref": null, "address": null, "is_in": null, "place": null, "man_made": null, "other_tags": "\"leaf_cycle\"=>\"evergreen\",\"leaf_type\"=>\"broadleaved\",\"natural\"=>\"tree\"" }, "geometry": { "type": "Point", "coordinates": [ 135.793197600000013, 34.6852544 ] } },
{ "type": "Feature", "properties": { "osm_id": "12151294871", "name": null, "barrier": null, "highway": null, "ref": null, "address": null, "is_in": null, "place": null, "man_made": null, "other_tags": "\"amenity\"=>\"bench\",\"backrest\"=>\"no\",\"seats\"=>\"3\"" }, "geometry": { "type": "Point", "coordinates": [ 135.7929093, 34.6852776 ] } },
{ "type": "Feature", "properties": { "osm_id": "12151294872", "name": null, "barrier": null, "highway": null, "ref": null, "address": null, "is_in": null, "place": null, "man_made": null, "other_tags": "\"amenity\"=>\"bench\",\"backrest\"=>\"no\",\"seats\"=>\"3\"" }, "geometry": { "type": "Point", "coordinates": [ 135.7929093, 34.6853007 ] } },
{ "type": "Feature", "properties": { "osm_id": "12151294873", "name": "天平みつき館", "barrier": null, "highway": null, "ref": null, "address": null, "is_in": null, "place": null, "man_made": null, "other_tags": "\"information\"=>\"map\",\"map_size\"=>\"site\",\"map_type\"=>\"scheme\",\"name:en\"=>\"Tempyo Mitsuki-kan\",\"tourism\"=>\"information\"" }, "geometry": { "type": "Point", "coordinates": [ 135.7928891, 34.6854154 ] } },
{ "type": "Feature", "properties": { "osm_id": "12151294874", "name": "天平うまし館", "barrier": null, "highway": null, "ref": null, "address": null, "is_in": null, "place": null, "man_made": null, "other_tags": "\"information\"=>\"map\",\"map_size\"=>\"site\",\"map_type\"=>\"scheme\",\"name:en\"=>\"Tempyo Umashi-kan\",\"tourism\"=>\"information\"" }, "geometry": { "type": "Point", "coordinates": [ 135.7932606, 34.685422 ] } },
{ "type": "Feature", "properties": { "osm_id": "12151294875", "name": null, "barrier": null, "highway": null, "ref": null, "address": null, "is_in": null, "place": null, "man_made": null, "other_tags": "\"amenity\"=>\"bench\",\"backrest\"=>\"no\",\"material\"=>\"wood\",\"seats\"=>\"3\"" }, "geometry": { "type": "Point", "coordinates": [ 135.7931091, 34.6854 ] } },
{ "type": "Feature", "properties": { "osm_id": "12151294876", "name": null, "barrier": null, "highway": null, "ref": null, "address": null, "is_in": null, "place": null, "man_made": null, "other_tags": "\"amenity\"=>\"bench\",\"backrest\"=>\"no\",\"material\"=>\"wood\",\"seats\"=>\"3\"" }, "geometry": { "type": "Point", "coordinates": [ 135.793262, 34.6853978 ] } },
{ "type": "Feature", "properties": { "osm_id": "12151294877", "name": null, "barrier": null, "highway": null, "ref": null, "address": null, "is_in": null, "place": null, "man_made": null, "other_tags": "\"amenity\"=>\"bench\",\"backrest\"=>\"no\",\"material\"=>\"wood\",\"seats\"=>\"3\"" }, "geometry": { "type": "Point", "coordinates": [ 135.793144, 34.685304 ] } },
{ "type": "Feature", "properties": { "osm_id": "12151294878", "name": null, "barrier": null, "highway": null, "ref": null, "address": null, "is_in": null, "place": null, "man_made": null, "other_tags": "\"amenity\"=>\"vending_machine\",\"vending\"=>\"drinks\"" }, "geometry": { "type": "Point", "coordinates": [ 135.7933123, 34.6851662 ] } },
{ "type": "Feature", "properties": { "osm_id": "12151294879", "name": null, "barrier": null, "highway": null, "ref": null, "address": null, "is_in": null, "place": null, "man_made": null, "other_tags": "\"amenity\"=>\"vending_machine\",\"vending\"=>\"drinks\"" }, "geometry": { "type": "Point", "coordinates": [ 135.79331160000001, 34.685178 ] } },
{ "type": "Feature", "properties": { "osm_id": "12151294880", "name": null, "barrier": null, "highway": null, "ref": null, "address": null, "is_in": null, "place": null, "man_made": null, "other_tags": "\"access\"=>\"customers\",\"amenity\"=>\"toilets\",\"female\"=>\"yes\",\"male\"=>\"yes\",\"wheelchair\"=>\"designated\"" }, "geometry": { "type": "Point", "coordinates": [ 135.7927197, 34.6852923 ] } },
{ "type": "Feature", "properties": { "osm_id": "12151294881", "name": "COSTA", "barrier": null, "highway": null, "ref": null, "address": null, "is_in": null, "place": null, "man_made": null, "other_tags": "\"amenity\"=>\"cafe\"" }, "geometry": { "type": "Point", "coordinates": [ 135.79339490000001, 34.6853087 ] } },
{ "type": "Feature", "properties": { "osm_id": "12151294882", "name": null, "barrier": null, "highway": null, "ref": null, "address": null, "is_in": null, "place": null, "man_made": null, "other_tags": "\"shop\"=>\"gift\"" }, "geometry": { "type": "Point", "coordinates": [ 135.793402, 34.6850663 ] } }
]
}
