{
"type": "FeatureCollection",
"name": "map-points",
"crs": { "type": "name", "properties": { "name": "urn:ogc:def:crs:OGC:1.3:CRS84" } },
"features": [
{ "type": "Feature", "properties": { "osm_id": "734220305", "name": "噴水口", "barrier": "turnstile", "highway": null, "ref": null, "address": null, "is_in": null, "place": null, "man_made": null, "other_tags": "\"entrance\"=>\"exit\",\"foot\"=>\"yes\",\"name:en\"=>\"Fountain Gate\"" }, "geometry": { "type": "Point", "coordinates": [ 139.5261475, 35.494807 ] } },
{ "type": "Feature", "properties": { "osm_id": "734220423", "name": "Kaze-no-oka Overlook", "barrier": null, "highway": null, "ref": null, "address": null, "is_in": null, "place": null, "man_made": null, "other_tags": "\"name:ja\"=>\"風の丘\",\"tourism\"=>\"viewpoint\"" }, "geometry": { "type": "Point", "coordinates": [ 139.523232299999989, 35.4972625 ] } },
{ "type": "Feature", "properties": { "osm_id": "1420825194", "name": "横浜市立よこはま動物園ズーラシア", "barrier": null, "highway": null, "ref": null, "address": null, "is_in": null, "place": null, "man_made": null, "other_tags": "\"addr:block_number\"=>\"1175\",\"addr:city\"=>\"横浜市\",\"addr:housenumber\"=>\"1\",\"addr:province\"=>\"神奈川県\",\"addr:quarter\"=>\"上白根町\",\"addr:suburb\"=>\"旭区\",\"opening_hours\"=>\"9:30-17:00; Tu off\",\"phone\"=>\"+81-45-959-1377\",\"tourism\"=>\"zoo\"" }, "geometry": { "type": "Point", "coordinates": [ 139.525295, 35.494425 ] } },
{ "type": "Feature", "properties": { "osm_id": "2279588405", "name": "ぱかぱか", "barrier": null, "highway": "bus_stop", "ref": "ズッピ;サバンナ号", "address": null, "is_in": null, "place": null, "man_made": null, "other_tags": "\"bus\"=>\"yes\",\"public_transport\"=>\"stop_position\"" }, "geometry": { "type": "Point", "coordinates": [ 139.5229382, 35.4974589 ] } },
{ "type": "Feature", "properties": { "osm_id": "2279588719", "name": null, "barrier": "gate", "highway": null, "ref": null, "address": null, "is_in": null, "place": null, "man_made": null, "other_tags": null }, "geometry": { "type": "Point", "coordinates": [ 139.520738099999988, 35.4991296 ] } },
{ "type": "Feature", "properties": { "osm_id": "2279588786", "name": null, "barrier": "gate", "highway": null, "ref": null, "address": null, "is_in": null, "place": null, "man_made": null, "other_tags": null }, "geometry": { "type": "Point", "coordinates": [ 139.5223378, 35.4995594 ] } },
{ "type": "Feature", "properties": { "osm_id": "2279743374", "name": null, "barrier": "gate", "highway": null, "ref": null, "address": null, "is_in": null, "place": null, "man_made": null, "other_tags": null }, "geometry": { "type": "Point", "coordinates": [ 139.526840099999987, 35.4937675 ] } },
{ "type": "Feature", "properties": { "osm_id": "2279743390", "name": "入園ゲート", "barrier": null, "highway": null, "ref": null, "address": null, "is_in": null, "place": null, "man_made": null, "other_tags": "\"entrance\"=>\"main\",\"name:en\"=>\"Main Entrance\",\"name:ja\"=>\"入園ゲート\"" }, "geometry": { "type": "Point", "coordinates": [ 139.5270046, 35.4939929 ] } },
{ "type": "Feature", "properties": { "osm_id": "2849899135", "name": null, "barrier": null, "highway": null, "ref": null, "address": null, "is_in": null, "place": null, "man_made": null, "other_tags": "\"amenity\"=>\"taxi\"" }, "geometry": { "type": "Point", "coordinates": [ 139.5274718, 35.4945417 ] } },
{ "type": "Feature", "properties": { "osm_id": "2849899139", "name": null, "barrier": null, "highway": null, "ref": null, "address": null, "is_in": null, "place": null, "man_made": null, "other_tags": "\"emergency\"=>\"fire_hydrant\",\"fire_hydrant:type\"=>\"underground\"" }, "geometry": { "type": "Point", "coordinates": [ 139.527034500000013, 35.4948737 ] } },
{ "type": "Feature", "properties": { "osm_id": "2849899140", "name": "よこはま動物園", "barrier": null, "highway": "bus_stop", "ref": null, "address": null, "is_in": null, "place": null, "man_made": null, "other_tags": "\"bus\"=>\"yes\",\"local_ref\"=>\"3\",\"name:ja-Hira\"=>\"よこはまどうぶつえん\",\"public_transport\"=>\"platform\",\"shelter\"=>\"yes\"" }, "geometry": { "type": "Point", "coordinates": [ 139.5268252, 35.4948385 ] } },
{ "type": "Feature", "properties": { "osm_id": "2849899142", "name": "よこはま動物園", "barrier": null, "highway": "bus_stop", "ref": null, "address": null, "is_in": null, "place": null, "man_made": null, "other_tags": "\"bus\"=>\"yes\",\"local_ref\"=>\"2\",\"public_transport\"=>\"platform\"" }, "geometry": { "type": "Point", "coordinates": [ 139.526976, 35.4949787 ] } },
{ "type": "Feature", "properties": { "osm_id": "2849899160", "name": "よこはま動物園", "barrier": null, "highway": "bus_stop", "ref": null, "address": null, "is_in": null, "place": null, "man_made": null, "other_tags": "\"bus\"=>\"yes\",\"local_ref\"=>\"6\",\"public_transport\"=>\"platform\"" }, "geometry": { "type": "Point", "coordinates": [ 139.5273354, 35.4944808 ] } },
{ "type": "Feature", "properties": { "osm_id": "2849899163", "name": "サーティワンアイスクリーム", "barrier": null, "highway": null, "ref": null, "address": null, "is_in": null, "place": null, "man_made": null, "other_tags": "\"addr:block_number\"=>\"1175\",\"addr:city\"=>\"横浜市\",\"addr:housenumber\"=>\"1\",\"addr:province\"=>\"神奈川県\",\"addr:quarter\"=>\"上白根町\",\"addr:suburb\"=>\"旭区\",\"addr:unit\"=>\"アクアテラス内\",\"amenity\"=>\"ice_cream\",\"branch\"=>\"よこはま動物園ズーラシア店\",\"brand\"=>\"バスキン・ロビンス\",\"brand:en\"=>\"Baskin-Robbins\",\"brand:ja\"=>\"バスキン・ロビンス\",\"brand:wikidata\"=>\"Q584601\",\"brand:wikipedia\"=>\"en:Baskin-Robbins\",\"cuisine\"=>\"ice_cream\",\"name:en\"=>\"Baskin-Robbins\",\"name:ja\"=>\"サーティワンアイスクリーム\",\"outdoor_seating\"=>\"no\",\"phone\"=>\"045-959-1371\",\"takeaway\"=>\"yes\"" }, "geometry": { "type": "Point", "coordinates": [ 139.5263961, 35.4949172 ] } },
{ "type": "Feature", "properties": { "osm_id": "2849899164", "name": "よこはま動物園", "barrier": null, "highway": "bus_stop", "ref": null, "address": null, "is_in": null, "place": null, "man_made": null, "other_tags": "\"bus\"=>\"yes\",\"local_ref\"=>\"4\",\"public_transport\"=>\"platform\"" }, "geometry": { "type": "Point", "coordinates": [ 139.526858, 35.4945767 ] } },
{ "type": "Feature", "properties": { "osm_id": "2849899169", "name": "よこはま動物園", "barrier": null, "highway": "bus_stop", "ref": null, "address": null, "is_in": null, "place": null, "man_made": null, "other_tags": "\"bus\"=>\"yes\",\"local_ref\"=>\"5\",\"public_transport\"=>\"platform\"" }, "geometry": { "type": "Point", "coordinates": [ 139.5270774, 35.4944586 ] } },
{ "type": "Feature", "properties": { "osm_id": "2849899170", "name": null, "barrier": null, "highway": null, "ref": null, "address": null, "is_in": null, "place": null, "man_made": null, "other_tags": "\"amenity\"=>\"vending_machine\",\"vending\"=>\"drinks\"" }, "geometry": { "type": "Point", "coordinates": [ 139.5267078, 35.4948477 ] } },
{ "type": "Feature", "properties": { "osm_id": "2849899175", "name": "よこはま動物園", "barrier": null, "highway": null, "ref": null, "address": null, "is_in": null, "place": null, "man_made": null, "other_tags": "\"amenity\"=>\"bus_station\",\"bus\"=>\"yes\",\"public_transport\"=>\"station\"" }, "geometry": { "type": "Point", "coordinates": [ 139.5271314, 35.4947275 ] } },
{ "type": "Feature", "properties": { "osm_id": "2849899176", "name": "よこはま動物園", "barrier": null, "highway": "bus_stop", "ref": null, "address": null, "is_in": null, "place": null, "man_made": null, "other_tags": "\"bus\"=>\"yes\",\"local_ref\"=>\"1\",\"public_transport\"=>\"platform\"" }, "geometry": { "type": "Point", "coordinates": [ 139.527153, 35.495053 ] } },
{ "type": "Feature", "properties": { "osm_id": "2849899180", "name": null, "barrier": null, "highway": null, "ref": null, "address": null, "is_in": null, "place": null, "man_made": null, "other_tags": "\"amenity\"=>\"drinking_water\"" }, "geometry": { "type": "Point", "coordinates": [ 139.526589199999989, 35.4946245 ] } },
{ "type": "Feature", "properties": { "osm_id": "2849899182", "name": "入口", "barrier": null, "highway": null, "ref": null, "address": null, "is_in": null, "place": null, "man_made": null, "other_tags": "\"access\"=>\"yes\",\"amenity\"=>\"toilets\",\"fee\"=>\"no\",\"toilets:disposal\"=>\"flush\"" }, "geometry": { "type": "Point", "coordinates": [ 139.5273502, 35.4941568 ] } },
{ "type": "Feature", "properties": { "osm_id": "2849899186", "name": null, "barrier": null, "highway": null, "ref": "横浜旭郵便局 ポスト番号 407", "address": null, "is_in": null, "place": null, "man_made": null, "other_tags": "\"amenity\"=>\"post_box\"" }, "geometry": { "type": "Point", "coordinates": [ 139.5266768, 35.4947264 ] } },
{ "type": "Feature", "properties": { "osm_id": "2849899187", "name": "ズーラシア GIFT SHOP", "barrier": null, "highway": null, "ref": null, "address": null, "is_in": null, "place": null, "man_made": null, "other_tags": "\"shop\"=>\"gift\"" }, "geometry": { "type": "Point", "coordinates": [ 139.5265838, 35.4948822 ] } },
{ "type": "Feature", "properties": { "osm_id": "2849899188", "name": null, "barrier": null, "highway": null, "ref": null, "address": null, "is_in": null, "place": null, "man_made": null, "other_tags": "\"amenity\"=>\"drinking_water\"" }, "geometry": { "type": "Point", "coordinates": [ 139.5275119, 35.4942664 ] } },
{ "type": "Feature", "properties": { "osm_id": "2849899192", "name": "総合案内所", "barrier": null, "highway": null, "ref": null, "address": null, "is_in": null, "place": null, "man_made": null, "other_tags": "\"information\"=>\"office\",\"tourism\"=>\"information\"" }, "geometry": { "type": "Point", "coordinates": [ 139.527133099999986, 35.4941276 ] } },
{ "type": "Feature", "properties": { "osm_id": "3165746362", "name": null, "barrier": null, "highway": null, "ref": null, "address": null, "is_in": null, "place": null, "man_made": null, "other_tags": "\"material\"=>\"metal\",\"power\"=>\"tower\"" }, "geometry": { "type": "Point", "coordinates": [ 139.5243984, 35.4932686 ] } },
{ "type": "Feature", "properties": { "osm_id": "3165750232", "name": null, "barrier": null, "highway": null, "ref": null, "address": null, "is_in": null, "place": null, "man_made": null, "other_tags": "\"material\"=>\"metal\",\"power\"=>\"tower\"" }, "geometry": { "type": "Point", "coordinates": [ 139.5226911, 35.4978501 ] } },
{ "type": "Feature", "properties": { "osm_id": "3165751461", "name": null, "barrier": null, "highway": null, "ref": null, "address": null, "is_in": null, "place": null, "man_made": null, "other_tags": "\"material\"=>\"metal\",\"power\"=>\"tower\"" }, "geometry": { "type": "Point", "coordinates": [ 139.5250144, 35.4955378 ] } },
{ "type": "Feature", "properties": { "osm_id": "3165751462", "name": null, "barrier": null, "highway": null, "ref": null, "address": null, "is_in": null, "place": null, "man_made": null, "other_tags": "\"material\"=>\"metal\",\"power\"=>\"tower\"" }, "geometry": { "type": "Point", "coordinates": [ 139.5230987, 35.4962763 ] } },
{ "type": "Feature", "properties": { "osm_id": "3165751463", "name": null, "barrier": null, "highway": null, "ref": null, "address": null, "is_in": null, "place": null, "man_made": null, "other_tags": "\"material\"=>\"metal\",\"power\"=>\"tower\"" }, "geometry": { "type": "Point", "coordinates": [ 139.5227084, 35.4987163 ] } },
{ "type": "Feature", "properties": { "osm_id": "3165751464", "name": null, "barrier": null, "highway": null, "ref": null, "address": null, "is_in": null, "place": null, "man_made": null, "other_tags": "\"material\"=>\"metal\",\"power\"=>\"tower\"" }, "geometry": { "type": "Point", "coordinates": [ 139.5223192, 35.5004417 ] } },
{ "type": "Feature", "properties": { "osm_id": "3166372230", "name": "ゾウさんのりば", "barrier": null, "highway": "bus_stop", "ref": "ズッピ;サバンナ号", "address": null, "is_in": null, "place": null, "man_made": null, "other_tags": "\"bus\"=>\"yes\",\"public_transport\"=>\"stop_position\"" }, "geometry": { "type": "Point", "coordinates": [ 139.526199100000014, 35.4941072 ] } },
{ "type": "Feature", "properties": { "osm_id": "3166373496", "name": "ゾウさんおりば", "barrier": null, "highway": "bus_stop", "ref": null, "address": null, "is_in": null, "place": null, "man_made": null, "other_tags": "\"bus\"=>\"yes\",\"public_transport\"=>\"stop_position\"" }, "geometry": { "type": "Point", "coordinates": [ 139.526327900000013, 35.4942539 ] } },
{ "type": "Feature", "properties": { "osm_id": "3166375006", "name": null, "barrier": null, "highway": null, "ref": null, "address": null, "is_in": null, "place": null, "man_made": null, "other_tags": "\"amenity\"=>\"fountain\"" }, "geometry": { "type": "Point", "coordinates": [ 139.526385, 35.4945536 ] } },
{ "type": "Feature", "properties": { "osm_id": "3170074162", "name": "オカピの丘", "barrier": null, "highway": "bus_stop", "ref": "ズッピ;サバンナ号", "address": null, "is_in": null, "place": null, "man_made": null, "other_tags": "\"bus\"=>\"yes\",\"public_transport\"=>\"stop_position\"" }, "geometry": { "type": "Point", "coordinates": [ 139.5224824, 35.4977481 ] } },
{ "type": "Feature", "properties": { "osm_id": "3210467558", "name": "北門", "barrier": null, "highway": "bus_stop", "ref": "ズッピ;サバンナ号", "address": null, "is_in": null, "place": null, "man_made": null, "other_tags": "\"bus\"=>\"yes\",\"public_transport\"=>\"stop_position\"" }, "geometry": { "type": "Point", "coordinates": [ 139.5210844, 35.5017064 ] } },
{ "type": "Feature", "properties": { "osm_id": "3210468729", "name": "オージーヒル", "barrier": null, "highway": "bus_stop", "ref": "サバンナ号", "address": null, "is_in": null, "place": null, "man_made": null, "other_tags": "\"bus\"=>\"yes\",\"public_transport\"=>\"stop_position\"" }, "geometry": { "type": "Point", "coordinates": [ 139.5222568, 35.4938435 ] } },
{ "type": "Feature", "properties": { "osm_id": "3210469009", "name": null, "barrier": null, "highway": null, "ref": null, "address": null, "is_in": null, "place": null, "man_made": null, "other_tags": "\"entrance\"=>\"yes\"" }, "geometry": { "type": "Point", "coordinates": [ 139.5275344, 35.493981 ] } },
{ "type": "Feature", "properties": { "osm_id": "4032187255", "name": "Savanna's Terrace", "barrier": null, "highway": null, "ref": null, "address": null, "is_in": null, "place": null, "man_made": null, "other_tags": "\"amenity\"=>\"restaurant\",\"name:ja\"=>\"サバンナテラス\",\"note:ja\"=>\"ズーラシア敷地内のレストラン。半地下式の建造物。屋上緑化もあるので、航空写真では建物に見えません。北西側から見ると、建物に見えます。\",\"opening_hours\"=>\"Mo-Su 10:00-16:00\"" }, "geometry": { "type": "Point", "coordinates": [ 139.5216183, 35.4995972 ] } },
{ "type": "Feature", "properties": { "osm_id": "4032187265", "name": null, "barrier": null, "highway": null, "ref": null, "address": null, "is_in": null, "place": null, "man_made": null, "other_tags": "\"amenity\"=>\"bench\"" }, "geometry": { "type": "Point", "coordinates": [ 139.5212445, 35.4996737 ] } },
{ "type": "Feature", "properties": { "osm_id": "4032187538", "name": "北門ゲート", "barrier": null, "highway": null, "ref": null, "address": null, "is_in": null, "place": null, "man_made": null, "other_tags": "\"access\"=>\"customers\",\"amenity\"=>\"toilets\",\"fee\"=>\"no\",\"toilets:disposal\"=>\"flush\"" }, "geometry": { "type": "Point", "coordinates": [ 139.5214212, 35.5013914 ] } },
{ "type": "Feature", "properties": { "osm_id": "4032187547", "name": null, "barrier": null, "highway": null, "ref": null, "address": null, "is_in": null, "place": null, "man_made": null, "other_tags": "\"amenity\"=>\"bench\"" }, "geometry": { "type": "Point", "coordinates": [ 139.52109, 35.5014611 ] } },
{ "type": "Feature", "properties": { "osm_id": "4032187562", "name": "バードショー", "barrier": null, "highway": null, "ref": null, "address": null, "is_in": null, "place": null, "man_made": null, "other_tags": "\"attraction\"=>\"animal\",\"description:ja\"=>\"鷹匠のような飼育員が、鳥の飛ぶ様子を展示します。\",\"name:en\"=>\"Bird Show\",\"name:ja\"=>\"バードショー\",\"opening_hours\"=>\"14:00-14:30\",\"tourism\"=>\"attraction\",\"wheelchair\"=>\"yes\"" }, "geometry": { "type": "Point", "coordinates": [ 139.5215799, 35.5011675 ] } },
{ "type": "Feature", "properties": { "osm_id": "4032259307", "name": "インドゾウ", "barrier": null, "highway": null, "ref": null, "address": null, "is_in": null, "place": null, "man_made": null, "other_tags": "\"attraction\"=>\"animal\",\"name:en\"=>\"Indian Elephant\",\"name:ja\"=>\"インドゾウ\",\"species\"=>\"Elephas maximus indicus\",\"tourism\"=>\"attraction\"" }, "geometry": { "type": "Point", "coordinates": [ 139.5267685, 35.4933984 ] } },
{ "type": "Feature", "properties": { "osm_id": "4032272747", "name": "入園券", "barrier": null, "highway": null, "ref": null, "address": null, "is_in": null, "place": null, "man_made": null, "other_tags": "\"name:en\"=>\"Ticket Office\",\"name:ja\"=>\"入園券\",\"shop\"=>\"ticket\"" }, "geometry": { "type": "Point", "coordinates": [ 139.5272417, 35.4941422 ] } },
{ "type": "Feature", "properties": { "osm_id": "4032282997", "name": "フレッシュネスバーガー", "barrier": null, "highway": null, "ref": null, "address": null, "is_in": null, "place": null, "man_made": null, "other_tags": "\"amenity\"=>\"fast_food\",\"branch\"=>\"ジャングルカフェ店\",\"brand\"=>\"フレッシュネスバーガー\",\"brand:en\"=>\"Freshness Burger\",\"brand:ja\"=>\"フレッシュネスバーガー\",\"brand:wikidata\"=>\"Q5503087\",\"brand:wikipedia\"=>\"ja:フレッシュネスバーガー\",\"cuisine\"=>\"burger\",\"delivery\"=>\"no\",\"drive_through\"=>\"no\",\"name:en\"=>\"Freshness Burger\",\"name:ja\"=>\"フレッシュネスバーガー\",\"opening_hours\"=>\"9:30-15:30\",\"outdoor_seating\"=>\"yes\",\"phone\"=>\"+81-45-954-3081\",\"takeaway\"=>\"yes\"" }, "geometry": { "type": "Point", "coordinates": [ 139.5254076, 35.4935675 ] } },
{ "type": "Feature", "properties": { "osm_id": "4032282998", "name": "マレーバク", "barrier": null, "highway": null, "ref": null, "address": null, "is_in": null, "place": null, "man_made": null, "other_tags": "\"attraction\"=>\"animal\",\"name:en\"=>\"Malayan Tapir\",\"name:ja\"=>\"マレーバク\",\"species\"=>\"Tapirus indicus\",\"tourism\"=>\"attraction\"" }, "geometry": { "type": "Point", "coordinates": [ 139.5255694, 35.4938169 ] } },
{ "type": "Feature", "properties": { "osm_id": "4032289538", "name": "ボルネオオランウータン", "barrier": null, "highway": null, "ref": null, "address": null, "is_in": null, "place": null, "man_made": null, "other_tags": "\"attraction\"=>\"animal\",\"name:en\"=>\"Bornean Orangutan\",\"name:ja\"=>\"ボルネオオランウータン\",\"species\"=>\"Pongo pygmaeus\",\"tourism\"=>\"attraction\"" }, "geometry": { "type": "Point", "coordinates": [ 139.5262421, 35.4932185 ] } },
{ "type": "Feature", "properties": { "osm_id": "4032433036", "name": "スマトラトラ", "barrier": null, "highway": null, "ref": null, "address": null, "is_in": null, "place": null, "man_made": null, "other_tags": "\"attraction\"=>\"animal\",\"name:en\"=>\"Sumatran tiger\",\"name:ja\"=>\"スマトラトラ\",\"species\"=>\"Panthera tigris sumatrae\",\"tourism\"=>\"attraction\"" }, "geometry": { "type": "Point", "coordinates": [ 139.5255886, 35.4933855 ] } },
{ "type": "Feature", "properties": { "osm_id": "4032444468", "name": "ウンピョウ", "barrier": null, "highway": null, "ref": null, "address": null, "is_in": null, "place": null, "man_made": null, "other_tags": "\"attraction\"=>\"animal\",\"name:en\"=>\"Clouded Leopard\",\"name:ja\"=>\"ウンピョウ\",\"species\"=>\"Neofelis nebulosa nebulosa\",\"tourism\"=>\"attraction\"" }, "geometry": { "type": "Point", "coordinates": [ 139.525805600000012, 35.4929761 ] } },
{ "type": "Feature", "properties": { "osm_id": "4032469109", "name": "ライオン", "barrier": null, "highway": null, "ref": null, "address": null, "is_in": null, "place": null, "man_made": null, "other_tags": "\"attraction\"=>\"animal\",\"name:en\"=>\"Lion\",\"name:ja\"=>\"ライオン\",\"species\"=>\"Panthera leo\",\"tourism\"=>\"attraction\"" }, "geometry": { "type": "Point", "coordinates": [ 139.52025470000001, 35.5010801 ] } },
{ "type": "Feature", "properties": { "osm_id": "5867336256", "name": null, "barrier": null, "highway": null, "ref": null, "address": null, "is_in": null, "place": null, "man_made": "survey_point", "other_tags": null }, "geometry": { "type": "Point", "coordinates": [ 139.5242318, 35.4995485 ] } },
{ "type": "Feature", "properties": { "osm_id": "7277607325", "name": null, "barrier": null, "highway": null, "ref": null, "address": null, "is_in": null, "place": null, "man_made": null, "other_tags": "\"tourism\"=>\"viewpoint\"" }, "geometry": { "type": "Point", "coordinates": [ 139.523829299999989, 35.4929327 ] } },
{ "type": "Feature", "properties": { "osm_id": "7278695903", "name": null, "barrier": "gate", "highway": null, "ref": null, "address": null, "is_in": null, "place": null, "man_made": null, "other_tags": null }, "geometry": { "type": "Point", "coordinates": [ 139.524110799999988, 35.4947336 ] } },
{ "type": "Feature", "properties": { "osm_id": "7278695940", "name": null, "barrier": null, "highway": null, "ref": null, "address": null, "is_in": null, "place": null, "man_made": null, "other_tags": "\"tourism\"=>\"viewpoint\"" }, "geometry": { "type": "Point", "coordinates": [ 139.5221122, 35.497602 ] } },
{ "type": "Feature", "properties": { "osm_id": "7279070153", "name": null, "barrier": "gate", "highway": null, "ref": null, "address": null, "is_in": null, "place": null, "man_made": null, "other_tags": null }, "geometry": { "type": "Point", "coordinates": [ 139.521725800000013, 35.5004288 ] } },
{ "type": "Feature", "properties": { "osm_id": "7280014432", "name": null, "barrier": "gate", "highway": null, "ref": null, "address": null, "is_in": null, "place": null, "man_made": null, "other_tags": null }, "geometry": { "type": "Point", "coordinates": [ 139.5243811, 35.4954961 ] } },
{ "type": "Feature", "properties": { "osm_id": "7280021725", "name": null, "barrier": "gate", "highway": null, "ref": null, "address": null, "is_in": null, "place": null, "man_made": null, "other_tags": null }, "geometry": { "type": "Point", "coordinates": [ 139.5216594, 35.4986456 ] } },
{ "type": "Feature", "properties": { "osm_id": "7296854512", "name": null, "barrier": null, "highway": null, "ref": null, "address": null, "is_in": null, "place": null, "man_made": null, "other_tags": "\"tourism\"=>\"viewpoint\"" }, "geometry": { "type": "Point", "coordinates": [ 139.5263823, 35.4930477 ] } },
{ "type": "Feature", "properties": { "osm_id": "7308316791", "name": "Pileated Gibbon", "barrier": null, "highway": null, "ref": null, "address": null, "is_in": null, "place": null, "man_made": null, "other_tags": "\"attraction\"=>\"animal\",\"tourism\"=>\"attraction\"" }, "geometry": { "type": "Point", "coordinates": [ 139.526083, 35.4935667 ] } },
{ "type": "Feature", "properties": { "osm_id": "7308316792", "name": "インドライオン", "barrier": null, "highway": null, "ref": null, "address": null, "is_in": null, "place": null, "man_made": null, "other_tags": "\"attraction\"=>\"animal\",\"name:en\"=>\"Indian Lion\",\"tourism\"=>\"attraction\"" }, "geometry": { "type": "Point", "coordinates": [ 139.5253395, 35.4927617 ] } },
{ "type": "Feature", "properties": { "osm_id": "7308316793", "name": "Lion-tailed Macaque", "barrier": null, "highway": null, "ref": null, "address": null, "is_in": null, "place": null, "man_made": null, "other_tags": "\"attraction\"=>\"animal\",\"tourism\"=>\"attraction\"" }, "geometry": { "type": "Point", "coordinates": [ 139.5256158, 35.4925255 ] } },
{ "type": "Feature", "properties": { "osm_id": "7308332729", "name": "Aussie Hill Grill Restaurant", "barrier": null, "highway": null, "ref": null, "address": null, "is_in": null, "place": null, "man_made": null, "other_tags": "\"amenity\"=>\"restaurant\",\"name:ja\"=>\"オージーヒルレストラン\",\"opening_hours\"=>\"Mo-Su 10:00-16:00\"" }, "geometry": { "type": "Point", "coordinates": [ 139.5230928, 35.4939495 ] } },
{ "type": "Feature", "properties": { "osm_id": "7312490731", "name": "Rothchild's Mynah", "barrier": null, "highway": null, "ref": null, "address": null, "is_in": null, "place": null, "man_made": null, "other_tags": "\"attraction\"=>\"animal\",\"name:ja\"=>\"カンムリシロムク\"" }, "geometry": { "type": "Point", "coordinates": [ 139.5265135, 35.4930387 ] } },
{ "type": "Feature", "properties": { "osm_id": "7312490732", "name": "Clouded Leopard", "barrier": null, "highway": null, "ref": null, "address": null, "is_in": null, "place": null, "man_made": null, "other_tags": "\"attraction\"=>\"animal\",\"name:ja\"=>\"ウンピョウ\"" }, "geometry": { "type": "Point", "coordinates": [ 139.52593, 35.4927908 ] } },
{ "type": "Feature", "properties": { "osm_id": "7312490733", "name": "Francois's Langur", "barrier": null, "highway": null, "ref": null, "address": null, "is_in": null, "place": null, "man_made": null, "other_tags": "\"attraction\"=>\"animal\",\"name:ja\"=>\"フランソワルトン\"" }, "geometry": { "type": "Point", "coordinates": [ 139.5259998, 35.4926161 ] } },
{ "type": "Feature", "properties": { "osm_id": "7312490734", "name": "Golden Takin", "barrier": null, "highway": null, "ref": null, "address": null, "is_in": null, "place": null, "man_made": null, "other_tags": "\"attraction\"=>\"animal\",\"name:ja\"=>\"ゴールデンターキン\"" }, "geometry": { "type": "Point", "coordinates": [ 139.5241651, 35.4926685 ] } },
{ "type": "Feature", "properties": { "osm_id": "7312490735", "name": "Red Panda", "barrier": null, "highway": null, "ref": null, "address": null, "is_in": null, "place": null, "man_made": null, "other_tags": "\"attraction\"=>\"animal\",\"name:ja\"=>\"レッサーパンダ\"" }, "geometry": { "type": "Point", "coordinates": [ 139.52384330000001, 35.4928912 ] } },
{ "type": "Feature", "properties": { "osm_id": "7312490736", "name": "Pheasants", "barrier": null, "highway": null, "ref": null, "address": null, "is_in": null, "place": null, "man_made": null, "other_tags": "\"attraction\"=>\"animal\"" }, "geometry": { "type": "Point", "coordinates": [ 139.523482199999989, 35.4925339 ] } },
{ "type": "Feature", "properties": { "osm_id": "7312490737", "name": "Amur Leopard", "barrier": null, "highway": null, "ref": null, "address": null, "is_in": null, "place": null, "man_made": null, "other_tags": "\"attraction\"=>\"animal\",\"name:ja\"=>\"アムールヒョウ\"" }, "geometry": { "type": "Point", "coordinates": [ 139.5230971, 35.4924594 ] } },
{ "type": "Feature", "properties": { "osm_id": "7312490738", "name": "Walk-in Bird Cage", "barrier": null, "highway": null, "ref": null, "address": null, "is_in": null, "place": null, "man_made": null, "other_tags": "\"attraction\"=>\"animal\"" }, "geometry": { "type": "Point", "coordinates": [ 139.5232165, 35.4926137 ] } },
{ "type": "Feature", "properties": { "osm_id": "7312490739", "name": "Eurasian Otter", "barrier": null, "highway": null, "ref": null, "address": null, "is_in": null, "place": null, "man_made": null, "other_tags": "\"attraction\"=>\"animal\",\"name:ja\"=>\"ユーラシアカワウソ\"" }, "geometry": { "type": "Point", "coordinates": [ 139.522588500000012, 35.4925324 ] } },
{ "type": "Feature", "properties": { "osm_id": "7312490740", "name": "Steller's Sea Eagle", "barrier": null, "highway": null, "ref": null, "address": null, "is_in": null, "place": null, "man_made": null, "other_tags": "\"attraction\"=>\"animal\",\"name:ja\"=>\"オオワシ\"" }, "geometry": { "type": "Point", "coordinates": [ 139.522181, 35.4927293 ] } },
{ "type": "Feature", "properties": { "osm_id": "7312490741", "name": "Humboldt Penguin", "barrier": null, "highway": null, "ref": null, "address": null, "is_in": null, "place": null, "man_made": null, "other_tags": "\"attraction\"=>\"animal\",\"name:ja\"=>\"フンボルトペンギン\"" }, "geometry": { "type": "Point", "coordinates": [ 139.522132699999986, 35.4931967 ] } },
{ "type": "Feature", "properties": { "osm_id": "7312490742", "name": "South African Fur Seal", "barrier": null, "highway": null, "ref": null, "address": null, "is_in": null, "place": null, "man_made": null, "other_tags": "\"attraction\"=>\"animal\",\"name:ja\"=>\"ミナミアフリカオットセイ\"" }, "geometry": { "type": "Point", "coordinates": [ 139.52238650000001, 35.493241 ] } },
{ "type": "Feature", "properties": { "osm_id": "7312490743", "name": "Polar Bear", "barrier": null, "highway": null, "ref": null, "address": null, "is_in": null, "place": null, "man_made": null, "other_tags": "\"attraction\"=>\"animal\",\"name:ja\"=>\"ホッキョクグマ\"" }, "geometry": { "type": "Point", "coordinates": [ 139.5227284, 35.4932745 ] } },
{ "type": "Feature", "properties": { "osm_id": "7312490744", "name": "Japanese Hare", "barrier": null, "highway": null, "ref": null, "address": null, "is_in": null, "place": null, "man_made": null, "other_tags": "\"attraction\"=>\"animal\",\"name:ja\"=>\"トウホクノウサギ\"" }, "geometry": { "type": "Point", "coordinates": [ 139.5231781, 35.4933691 ] } },
{ "type": "Feature", "properties": { "osm_id": "7312490745", "name": "Snowy Owl", "barrier": null, "highway": null, "ref": null, "address": null, "is_in": null, "place": null, "man_made": null, "other_tags": "\"attraction\"=>\"animal\",\"name:ja\"=>\"シロフクロウ\"" }, "geometry": { "type": "Point", "coordinates": [ 139.5232263, 35.4934182 ] } },
{ "type": "Feature", "properties": { "osm_id": "7312551945", "name": "Red Kangaroo", "barrier": null, "highway": null, "ref": null, "address": null, "is_in": null, "place": null, "man_made": null, "other_tags": "\"attraction\"=>\"animal\",\"name:ja\"=>\"アカカンガルー\"" }, "geometry": { "type": "Point", "coordinates": [ 139.5238072, 35.493822 ] } },
{ "type": "Feature", "properties": { "osm_id": "7312551946", "name": "Emu", "barrier": null, "highway": null, "ref": null, "address": null, "is_in": null, "place": null, "man_made": null, "other_tags": "\"attraction\"=>\"animal\",\"name:ja\"=>\"エミュー\"" }, "geometry": { "type": "Point", "coordinates": [ 139.5239731, 35.4938132 ] } },
{ "type": "Feature", "properties": { "osm_id": "7312551947", "name": "Goodfellow's Tree Kangaroo", "barrier": null, "highway": null, "ref": null, "address": null, "is_in": null, "place": null, "man_made": null, "other_tags": "\"attraction\"=>\"animal\",\"name:ja\"=>\"セスジキノボリカンガルー\"" }, "geometry": { "type": "Point", "coordinates": [ 139.5239541, 35.4940501 ] } },
{ "type": "Feature", "properties": { "osm_id": "7312551948", "name": "Oriental Stork", "barrier": null, "highway": null, "ref": null, "address": null, "is_in": null, "place": null, "man_made": null, "other_tags": "\"attraction\"=>\"animal\",\"name:ja\"=>\"コウノトリ\"" }, "geometry": { "type": "Point", "coordinates": [ 139.5228774, 35.4946443 ] } },
{ "type": "Feature", "properties": { "osm_id": "7312551949", "name": "White-naped Crane", "barrier": null, "highway": null, "ref": null, "address": null, "is_in": null, "place": null, "man_made": null, "other_tags": "\"attraction\"=>\"animal\",\"name:ja\"=>\"マナヅル\"" }, "geometry": { "type": "Point", "coordinates": [ 139.5227205, 35.4947741 ] } },
{ "type": "Feature", "properties": { "osm_id": "7312551950", "name": "Tsushima Leopard Cat", "barrier": null, "highway": null, "ref": null, "address": null, "is_in": null, "place": null, "man_made": null, "other_tags": "\"attraction\"=>\"animal\",\"name:ja\"=>\"ツシマヤマネコ\"" }, "geometry": { "type": "Point", "coordinates": [ 139.5225941, 35.4950784 ] } },
{ "type": "Feature", "properties": { "osm_id": "7312551951", "name": "Japanese Racoon Dog", "barrier": null, "highway": null, "ref": null, "address": null, "is_in": null, "place": null, "man_made": null, "other_tags": "\"attraction\"=>\"animal\",\"name:ja\"=>\"ホンドタヌキ\"" }, "geometry": { "type": "Point", "coordinates": [ 139.5226657, 35.4952503 ] } },
{ "type": "Feature", "properties": { "osm_id": "7312551952", "name": "Japanese Red Fox", "barrier": null, "highway": null, "ref": null, "address": null, "is_in": null, "place": null, "man_made": null, "other_tags": "\"attraction\"=>\"animal\",\"name:ja\"=>\"ホンドギツネ\"" }, "geometry": { "type": "Point", "coordinates": [ 139.5226691, 35.495333 ] } },
{ "type": "Feature", "properties": { "osm_id": "7312551953", "name": "Japanese Macaque", "barrier": null, "highway": null, "ref": null, "address": null, "is_in": null, "place": null, "man_made": null, "other_tags": "\"attraction\"=>\"animal\",\"name:ja\"=>\"ニホンザル\"" }, "geometry": { "type": "Point", "coordinates": [ 139.5234618, 35.49531 ] } },
{ "type": "Feature", "properties": { "osm_id": "7312551954", "name": "Japanese Black Bear", "barrier": null, "highway": null, "ref": null, "address": null, "is_in": null, "place": null, "man_made": null, "other_tags": "\"attraction\"=>\"animal\",\"name:ja\"=>\"ニホンツキノワグマ\"" }, "geometry": { "type": "Point", "coordinates": [ 139.5228051, 35.4954163 ] } },
{ "type": "Feature", "properties": { "osm_id": "7312578137", "name": "Giant Anteater", "barrier": null, "highway": null, "ref": null, "address": null, "is_in": null, "place": null, "man_made": null, "other_tags": "\"attraction\"=>\"animal\",\"name:ja\"=>\"オオアリクイ\"" }, "geometry": { "type": "Point", "coordinates": [ 139.523903499999989, 35.4954526 ] } },
{ "type": "Feature", "properties": { "osm_id": "7312578138", "name": "Ocelot", "barrier": null, "highway": null, "ref": null, "address": null, "is_in": null, "place": null, "man_made": null, "other_tags": "\"attraction\"=>\"animal\",\"name:ja\"=>\"オセロット\"" }, "geometry": { "type": "Point", "coordinates": [ 139.5237112, 35.4955538 ] } },
{ "type": "Feature", "properties": { "osm_id": "7312578139", "name": "Grey Woolly Monkey", "barrier": null, "highway": null, "ref": null, "address": null, "is_in": null, "place": null, "man_made": null, "other_tags": "\"attraction\"=>\"animal\",\"name:ja\"=>\"ハイイロウーリーモンキー\"" }, "geometry": { "type": "Point", "coordinates": [ 139.5234692, 35.4956997 ] } },
{ "type": "Feature", "properties": { "osm_id": "7312578140", "name": "Bush Dog", "barrier": null, "highway": null, "ref": null, "address": null, "is_in": null, "place": null, "man_made": null, "other_tags": "\"attraction\"=>\"animal\",\"name:ja\"=>\"ヤブイヌ\"" }, "geometry": { "type": "Point", "coordinates": [ 139.523268699999988, 35.4957484 ] } },
{ "type": "Feature", "properties": { "osm_id": "7312578141", "name": "Spectacled Bear", "barrier": null, "highway": null, "ref": null, "address": null, "is_in": null, "place": null, "man_made": null, "other_tags": "\"attraction\"=>\"animal\",\"name:ja\"=>\"メガネグマ\"" }, "geometry": { "type": "Point", "coordinates": [ 139.522746500000011, 35.4958458 ] } },
{ "type": "Feature", "properties": { "osm_id": "7312771215", "name": "Crested Porcupine", "barrier": null, "highway": null, "ref": null, "address": null, "is_in": null, "place": null, "man_made": null, "other_tags": "\"attraction\"=>\"animal\",\"name:ja\"=>\"アフリカタテガミヤマアラシ\"" }, "geometry": { "type": "Point", "coordinates": [ 139.522278199999988, 35.4976095 ] } },
{ "type": "Feature", "properties": { "osm_id": "7312771216", "name": "Okapi", "barrier": null, "highway": null, "ref": null, "address": null, "is_in": null, "place": null, "man_made": null, "other_tags": "\"attraction\"=>\"animal\",\"name:ja\"=>\"オカピ\"" }, "geometry": { "type": "Point", "coordinates": [ 139.5220722, 35.4978117 ] } },
{ "type": "Feature", "properties": { "osm_id": "7312771217", "name": "Bell's Hinged Tortoise", "barrier": null, "highway": null, "ref": null, "address": null, "is_in": null, "place": null, "man_made": null, "other_tags": "\"attraction\"=>\"animal\",\"name:ja\"=>\"ベルセオレガメ\"" }, "geometry": { "type": "Point", "coordinates": [ 139.5219231, 35.4984657 ] } },
{ "type": "Feature", "properties": { "osm_id": "7312771218", "name": "Red River Hog", "barrier": null, "highway": null, "ref": null, "address": null, "is_in": null, "place": null, "man_made": null, "other_tags": "\"attraction\"=>\"animal\",\"name:ja\"=>\"アカカワイノシシ\"" }, "geometry": { "type": "Point", "coordinates": [ 139.5212745, 35.498916 ] } },
{ "type": "Feature", "properties": { "osm_id": "7312771219", "name": "Chimpanzee", "barrier": null, "highway": null, "ref": null, "address": null, "is_in": null, "place": null, "man_made": null, "other_tags": "\"attraction\"=>\"animal\",\"name:ja\"=>\"チンパンジー\"" }, "geometry": { "type": "Point", "coordinates": [ 139.5220419, 35.4990412 ] } },
{ "type": "Feature", "properties": { "osm_id": "7312771220", "name": "Abyssinian Colobus", "barrier": null, "highway": null, "ref": null, "address": null, "is_in": null, "place": null, "man_made": null, "other_tags": "\"attraction\"=>\"animal\",\"name:ja\"=>\"アビシニアコロブス\"" }, "geometry": { "type": "Point", "coordinates": [ 139.52189340000001, 35.5000577 ] } },
{ "type": "Feature", "properties": { "osm_id": "7312771221", "name": "African Birds", "barrier": null, "highway": null, "ref": null, "address": null, "is_in": null, "place": null, "man_made": null, "other_tags": "\"attraction\"=>\"animal\",\"name:ja\"=>\"アフリカの鳥\"" }, "geometry": { "type": "Point", "coordinates": [ 139.5217448, 35.5002506 ] } },
{ "type": "Feature", "properties": { "osm_id": "7312771222", "name": "African Wild Dog", "barrier": null, "highway": null, "ref": null, "address": null, "is_in": null, "place": null, "man_made": null, "other_tags": "\"attraction\"=>\"animal\",\"name:ja\"=>\"リカオン\"" }, "geometry": { "type": "Point", "coordinates": [ 139.5207772, 35.5015613 ] } },
{ "type": "Feature", "properties": { "osm_id": "7312771223", "name": "Cape Hyrax", "barrier": null, "highway": null, "ref": null, "address": null, "is_in": null, "place": null, "man_made": null, "other_tags": "\"attraction\"=>\"animal\",\"name:ja\"=>\"ケープハイラックス\"" }, "geometry": { "type": "Point", "coordinates": [ 139.5197823, 35.5012221 ] } },
{ "type": "Feature", "properties": { "osm_id": "7312771224", "name": "Meerkat", "barrier": null, "highway": null, "ref": null, "address": null, "is_in": null, "place": null, "man_made": null, "other_tags": "\"attraction\"=>\"animal\",\"name:ja\"=>\"ミーアキャット\"" }, "geometry": { "type": "Point", "coordinates": [ 139.520474900000011, 35.5004965 ] } },
{ "type": "Feature", "properties": { "osm_id": "7312771225", "name": "Cheetah", "barrier": null, "highway": null, "ref": null, "address": null, "is_in": null, "place": null, "man_made": null, "other_tags": "\"attraction\"=>\"animal\",\"name:ja\"=>\"チーター\"" }, "geometry": { "type": "Point", "coordinates": [ 139.5203476, 35.5003617 ] } },
{ "type": "Feature", "properties": { "osm_id": "7312771226", "name": "Eastern Black Rinoceros", "barrier": null, "highway": null, "ref": null, "address": null, "is_in": null, "place": null, "man_made": null, "other_tags": "\"attraction\"=>\"animal\",\"name:ja\"=>\"ヒガシクロサイ\"" }, "geometry": { "type": "Point", "coordinates": [ 139.5209298, 35.4997995 ] } },
{ "type": "Feature", "properties": { "osm_id": "7312771227", "name": "Common Eland", "barrier": null, "highway": null, "ref": null, "address": null, "is_in": null, "place": null, "man_made": null, "other_tags": "\"attraction\"=>\"animal\",\"name:ja\"=>\"エランド\"" }, "geometry": { "type": "Point", "coordinates": [ 139.5209342, 35.5004006 ] } },
{ "type": "Feature", "properties": { "osm_id": "7312771228", "name": "Giraffe", "barrier": null, "highway": null, "ref": null, "address": null, "is_in": null, "place": null, "man_made": null, "other_tags": "\"attraction\"=>\"animal\",\"name:ja\"=>\"キリン\"" }, "geometry": { "type": "Point", "coordinates": [ 139.520822399999986, 35.5010663 ] } },
{ "type": "Feature", "properties": { "osm_id": "7312771229", "name": "Grant's Zebra", "barrier": null, "highway": null, "ref": null, "address": null, "is_in": null, "place": null, "man_made": null, "other_tags": "\"attraction\"=>\"animal\",\"name:ja\"=>\"グラントシマウマ\"" }, "geometry": { "type": "Point", "coordinates": [ 139.5209112, 35.5007193 ] } },
{ "type": "Feature", "properties": { "osm_id": "7314308294", "name": "Dhole", "barrier": null, "highway": null, "ref": null, "address": null, "is_in": null, "place": null, "man_made": null, "other_tags": "\"attraction\"=>\"animal\",\"name:ja\"=>\"ドール\"" }, "geometry": { "type": "Point", "coordinates": [ 139.5241158, 35.4945151 ] } },
{ "type": "Feature", "properties": { "osm_id": "7314308295", "name": "Mongolian Wild Ass", "barrier": null, "highway": null, "ref": null, "address": null, "is_in": null, "place": null, "man_made": null, "other_tags": "\"attraction\"=>\"animal\",\"name:ja\"=>\"モウコノロバ\"" }, "geometry": { "type": "Point", "coordinates": [ 139.5236142, 35.4946898 ] } },
{ "type": "Feature", "properties": { "osm_id": "7314308296", "name": "Proboscis Monkey", "barrier": null, "highway": null, "ref": null, "address": null, "is_in": null, "place": null, "man_made": null, "other_tags": "\"attraction\"=>\"animal\",\"name:ja\"=>\"テングザル\"" }, "geometry": { "type": "Point", "coordinates": [ 139.5240058, 35.4943251 ] } },
{ "type": "Feature", "properties": { "osm_id": "7314676873", "name": "Camel Ride", "barrier": null, "highway": null, "ref": null, "address": null, "is_in": null, "place": null, "man_made": null, "other_tags": "\"attraction\"=>\"animal\"" }, "geometry": { "type": "Point", "coordinates": [ 139.5216668, 35.5009832 ] } },
{ "type": "Feature", "properties": { "osm_id": "7314676874", "name": "Pygmy Goat", "barrier": null, "highway": null, "ref": null, "address": null, "is_in": null, "place": null, "man_made": null, "other_tags": "\"attraction\"=>\"animal\"" }, "geometry": { "type": "Point", "coordinates": [ 139.5215191, 35.5007728 ] } },
{ "type": "Feature", "properties": { "osm_id": "7315973194", "name": null, "barrier": "gate", "highway": null, "ref": null, "address": null, "is_in": null, "place": null, "man_made": null, "other_tags": null }, "geometry": { "type": "Point", "coordinates": [ 139.5219587, 35.4999326 ] } },
{ "type": "Feature", "properties": { "osm_id": "7315973196", "name": null, "barrier": "gate", "highway": null, "ref": null, "address": null, "is_in": null, "place": null, "man_made": null, "other_tags": null }, "geometry": { "type": "Point", "coordinates": [ 139.51984490000001, 35.5008631 ] } },
{ "type": "Feature", "properties": { "osm_id": "7315973197", "name": null, "barrier": "gate", "highway": null, "ref": null, "address": null, "is_in": null, "place": null, "man_made": null, "other_tags": null }, "geometry": { "type": "Point", "coordinates": [ 139.5197617, 35.5011119 ] } },
{ "type": "Feature", "properties": { "osm_id": "7315973199", "name": null, "barrier": "gate", "highway": null, "ref": null, "address": null, "is_in": null, "place": null, "man_made": null, "other_tags": null }, "geometry": { "type": "Point", "coordinates": [ 139.5226303, 35.4960386 ] } },
{ "type": "Feature", "properties": { "osm_id": "7315973200", "name": null, "barrier": "gate", "highway": null, "ref": null, "address": null, "is_in": null, "place": null, "man_made": null, "other_tags": null }, "geometry": { "type": "Point", "coordinates": [ 139.524112699999989, 35.4951762 ] } },
{ "type": "Feature", "properties": { "osm_id": "7328128247", "name": "わくわく広場", "barrier": null, "highway": null, "ref": null, "address": null, "is_in": null, "place": null, "man_made": null, "other_tags": "\"amenity\"=>\"toilets\"" }, "geometry": { "type": "Point", "coordinates": [ 139.5228067, 35.4960929 ] } },
{ "type": "Feature", "properties": { "osm_id": "7328128248", "name": "キジ展示場横", "barrier": null, "highway": null, "ref": null, "address": null, "is_in": null, "place": null, "man_made": null, "other_tags": "\"amenity\"=>\"toilets\"" }, "geometry": { "type": "Point", "coordinates": [ 139.5235677, 35.4923547 ] } },
{ "type": "Feature", "properties": { "osm_id": "7328128249", "name": "ペンギン展示場横", "barrier": null, "highway": null, "ref": null, "address": null, "is_in": null, "place": null, "man_made": null, "other_tags": "\"amenity\"=>\"toilets\"" }, "geometry": { "type": "Point", "coordinates": [ 139.5219865, 35.492941 ] } },
{ "type": "Feature", "properties": { "osm_id": "7328128250", "name": "オージーヒルレストラン", "barrier": null, "highway": null, "ref": null, "address": null, "is_in": null, "place": null, "man_made": null, "other_tags": "\"amenity\"=>\"toilets\"" }, "geometry": { "type": "Point", "coordinates": [ 139.5230341, 35.4937779 ] } },
{ "type": "Feature", "properties": { "osm_id": "7328128251", "name": "オージーヒルレストラン外", "barrier": null, "highway": null, "ref": null, "address": null, "is_in": null, "place": null, "man_made": null, "other_tags": "\"amenity\"=>\"toilets\"" }, "geometry": { "type": "Point", "coordinates": [ 139.523331, 35.4942099 ] } },
{ "type": "Feature", "properties": { "osm_id": "7328128252", "name": "アマゾンセンター", "barrier": null, "highway": null, "ref": null, "address": null, "is_in": null, "place": null, "man_made": null, "other_tags": "\"amenity\"=>\"toilets\"" }, "geometry": { "type": "Point", "coordinates": [ 139.5244523, 35.4953337 ] } },
{ "type": "Feature", "properties": { "osm_id": "7328128253", "name": "アクアテラス", "barrier": null, "highway": null, "ref": null, "address": null, "is_in": null, "place": null, "man_made": null, "other_tags": "\"amenity\"=>\"toilets\"" }, "geometry": { "type": "Point", "coordinates": [ 139.5264443, 35.4948798 ] } },
{ "type": "Feature", "properties": { "osm_id": "7328128256", "name": "正門駐車場南", "barrier": null, "highway": null, "ref": null, "address": null, "is_in": null, "place": null, "man_made": null, "other_tags": "\"amenity\"=>\"toilets\"" }, "geometry": { "type": "Point", "coordinates": [ 139.5263275, 35.4953039 ] } },
{ "type": "Feature", "properties": { "osm_id": "7328128258", "name": "ころこロッジ", "barrier": null, "highway": null, "ref": null, "address": null, "is_in": null, "place": null, "man_made": null, "other_tags": "\"amenity\"=>\"toilets\"" }, "geometry": { "type": "Point", "coordinates": [ 139.5243365, 35.4963016 ] } },
{ "type": "Feature", "properties": { "osm_id": "7328128259", "name": "ころころ広場", "barrier": null, "highway": null, "ref": null, "address": null, "is_in": null, "place": null, "man_made": null, "other_tags": "\"amenity\"=>\"toilets\"" }, "geometry": { "type": "Point", "coordinates": [ 139.5237473, 35.4965187 ] } },
{ "type": "Feature", "properties": { "osm_id": "7328128260", "name": "ジャングルキャンプ", "barrier": null, "highway": null, "ref": null, "address": null, "is_in": null, "place": null, "man_made": null, "other_tags": "\"amenity\"=>\"toilets\"" }, "geometry": { "type": "Point", "coordinates": [ 139.5218291, 35.4987739 ] } },
{ "type": "Feature", "properties": { "osm_id": "7328128261", "name": "サバンナテラス", "barrier": null, "highway": null, "ref": null, "address": null, "is_in": null, "place": null, "man_made": null, "other_tags": "\"amenity\"=>\"toilets\"" }, "geometry": { "type": "Point", "coordinates": [ 139.5214354, 35.4994763 ] } },
{ "type": "Feature", "properties": { "osm_id": "7328128262", "name": "ぱかぱか広場先", "barrier": null, "highway": null, "ref": null, "address": null, "is_in": null, "place": null, "man_made": null, "other_tags": "\"amenity\"=>\"toilets\"" }, "geometry": { "type": "Point", "coordinates": [ 139.522832099999988, 35.4993959 ] } },
{ "type": "Feature", "properties": { "osm_id": "7328128263", "name": "鳥類館横", "barrier": null, "highway": null, "ref": null, "address": null, "is_in": null, "place": null, "man_made": null, "other_tags": "\"amenity\"=>\"toilets\"" }, "geometry": { "type": "Point", "coordinates": [ 139.5218736, 35.5001423 ] } },
{ "type": "Feature", "properties": { "osm_id": "7328128264", "name": "ケープハイラックス展示場横", "barrier": null, "highway": null, "ref": null, "address": null, "is_in": null, "place": null, "man_made": null, "other_tags": "\"amenity\"=>\"toilets\"" }, "geometry": { "type": "Point", "coordinates": [ 139.5197489, 35.5009977 ] } },
{ "type": "Feature", "properties": { "osm_id": "7611792771", "name": "正門駐車場北", "barrier": null, "highway": null, "ref": null, "address": null, "is_in": null, "place": null, "man_made": null, "other_tags": "\"amenity\"=>\"toilets\"" }, "geometry": { "type": "Point", "coordinates": [ 139.5265272, 35.4963166 ] } },
{ "type": "Feature", "properties": { "osm_id": "7611792828", "name": null, "barrier": null, "highway": null, "ref": null, "address": null, "is_in": null, "place": null, "man_made": null, "other_tags": "\"amenity\"=>\"drinking_water\"" }, "geometry": { "type": "Point", "coordinates": [ 139.5227813, 35.4962205 ] } },
{ "type": "Feature", "properties": { "osm_id": "7611792829", "name": "カンムリセイラン", "barrier": null, "highway": null, "ref": null, "address": null, "is_in": null, "place": null, "man_made": null, "other_tags": "\"attraction\"=>\"animal\"" }, "geometry": { "type": "Point", "coordinates": [ 139.5263927, 35.4930603 ] } },
{ "type": "Feature", "properties": { "osm_id": "7821517613", "name": null, "barrier": "gate", "highway": null, "ref": null, "address": null, "is_in": null, "place": null, "man_made": null, "other_tags": null }, "geometry": { "type": "Point", "coordinates": [ 139.5248784, 35.4961385 ] } },
{ "type": "Feature", "properties": { "osm_id": "7821517648", "name": "みんなの原っぱ", "barrier": null, "highway": null, "ref": null, "address": null, "is_in": null, "place": null, "man_made": null, "other_tags": "\"amenity\"=>\"toilets\"" }, "geometry": { "type": "Point", "coordinates": [ 139.5255468, 35.4958255 ] } },
{ "type": "Feature", "properties": { "osm_id": "7821554686", "name": null, "barrier": null, "highway": null, "ref": null, "address": null, "is_in": null, "place": null, "man_made": null, "other_tags": "\"tourism\"=>\"viewpoint\"" }, "geometry": { "type": "Point", "coordinates": [ 139.5227889, 35.4925139 ] } },
{ "type": "Feature", "properties": { "osm_id": "7847827512", "name": null, "barrier": null, "highway": null, "ref": null, "address": null, "is_in": null, "place": null, "man_made": null, "other_tags": "\"amenity\"=>\"bench\"" }, "geometry": { "type": "Point", "coordinates": [ 139.5269152, 35.4929651 ] } },
{ "type": "Feature", "properties": { "osm_id": "7847827513", "name": null, "barrier": null, "highway": null, "ref": null, "address": null, "is_in": null, "place": null, "man_made": null, "other_tags": "\"amenity\"=>\"bench\"" }, "geometry": { "type": "Point", "coordinates": [ 139.5274976, 35.4943132 ] } },
{ "type": "Feature", "properties": { "osm_id": "7847827514", "name": null, "barrier": null, "highway": null, "ref": null, "address": null, "is_in": null, "place": null, "man_made": null, "other_tags": "\"amenity\"=>\"bench\"" }, "geometry": { "type": "Point", "coordinates": [ 139.5269821, 35.4931525 ] } },
{ "type": "Feature", "properties": { "osm_id": "7847827515", "name": null, "barrier": null, "highway": null, "ref": null, "address": null, "is_in": null, "place": null, "man_made": null, "other_tags": "\"amenity\"=>\"bench\"" }, "geometry": { "type": "Point", "coordinates": [ 139.526976600000012, 35.4935383 ] } },
{ "type": "Feature", "properties": { "osm_id": "7847827516", "name": null, "barrier": null, "highway": null, "ref": null, "address": null, "is_in": null, "place": null, "man_made": null, "other_tags": "\"amenity\"=>\"bench\"" }, "geometry": { "type": "Point", "coordinates": [ 139.5269619, 35.4930247 ] } },
{ "type": "Feature", "properties": { "osm_id": "7847827517", "name": null, "barrier": null, "highway": null, "ref": null, "address": null, "is_in": null, "place": null, "man_made": null, "other_tags": "\"information\"=>\"map\",\"tourism\"=>\"information\"" }, "geometry": { "type": "Point", "coordinates": [ 139.5269987, 35.4939031 ] } },
{ "type": "Feature", "properties": { "osm_id": "7847827518", "name": null, "barrier": null, "highway": null, "ref": null, "address": null, "is_in": null, "place": null, "man_made": null, "other_tags": "\"amenity\"=>\"bench\"" }, "geometry": { "type": "Point", "coordinates": [ 139.52697520000001, 35.4931054 ] } },
{ "type": "Feature", "properties": { "osm_id": "7847827519", "name": null, "barrier": null, "highway": null, "ref": null, "address": null, "is_in": null, "place": null, "man_made": null, "other_tags": "\"amenity\"=>\"bench\"" }, "geometry": { "type": "Point", "coordinates": [ 139.5270229, 35.4933226 ] } },
{ "type": "Feature", "properties": { "osm_id": "7847827520", "name": null, "barrier": null, "highway": null, "ref": null, "address": null, "is_in": null, "place": null, "man_made": null, "other_tags": "\"leisure\"=>\"picnic_table\"" }, "geometry": { "type": "Point", "coordinates": [ 139.5268651, 35.4929242 ] } },
{ "type": "Feature", "properties": { "osm_id": "7847827521", "name": null, "barrier": null, "highway": null, "ref": null, "address": null, "is_in": null, "place": null, "man_made": null, "other_tags": "\"amenity\"=>\"bench\"" }, "geometry": { "type": "Point", "coordinates": [ 139.5274866, 35.4943724 ] } },
{ "type": "Feature", "properties": { "osm_id": "7847827522", "name": null, "barrier": null, "highway": null, "ref": null, "address": null, "is_in": null, "place": null, "man_made": null, "other_tags": "\"tourism\"=>\"viewpoint\"" }, "geometry": { "type": "Point", "coordinates": [ 139.5268432, 35.4932718 ] } },
{ "type": "Feature", "properties": { "osm_id": "7847827523", "name": null, "barrier": null, "highway": null, "ref": null, "address": null, "is_in": null, "place": null, "man_made": null, "other_tags": "\"amenity\"=>\"bench\"" }, "geometry": { "type": "Point", "coordinates": [ 139.5269994, 35.4935054 ] } },
{ "type": "Feature", "properties": { "osm_id": "7847827524", "name": null, "barrier": null, "highway": null, "ref": null, "address": null, "is_in": null, "place": null, "man_made": null, "other_tags": "\"amenity\"=>\"bench\"" }, "geometry": { "type": "Point", "coordinates": [ 139.5269556, 35.4930088 ] } },
{ "type": "Feature", "properties": { "osm_id": "7847827526", "name": "アジアゾウ", "barrier": null, "highway": null, "ref": null, "address": null, "is_in": null, "place": null, "man_made": null, "other_tags": "\"artwork_type\"=>\"statue\",\"tourism\"=>\"artwork\"" }, "geometry": { "type": "Point", "coordinates": [ 139.5267974, 35.493561 ] } },
{ "type": "Feature", "properties": { "osm_id": "7847827527", "name": null, "barrier": null, "highway": null, "ref": null, "address": null, "is_in": null, "place": null, "man_made": null, "other_tags": "\"amenity\"=>\"bench\"" }, "geometry": { "type": "Point", "coordinates": [ 139.5269778, 35.4930844 ] } },
{ "type": "Feature", "properties": { "osm_id": "7847827528", "name": null, "barrier": null, "highway": null, "ref": null, "address": null, "is_in": null, "place": null, "man_made": null, "other_tags": "\"amenity\"=>\"bench\"" }, "geometry": { "type": "Point", "coordinates": [ 139.527017, 35.4932839 ] } },
{ "type": "Feature", "properties": { "osm_id": "7847827529", "name": null, "barrier": null, "highway": null, "ref": null, "address": null, "is_in": null, "place": null, "man_made": null, "other_tags": "\"leisure\"=>\"picnic_table\"" }, "geometry": { "type": "Point", "coordinates": [ 139.526838700000013, 35.4928872 ] } },
{ "type": "Feature", "properties": { "osm_id": "7847827530", "name": null, "barrier": null, "highway": null, "ref": null, "address": null, "is_in": null, "place": null, "man_made": null, "other_tags": "\"amenity\"=>\"telephone\"" }, "geometry": { "type": "Point", "coordinates": [ 139.5273249, 35.4941061 ] } },
{ "type": "Feature", "properties": { "osm_id": "7847827531", "name": null, "barrier": null, "highway": null, "ref": null, "address": null, "is_in": null, "place": null, "man_made": null, "other_tags": "\"tourism\"=>\"viewpoint\"" }, "geometry": { "type": "Point", "coordinates": [ 139.5268527, 35.4933638 ] } },
{ "type": "Feature", "properties": { "osm_id": "7847827532", "name": null, "barrier": null, "highway": null, "ref": null, "address": null, "is_in": null, "place": null, "man_made": null, "other_tags": "\"amenity\"=>\"bench\"" }, "geometry": { "type": "Point", "coordinates": [ 139.5270207, 35.4934599 ] } },
{ "type": "Feature", "properties": { "osm_id": "7847827533", "name": null, "barrier": null, "highway": null, "ref": null, "address": null, "is_in": null, "place": null, "man_made": null, "other_tags": "\"amenity\"=>\"bench\"" }, "geometry": { "type": "Point", "coordinates": [ 139.52693210000001, 35.4929713 ] } },
{ "type": "Feature", "properties": { "osm_id": "7847827534", "name": null, "barrier": null, "highway": null, "ref": null, "address": null, "is_in": null, "place": null, "man_made": null, "other_tags": "\"amenity\"=>\"bench\"" }, "geometry": { "type": "Point", "coordinates": [ 139.5269815, 35.4931792 ] } },
{ "type": "Feature", "properties": { "osm_id": "7847827535", "name": null, "barrier": null, "highway": null, "ref": null, "address": null, "is_in": null, "place": null, "man_made": null, "other_tags": "\"information\"=>\"map\",\"tourism\"=>\"information\"" }, "geometry": { "type": "Point", "coordinates": [ 139.526778299999989, 35.4936258 ] } },
{ "type": "Feature", "properties": { "osm_id": "7847827536", "name": null, "barrier": null, "highway": null, "ref": null, "address": null, "is_in": null, "place": null, "man_made": null, "other_tags": "\"amenity\"=>\"bench\"" }, "geometry": { "type": "Point", "coordinates": [ 139.5269714, 35.4930446 ] } },
{ "type": "Feature", "properties": { "osm_id": "7847827538", "name": null, "barrier": null, "highway": null, "ref": null, "address": null, "is_in": null, "place": null, "man_made": null, "other_tags": "\"leisure\"=>\"picnic_table\"" }, "geometry": { "type": "Point", "coordinates": [ 139.5268508, 35.4928691 ] } },
{ "type": "Feature", "properties": { "osm_id": "7847827539", "name": null, "barrier": null, "highway": null, "ref": null, "address": null, "is_in": null, "place": null, "man_made": null, "other_tags": "\"information\"=>\"map\",\"tourism\"=>\"information\"" }, "geometry": { "type": "Point", "coordinates": [ 139.5268524, 35.494175 ] } },
{ "type": "Feature", "properties": { "osm_id": "7847827540", "name": null, "barrier": null, "highway": null, "ref": null, "address": null, "is_in": null, "place": null, "man_made": null, "other_tags": "\"tourism\"=>\"viewpoint\"" }, "geometry": { "type": "Point", "coordinates": [ 139.5269127, 35.4930971 ] } },
{ "type": "Feature", "properties": { "osm_id": "7847827541", "name": null, "barrier": null, "highway": null, "ref": null, "address": null, "is_in": null, "place": null, "man_made": null, "other_tags": "\"amenity\"=>\"bench\"" }, "geometry": { "type": "Point", "coordinates": [ 139.527028800000011, 35.4934198 ] } },
{ "type": "Feature", "properties": { "osm_id": "7847848490", "name": null, "barrier": null, "highway": null, "ref": null, "address": null, "is_in": null, "place": null, "man_made": null, "other_tags": "\"amenity\"=>\"bench\"" }, "geometry": { "type": "Point", "coordinates": [ 139.52565340000001, 35.4923216 ] } },
{ "type": "Feature", "properties": { "osm_id": "7847848492", "name": null, "barrier": null, "highway": null, "ref": null, "address": null, "is_in": null, "place": null, "man_made": null, "other_tags": "\"amenity\"=>\"bench\"" }, "geometry": { "type": "Point", "coordinates": [ 139.5259065, 35.4923316 ] } },
{ "type": "Feature", "properties": { "osm_id": "7847848493", "name": null, "barrier": null, "highway": null, "ref": null, "address": null, "is_in": null, "place": null, "man_made": null, "other_tags": "\"tourism\"=>\"viewpoint\"" }, "geometry": { "type": "Point", "coordinates": [ 139.526066899999989, 35.4926995 ] } },
{ "type": "Feature", "properties": { "osm_id": "7847848494", "name": null, "barrier": null, "highway": null, "ref": null, "address": null, "is_in": null, "place": null, "man_made": null, "other_tags": "\"tourism\"=>\"viewpoint\"" }, "geometry": { "type": "Point", "coordinates": [ 139.525573, 35.4924534 ] } },
{ "type": "Feature", "properties": { "osm_id": "7847848495", "name": null, "barrier": null, "highway": null, "ref": null, "address": null, "is_in": null, "place": null, "man_made": null, "other_tags": "\"amenity\"=>\"bench\"" }, "geometry": { "type": "Point", "coordinates": [ 139.5255706, 35.4923171 ] } },
{ "type": "Feature", "properties": { "osm_id": "7847848497", "name": null, "barrier": null, "highway": null, "ref": null, "address": null, "is_in": null, "place": null, "man_made": null, "other_tags": "\"tourism\"=>\"viewpoint\"" }, "geometry": { "type": "Point", "coordinates": [ 139.5258189, 35.4925143 ] } },
{ "type": "Feature", "properties": { "osm_id": "7847848498", "name": null, "barrier": null, "highway": null, "ref": null, "address": null, "is_in": null, "place": null, "man_made": null, "other_tags": "\"amenity\"=>\"bench\"" }, "geometry": { "type": "Point", "coordinates": [ 139.5258244, 35.4923296 ] } },
{ "type": "Feature", "properties": { "osm_id": "7847848501", "name": null, "barrier": null, "highway": null, "ref": null, "address": null, "is_in": null, "place": null, "man_made": null, "other_tags": "\"amenity\"=>\"bench\"" }, "geometry": { "type": "Point", "coordinates": [ 139.5262156, 35.4925778 ] } },
{ "type": "Feature", "properties": { "osm_id": "7847848504", "name": null, "barrier": null, "highway": null, "ref": null, "address": null, "is_in": null, "place": null, "man_made": null, "other_tags": "\"tourism\"=>\"viewpoint\"" }, "geometry": { "type": "Point", "coordinates": [ 139.5260001, 35.4927838 ] } },
{ "type": "Feature", "properties": { "osm_id": "7847848505", "name": null, "barrier": null, "highway": null, "ref": null, "address": null, "is_in": null, "place": null, "man_made": null, "other_tags": "\"tourism\"=>\"viewpoint\"" }, "geometry": { "type": "Point", "coordinates": [ 139.5259513, 35.4925597 ] } },
{ "type": "Feature", "properties": { "osm_id": "7847848506", "name": null, "barrier": null, "highway": null, "ref": null, "address": null, "is_in": null, "place": null, "man_made": null, "other_tags": "\"amenity\"=>\"bench\"" }, "geometry": { "type": "Point", "coordinates": [ 139.525716499999987, 35.4923256 ] } },
{ "type": "Feature", "properties": { "osm_id": "7847848509", "name": null, "barrier": null, "highway": null, "ref": null, "address": null, "is_in": null, "place": null, "man_made": null, "other_tags": "\"amenity\"=>\"bench\"" }, "geometry": { "type": "Point", "coordinates": [ 139.525972700000011, 35.4923371 ] } },
{ "type": "Feature", "properties": { "osm_id": "7847871181", "name": null, "barrier": null, "highway": null, "ref": null, "address": null, "is_in": null, "place": null, "man_made": null, "other_tags": "\"tourism\"=>\"viewpoint\"" }, "geometry": { "type": "Point", "coordinates": [ 139.5260404, 35.4935471 ] } },
{ "type": "Feature", "properties": { "osm_id": "7847871184", "name": null, "barrier": null, "highway": null, "ref": null, "address": null, "is_in": null, "place": null, "man_made": null, "other_tags": "\"amenity\"=>\"bench\"" }, "geometry": { "type": "Point", "coordinates": [ 139.5259223, 35.4930466 ] } },
{ "type": "Feature", "properties": { "osm_id": "7847871485", "name": null, "barrier": null, "highway": null, "ref": null, "address": null, "is_in": null, "place": null, "man_made": null, "other_tags": "\"amenity\"=>\"drinking_water\"" }, "geometry": { "type": "Point", "coordinates": [ 139.5257305, 35.4937107 ] } },
{ "type": "Feature", "properties": { "osm_id": "7847871490", "name": null, "barrier": null, "highway": null, "ref": null, "address": null, "is_in": null, "place": null, "man_made": null, "other_tags": "\"tourism\"=>\"viewpoint\"" }, "geometry": { "type": "Point", "coordinates": [ 139.525777799999986, 35.4933558 ] } },
{ "type": "Feature", "properties": { "osm_id": "7847871494", "name": null, "barrier": null, "highway": null, "ref": null, "address": null, "is_in": null, "place": null, "man_made": null, "other_tags": "\"leisure\"=>\"picnic_table\"" }, "geometry": { "type": "Point", "coordinates": [ 139.525811299999987, 35.4936363 ] } },
{ "type": "Feature", "properties": { "osm_id": "7847871496", "name": null, "barrier": null, "highway": null, "ref": null, "address": null, "is_in": null, "place": null, "man_made": null, "other_tags": "\"amenity\"=>\"bench\"" }, "geometry": { "type": "Point", "coordinates": [ 139.5261846, 35.4927967 ] } },
{ "type": "Feature", "properties": { "osm_id": "7847871499", "name": null, "barrier": null, "highway": null, "ref": null, "address": null, "is_in": null, "place": null, "man_made": null, "other_tags": "\"leisure\"=>\"picnic_table\"" }, "geometry": { "type": "Point", "coordinates": [ 139.5258251, 35.4937334 ] } },
{ "type": "Feature", "properties": { "osm_id": "7847871501", "name": null, "barrier": null, "highway": null, "ref": null, "address": null, "is_in": null, "place": null, "man_made": null, "other_tags": "\"amenity\"=>\"bench\"" }, "geometry": { "type": "Point", "coordinates": [ 139.52600240000001, 35.4929301 ] } },
{ "type": "Feature", "properties": { "osm_id": "7847871503", "name": null, "barrier": null, "highway": null, "ref": null, "address": null, "is_in": null, "place": null, "man_made": null, "other_tags": "\"amenity\"=>\"waste_basket\"" }, "geometry": { "type": "Point", "coordinates": [ 139.525752399999988, 35.493691 ] } },
{ "type": "Feature", "properties": { "osm_id": "7847871507", "name": null, "barrier": null, "highway": null, "ref": null, "address": null, "is_in": null, "place": null, "man_made": null, "other_tags": "\"amenity\"=>\"bench\"" }, "geometry": { "type": "Point", "coordinates": [ 139.5258388, 35.4932035 ] } },
{ "type": "Feature", "properties": { "osm_id": "7847871510", "name": null, "barrier": null, "highway": null, "ref": null, "address": null, "is_in": null, "place": null, "man_made": null, "other_tags": "\"leisure\"=>\"picnic_table\"" }, "geometry": { "type": "Point", "coordinates": [ 139.5257885, 35.493656 ] } },
{ "type": "Feature", "properties": { "osm_id": "7847871511", "name": null, "barrier": null, "highway": null, "ref": null, "address": null, "is_in": null, "place": null, "man_made": null, "other_tags": "\"amenity\"=>\"bench\"" }, "geometry": { "type": "Point", "coordinates": [ 139.5262271, 35.4927298 ] } },
{ "type": "Feature", "properties": { "osm_id": "7847871512", "name": null, "barrier": null, "highway": null, "ref": null, "address": null, "is_in": null, "place": null, "man_made": null, "other_tags": "\"tourism\"=>\"viewpoint\"" }, "geometry": { "type": "Point", "coordinates": [ 139.526169, 35.4932334 ] } },
{ "type": "Feature", "properties": { "osm_id": "7847871513", "name": null, "barrier": null, "highway": null, "ref": null, "address": null, "is_in": null, "place": null, "man_made": null, "other_tags": "\"tourism\"=>\"viewpoint\"" }, "geometry": { "type": "Point", "coordinates": [ 139.525681600000013, 35.4935252 ] } },
{ "type": "Feature", "properties": { "osm_id": "7847871515", "name": null, "barrier": null, "highway": null, "ref": null, "address": null, "is_in": null, "place": null, "man_made": null, "other_tags": "\"leisure\"=>\"picnic_table\"" }, "geometry": { "type": "Point", "coordinates": [ 139.525799, 35.4937144 ] } },
{ "type": "Feature", "properties": { "osm_id": "7847871522", "name": null, "barrier": null, "highway": null, "ref": null, "address": null, "is_in": null, "place": null, "man_made": null, "other_tags": "\"tourism\"=>\"viewpoint\"" }, "geometry": { "type": "Point", "coordinates": [ 139.525879300000014, 35.4930331 ] } },
{ "type": "Feature", "properties": { "osm_id": "7847871524", "name": null, "barrier": null, "highway": null, "ref": null, "address": null, "is_in": null, "place": null, "man_made": null, "other_tags": "\"leisure\"=>\"picnic_table\"" }, "geometry": { "type": "Point", "coordinates": [ 139.5257679, 35.4936348 ] } },
{ "type": "Feature", "properties": { "osm_id": "7847871528", "name": null, "barrier": null, "highway": null, "ref": null, "address": null, "is_in": null, "place": null, "man_made": null, "other_tags": "\"amenity\"=>\"bench\"" }, "geometry": { "type": "Point", "coordinates": [ 139.5256924, 35.4935549 ] } },
{ "type": "Feature", "properties": { "osm_id": "7847871531", "name": null, "barrier": null, "highway": null, "ref": null, "address": null, "is_in": null, "place": null, "man_made": null, "other_tags": "\"leisure\"=>\"picnic_table\"" }, "geometry": { "type": "Point", "coordinates": [ 139.5258337, 35.4936192 ] } },
{ "type": "Feature", "properties": { "osm_id": "7847871533", "name": null, "barrier": null, "highway": null, "ref": null, "address": null, "is_in": null, "place": null, "man_made": null, "other_tags": "\"amenity\"=>\"bench\"" }, "geometry": { "type": "Point", "coordinates": [ 139.5261294, 35.4928375 ] } },
{ "type": "Feature", "properties": { "osm_id": "7847896712", "name": null, "barrier": null, "highway": null, "ref": null, "address": null, "is_in": null, "place": null, "man_made": null, "other_tags": "\"amenity\"=>\"waste_basket\"" }, "geometry": { "type": "Point", "coordinates": [ 139.5224469, 35.492878 ] } },
{ "type": "Feature", "properties": { "osm_id": "7847896713", "name": null, "barrier": null, "highway": null, "ref": null, "address": null, "is_in": null, "place": null, "man_made": null, "other_tags": "\"amenity\"=>\"bench\"" }, "geometry": { "type": "Point", "coordinates": [ 139.5238148, 35.4932151 ] } },
{ "type": "Feature", "properties": { "osm_id": "7847896716", "name": null, "barrier": null, "highway": null, "ref": null, "address": null, "is_in": null, "place": null, "man_made": null, "other_tags": "\"amenity\"=>\"vending_machine\",\"vending\"=>\"drinks\"" }, "geometry": { "type": "Point", "coordinates": [ 139.523684, 35.4926989 ] } },
{ "type": "Feature", "properties": { "osm_id": "7847896720", "name": null, "barrier": null, "highway": null, "ref": null, "address": null, "is_in": null, "place": null, "man_made": null, "other_tags": "\"tourism\"=>\"viewpoint\"" }, "geometry": { "type": "Point", "coordinates": [ 139.52393, 35.4929024 ] } },
{ "type": "Feature", "properties": { "osm_id": "7847896725", "name": null, "barrier": null, "highway": null, "ref": null, "address": null, "is_in": null, "place": null, "man_made": null, "other_tags": "\"amenity\"=>\"bench\"" }, "geometry": { "type": "Point", "coordinates": [ 139.5251972, 35.4926576 ] } },
{ "type": "Feature", "properties": { "osm_id": "7847896727", "name": null, "barrier": null, "highway": null, "ref": null, "address": null, "is_in": null, "place": null, "man_made": null, "other_tags": "\"amenity\"=>\"bench\"" }, "geometry": { "type": "Point", "coordinates": [ 139.5224768, 35.4927795 ] } },
{ "type": "Feature", "properties": { "osm_id": "7847896728", "name": null, "barrier": null, "highway": null, "ref": null, "address": null, "is_in": null, "place": null, "man_made": null, "other_tags": "\"information\"=>\"guidepost\",\"tourism\"=>\"information\"" }, "geometry": { "type": "Point", "coordinates": [ 139.5235288, 35.4931587 ] } },
{ "type": "Feature", "properties": { "osm_id": "7847896729", "name": null, "barrier": null, "highway": null, "ref": null, "address": null, "is_in": null, "place": null, "man_made": null, "other_tags": "\"tourism\"=>\"viewpoint\"" }, "geometry": { "type": "Point", "coordinates": [ 139.5251715, 35.4928393 ] } },
{ "type": "Feature", "properties": { "osm_id": "7847896732", "name": null, "barrier": null, "highway": null, "ref": null, "address": null, "is_in": null, "place": null, "man_made": null, "other_tags": "\"tourism\"=>\"viewpoint\"" }, "geometry": { "type": "Point", "coordinates": [ 139.525407300000012, 35.4926621 ] } },
{ "type": "Feature", "properties": { "osm_id": "7847896733", "name": null, "barrier": null, "highway": null, "ref": null, "address": null, "is_in": null, "place": null, "man_made": null, "other_tags": "\"amenity\"=>\"drinking_water\"" }, "geometry": { "type": "Point", "coordinates": [ 139.523574, 35.4923928 ] } },
{ "type": "Feature", "properties": { "osm_id": "7847896735", "name": null, "barrier": null, "highway": null, "ref": null, "address": null, "is_in": null, "place": null, "man_made": null, "other_tags": "\"amenity\"=>\"bench\"" }, "geometry": { "type": "Point", "coordinates": [ 139.5236955, 35.493148 ] } },
{ "type": "Feature", "properties": { "osm_id": "7847896738", "name": null, "barrier": null, "highway": null, "ref": null, "address": null, "is_in": null, "place": null, "man_made": null, "other_tags": "\"amenity\"=>\"bench\"" }, "geometry": { "type": "Point", "coordinates": [ 139.5239652, 35.4929138 ] } },
{ "type": "Feature", "properties": { "osm_id": "7847896740", "name": null, "barrier": null, "highway": null, "ref": null, "address": null, "is_in": null, "place": null, "man_made": null, "other_tags": "\"tourism\"=>\"viewpoint\"" }, "geometry": { "type": "Point", "coordinates": [ 139.5232567, 35.4924643 ] } },
{ "type": "Feature", "properties": { "osm_id": "7847896744", "name": null, "barrier": null, "highway": null, "ref": null, "address": null, "is_in": null, "place": null, "man_made": null, "other_tags": "\"amenity\"=>\"bench\"" }, "geometry": { "type": "Point", "coordinates": [ 139.5251563, 35.4927425 ] } },
{ "type": "Feature", "properties": { "osm_id": "7847896745", "name": null, "barrier": null, "highway": null, "ref": null, "address": null, "is_in": null, "place": null, "man_made": null, "other_tags": "\"tourism\"=>\"viewpoint\"" }, "geometry": { "type": "Point", "coordinates": [ 139.5241715, 35.4927006 ] } },
{ "type": "Feature", "properties": { "osm_id": "7847896746", "name": null, "barrier": null, "highway": null, "ref": null, "address": null, "is_in": null, "place": null, "man_made": null, "other_tags": "\"amenity\"=>\"bench\"" }, "geometry": { "type": "Point", "coordinates": [ 139.5223637, 35.4928567 ] } },
{ "type": "Feature", "properties": { "osm_id": "7847896750", "name": null, "barrier": null, "highway": null, "ref": null, "address": null, "is_in": null, "place": null, "man_made": null, "other_tags": "\"tourism\"=>\"viewpoint\"" }, "geometry": { "type": "Point", "coordinates": [ 139.525218700000011, 35.4927171 ] } },
{ "type": "Feature", "properties": { "osm_id": "7847896752", "name": null, "barrier": null, "highway": null, "ref": null, "address": null, "is_in": null, "place": null, "man_made": null, "other_tags": "\"artwork_type\"=>\"statue\",\"tourism\"=>\"artwork\"" }, "geometry": { "type": "Point", "coordinates": [ 139.5243645, 35.4927213 ] } },
{ "type": "Feature", "properties": { "osm_id": "7847896753", "name": null, "barrier": null, "highway": null, "ref": null, "address": null, "is_in": null, "place": null, "man_made": null, "other_tags": "\"information\"=>\"guidepost\",\"tourism\"=>\"information\"" }, "geometry": { "type": "Point", "coordinates": [ 139.522133700000012, 35.4929866 ] } },
{ "type": "Feature", "properties": { "osm_id": "7847896754", "name": null, "barrier": null, "highway": null, "ref": null, "address": null, "is_in": null, "place": null, "man_made": null, "other_tags": "\"amenity\"=>\"bench\"" }, "geometry": { "type": "Point", "coordinates": [ 139.5237635, 35.4931759 ] } },
{ "type": "Feature", "properties": { "osm_id": "7847896760", "name": null, "barrier": null, "highway": null, "ref": null, "address": null, "is_in": null, "place": null, "man_made": null, "other_tags": "\"information\"=>\"guidepost\",\"tourism\"=>\"information\"" }, "geometry": { "type": "Point", "coordinates": [ 139.5230319, 35.492951 ] } },
{ "type": "Feature", "properties": { "osm_id": "7847896761", "name": null, "barrier": null, "highway": null, "ref": null, "address": null, "is_in": null, "place": null, "man_made": null, "other_tags": "\"amenity\"=>\"bench\"" }, "geometry": { "type": "Point", "coordinates": [ 139.524000699999988, 35.493123 ] } },
{ "type": "Feature", "properties": { "osm_id": "7847896762", "name": null, "barrier": null, "highway": null, "ref": null, "address": null, "is_in": null, "place": null, "man_made": null, "other_tags": "\"amenity\"=>\"bench\"" }, "geometry": { "type": "Point", "coordinates": [ 139.525373699999989, 35.4924111 ] } },
{ "type": "Feature", "properties": { "osm_id": "7847896765", "name": null, "barrier": null, "highway": null, "ref": null, "address": null, "is_in": null, "place": null, "man_made": null, "other_tags": "\"amenity\"=>\"bench\"" }, "geometry": { "type": "Point", "coordinates": [ 139.5234321, 35.4929289 ] } },
{ "type": "Feature", "properties": { "osm_id": "7847896766", "name": null, "barrier": null, "highway": null, "ref": null, "address": null, "is_in": null, "place": null, "man_made": null, "other_tags": "\"amenity\"=>\"bench\"" }, "geometry": { "type": "Point", "coordinates": [ 139.5251774, 35.4927029 ] } },
{ "type": "Feature", "properties": { "osm_id": "7847956098", "name": null, "barrier": "gate", "highway": null, "ref": null, "address": null, "is_in": null, "place": null, "man_made": null, "other_tags": null }, "geometry": { "type": "Point", "coordinates": [ 139.5242035, 35.4936517 ] } },
{ "type": "Feature", "properties": { "osm_id": "7847956099", "name": null, "barrier": null, "highway": null, "ref": null, "address": null, "is_in": null, "place": null, "man_made": null, "other_tags": "\"tourism\"=>\"viewpoint\"" }, "geometry": { "type": "Point", "coordinates": [ 139.5225049, 35.4925992 ] } },
{ "type": "Feature", "properties": { "osm_id": "7847956100", "name": null, "barrier": null, "highway": null, "ref": null, "address": null, "is_in": null, "place": null, "man_made": null, "other_tags": "\"tourism\"=>\"viewpoint\"" }, "geometry": { "type": "Point", "coordinates": [ 139.5238536, 35.4941104 ] } },
{ "type": "Feature", "properties": { "osm_id": "7847956102", "name": null, "barrier": null, "highway": null, "ref": null, "address": null, "is_in": null, "place": null, "man_made": null, "other_tags": "\"amenity\"=>\"vending_machine\",\"vending\"=>\"drinks\"" }, "geometry": { "type": "Point", "coordinates": [ 139.523266299999989, 35.4941774 ] } },
{ "type": "Feature", "properties": { "osm_id": "7847956104", "name": null, "barrier": null, "highway": null, "ref": null, "address": null, "is_in": null, "place": null, "man_made": null, "other_tags": "\"tourism\"=>\"viewpoint\"" }, "geometry": { "type": "Point", "coordinates": [ 139.524008400000014, 35.4944106 ] } },
{ "type": "Feature", "properties": { "osm_id": "7847956105", "name": null, "barrier": null, "highway": null, "ref": null, "address": null, "is_in": null, "place": null, "man_made": null, "other_tags": "\"amenity\"=>\"bench\"" }, "geometry": { "type": "Point", "coordinates": [ 139.5238893, 35.4936762 ] } },
{ "type": "Feature", "properties": { "osm_id": "7847956106", "name": null, "barrier": null, "highway": null, "ref": null, "address": null, "is_in": null, "place": null, "man_made": null, "other_tags": "\"tourism\"=>\"viewpoint\"" }, "geometry": { "type": "Point", "coordinates": [ 139.5240915, 35.494537 ] } },
{ "type": "Feature", "properties": { "osm_id": "7847956107", "name": null, "barrier": null, "highway": null, "ref": null, "address": null, "is_in": null, "place": null, "man_made": null, "other_tags": "\"leisure\"=>\"picnic_table\"" }, "geometry": { "type": "Point", "coordinates": [ 139.5231919, 35.4938524 ] } },
{ "type": "Feature", "properties": { "osm_id": "7847956108", "name": null, "barrier": null, "highway": null, "ref": null, "address": null, "is_in": null, "place": null, "man_made": null, "other_tags": "\"tourism\"=>\"viewpoint\"" }, "geometry": { "type": "Point", "coordinates": [ 139.522480800000011, 35.4932317 ] } },
{ "type": "Feature", "properties": { "osm_id": "7847956110", "name": null, "barrier": null, "highway": null, "ref": null, "address": null, "is_in": null, "place": null, "man_made": null, "other_tags": "\"tourism\"=>\"viewpoint\"" }, "geometry": { "type": "Point", "coordinates": [ 139.5232155, 35.4933369 ] } },
{ "type": "Feature", "properties": { "osm_id": "7847956112", "name": null, "barrier": null, "highway": null, "ref": null, "address": null, "is_in": null, "place": null, "man_made": null, "other_tags": "\"leisure\"=>\"picnic_table\"" }, "geometry": { "type": "Point", "coordinates": [ 139.5233067, 35.4936757 ] } },
{ "type": "Feature", "properties": { "osm_id": "7847956113", "name": null, "barrier": null, "highway": null, "ref": null, "address": null, "is_in": null, "place": null, "man_made": null, "other_tags": "\"amenity\"=>\"bench\"" }, "geometry": { "type": "Point", "coordinates": [ 139.5223804, 35.4926607 ] } },
{ "type": "Feature", "properties": { "osm_id": "7847956115", "name": null, "barrier": null, "highway": null, "ref": null, "address": null, "is_in": null, "place": null, "man_made": null, "other_tags": "\"tourism\"=>\"viewpoint\"" }, "geometry": { "type": "Point", "coordinates": [ 139.5236717, 35.4937865 ] } },
{ "type": "Feature", "properties": { "osm_id": "7847956118", "name": null, "barrier": null, "highway": null, "ref": null, "address": null, "is_in": null, "place": null, "man_made": null, "other_tags": "\"information\"=>\"guidepost\",\"tourism\"=>\"information\"" }, "geometry": { "type": "Point", "coordinates": [ 139.5239569, 35.4945267 ] } },
{ "type": "Feature", "properties": { "osm_id": "7847956119", "name": null, "barrier": null, "highway": null, "ref": null, "address": null, "is_in": null, "place": null, "man_made": null, "other_tags": "\"amenity\"=>\"bench\"" }, "geometry": { "type": "Point", "coordinates": [ 139.523943800000012, 35.4936643 ] } },
{ "type": "Feature", "properties": { "osm_id": "7847956120", "name": null, "barrier": null, "highway": null, "ref": null, "address": null, "is_in": null, "place": null, "man_made": null, "other_tags": "\"amenity\"=>\"waste_basket\"" }, "geometry": { "type": "Point", "coordinates": [ 139.523392800000011, 35.494157 ] } },
{ "type": "Feature", "properties": { "osm_id": "7847956121", "name": null, "barrier": null, "highway": null, "ref": null, "address": null, "is_in": null, "place": null, "man_made": null, "other_tags": "\"information\"=>\"map\",\"tourism\"=>\"information\"" }, "geometry": { "type": "Point", "coordinates": [ 139.5239738, 35.4946111 ] } },
{ "type": "Feature", "properties": { "osm_id": "7847956122", "name": null, "barrier": null, "highway": null, "ref": null, "address": null, "is_in": null, "place": null, "man_made": null, "other_tags": "\"leisure\"=>\"picnic_table\"" }, "geometry": { "type": "Point", "coordinates": [ 139.523207, 35.4939597 ] } },
{ "type": "Feature", "properties": { "osm_id": "7847956123", "name": null, "barrier": null, "highway": null, "ref": null, "address": null, "is_in": null, "place": null, "man_made": null, "other_tags": "\"tourism\"=>\"viewpoint\"" }, "geometry": { "type": "Point", "coordinates": [ 139.5225996, 35.493198 ] } },
{ "type": "Feature", "properties": { "osm_id": "7847956124", "name": null, "barrier": null, "highway": null, "ref": null, "address": null, "is_in": null, "place": null, "man_made": null, "other_tags": "\"tourism\"=>\"viewpoint\"" }, "geometry": { "type": "Point", "coordinates": [ 139.523851400000012, 35.4942096 ] } },
{ "type": "Feature", "properties": { "osm_id": "7847956125", "name": null, "barrier": null, "highway": null, "ref": null, "address": null, "is_in": null, "place": null, "man_made": null, "other_tags": "\"amenity\"=>\"waste_basket\"" }, "geometry": { "type": "Point", "coordinates": [ 139.523436800000013, 35.4937354 ] } },
{ "type": "Feature", "properties": { "osm_id": "7847956126", "name": null, "barrier": null, "highway": null, "ref": null, "address": null, "is_in": null, "place": null, "man_made": null, "other_tags": "\"tourism\"=>\"viewpoint\"" }, "geometry": { "type": "Point", "coordinates": [ 139.5232848, 35.4933727 ] } },
{ "type": "Feature", "properties": { "osm_id": "7847956128", "name": null, "barrier": null, "highway": null, "ref": null, "address": null, "is_in": null, "place": null, "man_made": null, "other_tags": "\"leisure\"=>\"picnic_table\"" }, "geometry": { "type": "Point", "coordinates": [ 139.5232762, 35.4936151 ] } },
{ "type": "Feature", "properties": { "osm_id": "7847956129", "name": null, "barrier": null, "highway": null, "ref": null, "address": null, "is_in": null, "place": null, "man_made": null, "other_tags": "\"tourism\"=>\"viewpoint\"" }, "geometry": { "type": "Point", "coordinates": [ 139.522183500000011, 35.4926608 ] } },
{ "type": "Feature", "properties": { "osm_id": "7847956130", "name": null, "barrier": null, "highway": null, "ref": null, "address": null, "is_in": null, "place": null, "man_made": null, "other_tags": "\"information\"=>\"guidepost\",\"tourism\"=>\"information\"" }, "geometry": { "type": "Point", "coordinates": [ 139.523753199999987, 35.4937559 ] } },
{ "type": "Feature", "properties": { "osm_id": "7847956132", "name": null, "barrier": null, "highway": null, "ref": null, "address": null, "is_in": null, "place": null, "man_made": null, "other_tags": "\"information\"=>\"guidepost\",\"tourism\"=>\"information\"" }, "geometry": { "type": "Point", "coordinates": [ 139.5240096, 35.4946247 ] } },
{ "type": "Feature", "properties": { "osm_id": "7847956133", "name": null, "barrier": null, "highway": null, "ref": null, "address": null, "is_in": null, "place": null, "man_made": null, "other_tags": "\"tourism\"=>\"viewpoint\"" }, "geometry": { "type": "Point", "coordinates": [ 139.524017, 35.4936888 ] } },
{ "type": "Feature", "properties": { "osm_id": "7847956134", "name": null, "barrier": null, "highway": null, "ref": null, "address": null, "is_in": null, "place": null, "man_made": null, "other_tags": "\"shop\"=>\"gift\"" }, "geometry": { "type": "Point", "coordinates": [ 139.5231305, 35.4940789 ] } },
{ "type": "Feature", "properties": { "osm_id": "7847956135", "name": null, "barrier": null, "highway": null, "ref": null, "address": null, "is_in": null, "place": null, "man_made": null, "other_tags": "\"information\"=>\"map\",\"tourism\"=>\"information\"" }, "geometry": { "type": "Point", "coordinates": [ 139.5236191, 35.4937532 ] } },
{ "type": "Feature", "properties": { "osm_id": "7847956136", "name": null, "barrier": null, "highway": null, "ref": null, "address": null, "is_in": null, "place": null, "man_made": null, "other_tags": "\"leisure\"=>\"picnic_table\"" }, "geometry": { "type": "Point", "coordinates": [ 139.523528199999987, 35.4942189 ] } },
{ "type": "Feature", "properties": { "osm_id": "7847956137", "name": null, "barrier": null, "highway": null, "ref": null, "address": null, "is_in": null, "place": null, "man_made": null, "other_tags": "\"tourism\"=>\"viewpoint\"" }, "geometry": { "type": "Point", "coordinates": [ 139.523966300000012, 35.4943707 ] } },
{ "type": "Feature", "properties": { "osm_id": "7847956138", "name": null, "barrier": null, "highway": null, "ref": null, "address": null, "is_in": null, "place": null, "man_made": null, "other_tags": "\"amenity\"=>\"bench\"" }, "geometry": { "type": "Point", "coordinates": [ 139.523827399999988, 35.4936959 ] } },
{ "type": "Feature", "properties": { "osm_id": "7847956139", "name": null, "barrier": "gate", "highway": null, "ref": null, "address": null, "is_in": null, "place": null, "man_made": null, "other_tags": null }, "geometry": { "type": "Point", "coordinates": [ 139.523034599999988, 35.4941226 ] } },
{ "type": "Feature", "properties": { "osm_id": "7847956140", "name": null, "barrier": null, "highway": null, "ref": null, "address": null, "is_in": null, "place": null, "man_made": null, "other_tags": "\"amenity\"=>\"bench\"" }, "geometry": { "type": "Point", "coordinates": [ 139.523379299999988, 35.4933557 ] } },
{ "type": "Feature", "properties": { "osm_id": "7847956142", "name": null, "barrier": null, "highway": null, "ref": null, "address": null, "is_in": null, "place": null, "man_made": null, "other_tags": "\"leisure\"=>\"picnic_table\"" }, "geometry": { "type": "Point", "coordinates": [ 139.5232436, 35.4936634 ] } },
{ "type": "Feature", "properties": { "osm_id": "7847956143", "name": null, "barrier": null, "highway": null, "ref": null, "address": null, "is_in": null, "place": null, "man_made": null, "other_tags": "\"artwork_type\"=>\"statue\",\"tourism\"=>\"artwork\"" }, "geometry": { "type": "Point", "coordinates": [ 139.5222373, 35.4930005 ] } },
{ "type": "Feature", "properties": { "osm_id": "7847956146", "name": null, "barrier": null, "highway": null, "ref": null, "address": null, "is_in": null, "place": null, "man_made": null, "other_tags": "\"tourism\"=>\"viewpoint\"" }, "geometry": { "type": "Point", "coordinates": [ 139.522756500000014, 35.4931531 ] } },
{ "type": "Feature", "properties": { "osm_id": "7847956147", "name": null, "barrier": null, "highway": null, "ref": null, "address": null, "is_in": null, "place": null, "man_made": null, "other_tags": "\"tourism\"=>\"viewpoint\"" }, "geometry": { "type": "Point", "coordinates": [ 139.5240727, 35.4945715 ] } },
{ "type": "Feature", "properties": { "osm_id": "7847973697", "name": null, "barrier": null, "highway": null, "ref": null, "address": null, "is_in": null, "place": null, "man_made": null, "other_tags": "\"tourism\"=>\"viewpoint\"" }, "geometry": { "type": "Point", "coordinates": [ 139.522803399999987, 35.4953817 ] } },
{ "type": "Feature", "properties": { "osm_id": "7847973699", "name": null, "barrier": null, "highway": null, "ref": null, "address": null, "is_in": null, "place": null, "man_made": null, "other_tags": "\"tourism\"=>\"viewpoint\"" }, "geometry": { "type": "Point", "coordinates": [ 139.5233972, 35.4952095 ] } },
{ "type": "Feature", "properties": { "osm_id": "7847973701", "name": null, "barrier": null, "highway": null, "ref": null, "address": null, "is_in": null, "place": null, "man_made": null, "other_tags": "\"tourism\"=>\"viewpoint\"" }, "geometry": { "type": "Point", "coordinates": [ 139.5227338, 35.4953069 ] } },
{ "type": "Feature", "properties": { "osm_id": "7847973704", "name": null, "barrier": null, "highway": null, "ref": null, "address": null, "is_in": null, "place": null, "man_made": null, "other_tags": "\"amenity\"=>\"bench\"" }, "geometry": { "type": "Point", "coordinates": [ 139.5233426, 35.4951701 ] } },
{ "type": "Feature", "properties": { "osm_id": "7847973705", "name": null, "barrier": null, "highway": null, "ref": null, "address": null, "is_in": null, "place": null, "man_made": null, "other_tags": "\"tourism\"=>\"viewpoint\"" }, "geometry": { "type": "Point", "coordinates": [ 139.523672, 35.4945672 ] } },
{ "type": "Feature", "properties": { "osm_id": "7847973706", "name": null, "barrier": null, "highway": null, "ref": null, "address": null, "is_in": null, "place": null, "man_made": null, "other_tags": "\"amenity\"=>\"drinking_water\"" }, "geometry": { "type": "Point", "coordinates": [ 139.5229539, 35.4953093 ] } },
{ "type": "Feature", "properties": { "osm_id": "7847973708", "name": null, "barrier": null, "highway": null, "ref": null, "address": null, "is_in": null, "place": null, "man_made": null, "other_tags": "\"artwork_type\"=>\"statue\",\"tourism\"=>\"artwork\"" }, "geometry": { "type": "Point", "coordinates": [ 139.5227104, 35.4951078 ] } },
{ "type": "Feature", "properties": { "osm_id": "7847973710", "name": null, "barrier": null, "highway": null, "ref": null, "address": null, "is_in": null, "place": null, "man_made": null, "other_tags": "\"tourism\"=>\"viewpoint\"" }, "geometry": { "type": "Point", "coordinates": [ 139.5237702, 35.4946157 ] } },
{ "type": "Feature", "properties": { "osm_id": "7847973711", "name": null, "barrier": null, "highway": null, "ref": null, "address": null, "is_in": null, "place": null, "man_made": null, "other_tags": "\"tourism\"=>\"viewpoint\"" }, "geometry": { "type": "Point", "coordinates": [ 139.523324800000012, 35.4953174 ] } },
{ "type": "Feature", "properties": { "osm_id": "7847984629", "name": null, "barrier": null, "highway": null, "ref": null, "address": null, "is_in": null, "place": null, "man_made": null, "other_tags": "\"amenity\"=>\"vending_machine\",\"vending\"=>\"drinks\"" }, "geometry": { "type": "Point", "coordinates": [ 139.5242762, 35.4962927 ] } },
{ "type": "Feature", "properties": { "osm_id": "7847984630", "name": null, "barrier": null, "highway": null, "ref": null, "address": null, "is_in": null, "place": null, "man_made": null, "other_tags": "\"information\"=>\"guidepost\",\"tourism\"=>\"information\"" }, "geometry": { "type": "Point", "coordinates": [ 139.5246745, 35.4961568 ] } },
{ "type": "Feature", "properties": { "osm_id": "7847984632", "name": null, "barrier": null, "highway": null, "ref": null, "address": null, "is_in": null, "place": null, "man_made": null, "other_tags": "\"leisure\"=>\"picnic_table\"" }, "geometry": { "type": "Point", "coordinates": [ 139.523542099999986, 35.4967199 ] } },
{ "type": "Feature", "properties": { "osm_id": "7847984634", "name": null, "barrier": null, "highway": null, "ref": null, "address": null, "is_in": null, "place": null, "man_made": null, "other_tags": "\"information\"=>\"guidepost\",\"tourism\"=>\"information\"" }, "geometry": { "type": "Point", "coordinates": [ 139.5247153, 35.4962273 ] } },
{ "type": "Feature", "properties": { "osm_id": "7847984636", "name": null, "barrier": null, "highway": null, "ref": null, "address": null, "is_in": null, "place": null, "man_made": null, "other_tags": "\"information\"=>\"map\",\"tourism\"=>\"information\"" }, "geometry": { "type": "Point", "coordinates": [ 139.524232899999987, 35.4953443 ] } },
{ "type": "Feature", "properties": { "osm_id": "7847984637", "name": null, "barrier": null, "highway": null, "ref": null, "address": null, "is_in": null, "place": null, "man_made": null, "other_tags": "\"information\"=>\"guidepost\",\"tourism\"=>\"information\"" }, "geometry": { "type": "Point", "coordinates": [ 139.524216, 35.4965913 ] } },
{ "type": "Feature", "properties": { "osm_id": "7847984639", "name": null, "barrier": null, "highway": null, "ref": null, "address": null, "is_in": null, "place": null, "man_made": null, "other_tags": "\"amenity\"=>\"vending_machine\",\"vending\"=>\"sweets\"" }, "geometry": { "type": "Point", "coordinates": [ 139.5242757, 35.4963353 ] } },
{ "type": "Feature", "properties": { "osm_id": "7847984640", "name": null, "barrier": null, "highway": null, "ref": null, "address": null, "is_in": null, "place": null, "man_made": null, "other_tags": "\"amenity\"=>\"drinking_water\"" }, "geometry": { "type": "Point", "coordinates": [ 139.5245002, 35.4962897 ] } },
{ "type": "Feature", "properties": { "osm_id": "7847984642", "name": null, "barrier": null, "highway": null, "ref": null, "address": null, "is_in": null, "place": null, "man_made": null, "other_tags": "\"leisure\"=>\"picnic_table\"" }, "geometry": { "type": "Point", "coordinates": [ 139.5235092, 35.496774 ] } },
{ "type": "Feature", "properties": { "osm_id": "7847984643", "name": null, "barrier": null, "highway": null, "ref": null, "address": null, "is_in": null, "place": null, "man_made": null, "other_tags": "\"amenity\"=>\"vending_machine\",\"vending\"=>\"drinks\"" }, "geometry": { "type": "Point", "coordinates": [ 139.5243051, 35.4951946 ] } },
{ "type": "Feature", "properties": { "osm_id": "7847984644", "name": null, "barrier": null, "highway": null, "ref": null, "address": null, "is_in": null, "place": null, "man_made": null, "other_tags": "\"information\"=>\"guidepost\",\"tourism\"=>\"information\"" }, "geometry": { "type": "Point", "coordinates": [ 139.5242973, 35.4955436 ] } },
{ "type": "Feature", "properties": { "osm_id": "7847984645", "name": null, "barrier": null, "highway": null, "ref": null, "address": null, "is_in": null, "place": null, "man_made": null, "other_tags": "\"artwork_type\"=>\"statue\",\"tourism\"=>\"artwork\"" }, "geometry": { "type": "Point", "coordinates": [ 139.523772, 35.4968629 ] } },
{ "type": "Feature", "properties": { "osm_id": "7847984648", "name": null, "barrier": null, "highway": null, "ref": null, "address": null, "is_in": null, "place": null, "man_made": null, "other_tags": "\"amenity\"=>\"waste_basket\"" }, "geometry": { "type": "Point", "coordinates": [ 139.5242944, 35.4952309 ] } },
{ "type": "Feature", "properties": { "osm_id": "7847984649", "name": null, "barrier": null, "highway": null, "ref": null, "address": null, "is_in": null, "place": null, "man_made": null, "other_tags": "\"amenity\"=>\"vending_machine\",\"vending\"=>\"ice_cream\"" }, "geometry": { "type": "Point", "coordinates": [ 139.5245296, 35.4962075 ] } },
{ "type": "Feature", "properties": { "osm_id": "7847984651", "name": null, "barrier": null, "highway": null, "ref": null, "address": null, "is_in": null, "place": null, "man_made": null, "other_tags": "\"leisure\"=>\"picnic_table\"" }, "geometry": { "type": "Point", "coordinates": [ 139.5234848, 35.4968253 ] } },
{ "type": "Feature", "properties": { "osm_id": "7847984653", "name": null, "barrier": null, "highway": null, "ref": null, "address": null, "is_in": null, "place": null, "man_made": null, "other_tags": "\"information\"=>\"guidepost\",\"tourism\"=>\"information\"" }, "geometry": { "type": "Point", "coordinates": [ 139.5247489, 35.4962076 ] } },
{ "type": "Feature", "properties": { "osm_id": "7847984654", "name": null, "barrier": null, "highway": null, "ref": null, "address": null, "is_in": null, "place": null, "man_made": null, "other_tags": "\"amenity\"=>\"childcare\"" }, "geometry": { "type": "Point", "coordinates": [ 139.524558500000012, 35.4952192 ] } },
{ "type": "Feature", "properties": { "osm_id": "7847984655", "name": null, "barrier": null, "highway": null, "ref": null, "address": null, "is_in": null, "place": null, "man_made": null, "other_tags": "\"artwork_type\"=>\"statue\",\"tourism\"=>\"artwork\"" }, "geometry": { "type": "Point", "coordinates": [ 139.523662800000011, 35.4969046 ] } },
{ "type": "Feature", "properties": { "osm_id": "7847984657", "name": null, "barrier": null, "highway": null, "ref": null, "address": null, "is_in": null, "place": null, "man_made": null, "other_tags": "\"amenity\"=>\"vending_machine\",\"vending\"=>\"ice_cream\"" }, "geometry": { "type": "Point", "coordinates": [ 139.5244162, 35.4952084 ] } },
{ "type": "Feature", "properties": { "osm_id": "7847984658", "name": null, "barrier": null, "highway": null, "ref": null, "address": null, "is_in": null, "place": null, "man_made": null, "other_tags": "\"amenity\"=>\"waste_basket\"" }, "geometry": { "type": "Point", "coordinates": [ 139.5243367, 35.4963654 ] } },
{ "type": "Feature", "properties": { "osm_id": "7848122951", "name": null, "barrier": "gate", "highway": null, "ref": null, "address": null, "is_in": null, "place": null, "man_made": null, "other_tags": null }, "geometry": { "type": "Point", "coordinates": [ 139.523426, 35.4982569 ] } },
{ "type": "Feature", "properties": { "osm_id": "7848122952", "name": null, "barrier": null, "highway": null, "ref": null, "address": null, "is_in": null, "place": null, "man_made": null, "other_tags": "\"amenity\"=>\"bench\"" }, "geometry": { "type": "Point", "coordinates": [ 139.525046800000013, 35.4969275 ] } },
{ "type": "Feature", "properties": { "osm_id": "7848122954", "name": null, "barrier": null, "highway": null, "ref": null, "address": null, "is_in": null, "place": null, "man_made": null, "other_tags": "\"amenity\"=>\"waste_basket\"" }, "geometry": { "type": "Point", "coordinates": [ 139.5232456, 35.4981281 ] } },
{ "type": "Feature", "properties": { "osm_id": "7848122955", "name": null, "barrier": null, "highway": null, "ref": null, "address": null, "is_in": null, "place": null, "man_made": null, "other_tags": "\"amenity\"=>\"bench\"" }, "geometry": { "type": "Point", "coordinates": [ 139.524278399999986, 35.497594 ] } },
{ "type": "Feature", "properties": { "osm_id": "7848122957", "name": null, "barrier": null, "highway": null, "ref": null, "address": null, "is_in": null, "place": null, "man_made": null, "other_tags": "\"tourism\"=>\"viewpoint\"" }, "geometry": { "type": "Point", "coordinates": [ 139.524328200000014, 35.4970011 ] } },
{ "type": "Feature", "properties": { "osm_id": "7848122959", "name": null, "barrier": null, "highway": null, "ref": null, "address": null, "is_in": null, "place": null, "man_made": null, "other_tags": "\"leisure\"=>\"picnic_table\"" }, "geometry": { "type": "Point", "coordinates": [ 139.523225700000012, 35.4984094 ] } },
{ "type": "Feature", "properties": { "osm_id": "7848122960", "name": null, "barrier": null, "highway": null, "ref": null, "address": null, "is_in": null, "place": null, "man_made": null, "other_tags": "\"amenity\"=>\"bench\"" }, "geometry": { "type": "Point", "coordinates": [ 139.524623, 35.4974159 ] } },